{
  "departmentCode": "51",
  "departmentName": "Marne",
  "stats": {
    "communeCount": 610,
    "totalPopulation": 563837,
    "totalSurface": 818877
  },
  "communes": [
    {
      "nom": "Ablancourt",
      "code": "51001",
      "codesPostaux": ["51240"],
      "centre": {
        "type": "Point",
        "coordinates": [4.531, 48.8103]
      },
      "mairie": {
        "type": "Point",
        "coordinates": [4.5213, 48.8133]
      },
      "population": 165,
      "surface": 717.04,
      "radius": 1.51
    },
    {
      "nom": "Aigny",
      "code": "51003",
      "codesPostaux": ["51150"],
      "centre": {
        "type": "Point",
        "coordinates": [4.2243, 49.0434]
      },
      "mairie": {
        "type": "Point",
        "coordinates": [4.2072, 49.0352]
      },
      "population": 287,
      "surface": 1122.11,
      "radius": 1.89
    },
    {
      "nom": "Allemanche-Launay-et-Soyer",
      "code": "51004",
      "codesPostaux": ["51260"],
      "centre": {
        "type": "Point",
        "coordinates": [3.7932, 48.608]
      },
      "mairie": {
        "type": "Point",
        "coordinates": [3.7875, 48.604]
      },
      "population": 118,
      "surface": 1524.99,
      "radius": 2.2
    },
    {
      "nom": "Allemant",
      "code": "51005",
      "codesPostaux": ["51120"],
      "centre": {
        "type": "Point",
        "coordinates": [3.8221, 48.7633]
      },
      "mairie": {
        "type": "Point",
        "coordinates": [3.7993, 48.7618]
      },
      "population": 184,
      "surface": 1585.26,
      "radius": 2.25
    },
    {
      "nom": "Alliancelles",
      "code": "51006",
      "codesPostaux": ["51250"],
      "centre": {
        "type": "Point",
        "coordinates": [4.8744, 48.8016]
      },
      "mairie": {
        "type": "Point",
        "coordinates": [4.8839, 48.8088]
      },
      "population": 151,
      "surface": 695.91,
      "radius": 1.49
    },
    {
      "nom": "Ambonnay",
      "code": "51007",
      "codesPostaux": ["51150"],
      "centre": {
        "type": "Point",
        "coordinates": [4.1778, 49.0926]
      },
      "mairie": {
        "type": "Point",
        "coordinates": [4.1717, 49.0787]
      },
      "population": 962,
      "surface": 1173.82,
      "radius": 1.93
    },
    {
      "nom": "Ambrières",
      "code": "51008",
      "codesPostaux": ["51290"],
      "centre": {
        "type": "Point",
        "coordinates": [4.8276, 48.6285]
      },
      "mairie": {
        "type": "Point",
        "coordinates": [4.838, 48.635]
      },
      "population": 212,
      "surface": 1000.96,
      "radius": 1.78
    },
    {
      "nom": "Anglure",
      "code": "51009",
      "codesPostaux": ["51260"],
      "centre": {
        "type": "Point",
        "coordinates": [3.8166, 48.5891]
      },
      "mairie": {
        "type": "Point",
        "coordinates": [3.8122, 48.5836]
      },
      "population": 789,
      "surface": 805.76,
      "radius": 1.6
    },
    {
      "nom": "Angluzelles-et-Courcelles",
      "code": "51010",
      "codesPostaux": ["51230"],
      "centre": {
        "type": "Point",
        "coordinates": [3.9125, 48.6646]
      },
      "mairie": {
        "type": "Point",
        "coordinates": [3.8796, 48.6581]
      },
      "population": 143,
      "surface": 1374.65,
      "radius": 2.09
    },
    {
      "nom": "Anthenay",
      "code": "51012",
      "codesPostaux": ["51700"],
      "centre": {
        "type": "Point",
        "coordinates": [3.7368, 49.1414]
      },
      "mairie": {
        "type": "Point",
        "coordinates": [3.7351, 49.1423]
      },
      "population": 71,
      "surface": 662.2,
      "radius": 1.45
    },
    {
      "nom": "Aougny",
      "code": "51013",
      "codesPostaux": ["51170"],
      "centre": {
        "type": "Point",
        "coordinates": [3.7267, 49.1878]
      },
      "mairie": {
        "type": "Point",
        "coordinates": [3.7252, 49.1819]
      },
      "population": 101,
      "surface": 748.49,
      "radius": 1.54
    },
    {
      "nom": "Arcis-le-Ponsart",
      "code": "51014",
      "codesPostaux": ["51170"],
      "centre": {
        "type": "Point",
        "coordinates": [3.6868, 49.2235]
      },
      "mairie": {
        "type": "Point",
        "coordinates": [3.6947, 49.2347]
      },
      "population": 287,
      "surface": 1548.46,
      "radius": 2.22
    },
    {
      "nom": "Argers",
      "code": "51015",
      "codesPostaux": ["51800"],
      "centre": {
        "type": "Point",
        "coordinates": [4.8597, 49.0654]
      },
      "mairie": {
        "type": "Point",
        "coordinates": [4.8553, 49.069]
      },
      "population": 109,
      "surface": 698.61,
      "radius": 1.49
    },
    {
      "nom": "Arrigny",
      "code": "51016",
      "codesPostaux": ["51290"],
      "centre": {
        "type": "Point",
        "coordinates": [4.6936, 48.6036]
      },
      "mairie": {
        "type": "Point",
        "coordinates": [4.7067, 48.6235]
      },
      "population": 233,
      "surface": 1607.77,
      "radius": 2.26
    },
    {
      "nom": "Arzillières-Neuville",
      "code": "51017",
      "codesPostaux": ["51290"],
      "centre": {
        "type": "Point",
        "coordinates": [4.6041, 48.6419]
      },
      "mairie": {
        "type": "Point",
        "coordinates": [4.5887, 48.645]
      },
      "population": 326,
      "surface": 1224.71,
      "radius": 1.97
    },
    {
      "nom": "Athis",
      "code": "51018",
      "codesPostaux": ["51150"],
      "centre": {
        "type": "Point",
        "coordinates": [4.1302, 49.0022]
      },
      "mairie": {
        "type": "Point",
        "coordinates": [4.1285, 49.0174]
      },
      "population": 888,
      "surface": 1686.04,
      "radius": 2.32
    },
    {
      "nom": "Aubérive",
      "code": "51019",
      "codesPostaux": ["51600"],
      "centre": {
        "type": "Point",
        "coordinates": [4.4114, 49.1959]
      },
      "mairie": {
        "type": "Point",
        "coordinates": [4.4172, 49.2036]
      },
      "population": 247,
      "surface": 2766.55,
      "radius": 2.97
    },
    {
      "nom": "Aubilly",
      "code": "51020",
      "codesPostaux": ["51170"],
      "centre": {
        "type": "Point",
        "coordinates": [3.8536, 49.2122]
      },
      "mairie": {
        "type": "Point",
        "coordinates": [3.8582, 49.2131]
      },
      "population": 51,
      "surface": 320.72,
      "radius": 1.01
    },
    {
      "nom": "Aulnay-l'Aître",
      "code": "51022",
      "codesPostaux": ["51240"],
      "centre": {
        "type": "Point",
        "coordinates": [4.5674, 48.8262]
      },
      "mairie": {
        "type": "Point",
        "coordinates": [4.5616, 48.8228]
      },
      "population": 176,
      "surface": 830.93,
      "radius": 1.63
    },
    {
      "nom": "Aulnay-sur-Marne",
      "code": "51023",
      "codesPostaux": ["51150"],
      "centre": {
        "type": "Point",
        "coordinates": [4.2091, 48.9986]
      },
      "mairie": {
        "type": "Point",
        "coordinates": [4.2047, 49.0074]
      },
      "population": 276,
      "surface": 907.24,
      "radius": 1.7
    },
    {
      "nom": "Auménancourt",
      "code": "51025",
      "codesPostaux": ["51110"],
      "centre": {
        "type": "Point",
        "coordinates": [4.0605, 49.3823]
      },
      "mairie": {
        "type": "Point",
        "coordinates": [4.0687, 49.3848]
      },
      "population": 1118,
      "surface": 1281.29,
      "radius": 2.02
    },
    {
      "nom": "Auve",
      "code": "51027",
      "codesPostaux": ["51800"],
      "centre": {
        "type": "Point",
        "coordinates": [4.6851, 49.028]
      },
      "mairie": {
        "type": "Point",
        "coordinates": [4.6941, 49.0334]
      },
      "population": 313,
      "surface": 2326.73,
      "radius": 2.72
    },
    {
      "nom": "Avenay-Val-d'Or",
      "code": "51028",
      "codesPostaux": ["51160"],
      "centre": {
        "type": "Point",
        "coordinates": [4.0453, 49.0743]
      },
      "mairie": {
        "type": "Point",
        "coordinates": [4.0471, 49.0687]
      },
      "population": 961,
      "surface": 1242.17,
      "radius": 1.99
    },
    {
      "nom": "Avize",
      "code": "51029",
      "codesPostaux": ["51190"],
      "centre": {
        "type": "Point",
        "coordinates": [4.0056, 48.9724]
      },
      "mairie": {
        "type": "Point",
        "coordinates": [4.0103, 48.972]
      },
      "population": 1751,
      "surface": 762.58,
      "radius": 1.56
    },
    {
      "nom": "Aÿ-Champagne",
      "code": "51030",
      "codesPostaux": ["51150", "51160"],
      "centre": {
        "type": "Point",
        "coordinates": [4.0414, 49.0561]
      },
      "mairie": {
        "type": "Point",
        "coordinates": [4.0046, 49.0534]
      },
      "population": 5148,
      "surface": 3209.75,
      "radius": 3.2
    },
    {
      "nom": "Baconnes",
      "code": "51031",
      "codesPostaux": ["51400"],
      "centre": {
        "type": "Point",
        "coordinates": [4.3344, 49.1663]
      },
      "mairie": {
        "type": "Point",
        "coordinates": [4.3391, 49.16]
      },
      "population": 292,
      "surface": 2121.26,
      "radius": 2.6
    },
    {
      "nom": "Bagneux",
      "code": "51032",
      "codesPostaux": ["51260"],
      "centre": {
        "type": "Point",
        "coordinates": [3.8304, 48.5605]
      },
      "mairie": {
        "type": "Point",
        "coordinates": [3.8289, 48.5578]
      },
      "population": 408,
      "surface": 1385.53,
      "radius": 2.1
    },
    {
      "nom": "Bannay",
      "code": "51034",
      "codesPostaux": ["51270"],
      "centre": {
        "type": "Point",
        "coordinates": [3.7218, 48.8565]
      },
      "mairie": {
        "type": "Point",
        "coordinates": [3.7242, 48.8594]
      },
      "population": 23,
      "surface": 718.64,
      "radius": 1.51
    },
    {
      "nom": "Bannes",
      "code": "51035",
      "codesPostaux": ["51230"],
      "centre": {
        "type": "Point",
        "coordinates": [3.9308, 48.7908]
      },
      "mairie": {
        "type": "Point",
        "coordinates": [3.9177, 48.8015]
      },
      "population": 248,
      "surface": 2330.22,
      "radius": 2.72
    },
    {
      "nom": "Barbonne-Fayel",
      "code": "51036",
      "codesPostaux": ["51120"],
      "centre": {
        "type": "Point",
        "coordinates": [3.6885, 48.6541]
      },
      "mairie": {
        "type": "Point",
        "coordinates": [3.6961, 48.6583]
      },
      "population": 481,
      "surface": 2439,
      "radius": 2.79
    },
    {
      "nom": "Baslieux-lès-Fismes",
      "code": "51037",
      "codesPostaux": ["51170"],
      "centre": {
        "type": "Point",
        "coordinates": [3.7148, 49.3233]
      },
      "mairie": {
        "type": "Point",
        "coordinates": [3.7129, 49.3251]
      },
      "population": 342,
      "surface": 560.27,
      "radius": 1.34
    },
    {
      "nom": "Baslieux-sous-Châtillon",
      "code": "51038",
      "codesPostaux": ["51700"],
      "centre": {
        "type": "Point",
        "coordinates": [3.794, 49.1245]
      },
      "mairie": {
        "type": "Point",
        "coordinates": [3.7964, 49.1211]
      },
      "population": 175,
      "surface": 589.15,
      "radius": 1.37
    },
    {
      "nom": "Bassu",
      "code": "51039",
      "codesPostaux": ["51300"],
      "centre": {
        "type": "Point",
        "coordinates": [4.6918, 48.8334]
      },
      "mairie": {
        "type": "Point",
        "coordinates": [4.6935, 48.8318]
      },
      "population": 94,
      "surface": 1028.88,
      "radius": 1.81
    },
    {
      "nom": "Bassuet",
      "code": "51040",
      "codesPostaux": ["51300"],
      "centre": {
        "type": "Point",
        "coordinates": [4.6699, 48.8023]
      },
      "mairie": {
        "type": "Point",
        "coordinates": [4.6661, 48.7968]
      },
      "population": 239,
      "surface": 836.76,
      "radius": 1.63
    },
    {
      "nom": "Baudement",
      "code": "51041",
      "codesPostaux": ["51260"],
      "centre": {
        "type": "Point",
        "coordinates": [3.7721, 48.5802]
      },
      "mairie": {
        "type": "Point",
        "coordinates": [3.7759, 48.5753]
      },
      "population": 99,
      "surface": 854.2,
      "radius": 1.65
    },
    {
      "nom": "Baye",
      "code": "51042",
      "codesPostaux": ["51270"],
      "centre": {
        "type": "Point",
        "coordinates": [3.7566, 48.8595]
      },
      "mairie": {
        "type": "Point",
        "coordinates": [3.7639, 48.8539]
      },
      "population": 390,
      "surface": 1798.91,
      "radius": 2.39
    },
    {
      "nom": "Bazancourt",
      "code": "51043",
      "codesPostaux": ["51110"],
      "centre": {
        "type": "Point",
        "coordinates": [4.1704, 49.371]
      },
      "mairie": {
        "type": "Point",
        "coordinates": [4.168, 49.3663]
      },
      "population": 2441,
      "surface": 1165.3,
      "radius": 1.93
    },
    {
      "nom": "Beaumont-sur-Vesle",
      "code": "51044",
      "codesPostaux": ["51360"],
      "centre": {
        "type": "Point",
        "coordinates": [4.1826, 49.175]
      },
      "mairie": {
        "type": "Point",
        "coordinates": [4.186, 49.1739]
      },
      "population": 770,
      "surface": 574.15,
      "radius": 1.35
    },
    {
      "nom": "Beaunay",
      "code": "51045",
      "codesPostaux": ["51270"],
      "centre": {
        "type": "Point",
        "coordinates": [3.8857, 48.8771]
      },
      "mairie": {
        "type": "Point",
        "coordinates": [3.8756, 48.8859]
      },
      "population": 103,
      "surface": 355.76,
      "radius": 1.06
    },
    {
      "nom": "Beine-Nauroy",
      "code": "51046",
      "codesPostaux": ["51490"],
      "centre": {
        "type": "Point",
        "coordinates": [4.2322, 49.2444]
      },
      "mairie": {
        "type": "Point",
        "coordinates": [4.2157, 49.2492]
      },
      "population": 987,
      "surface": 4271.57,
      "radius": 3.69
    },
    {
      "nom": "Belval-en-Argonne",
      "code": "51047",
      "codesPostaux": ["51330"],
      "centre": {
        "type": "Point",
        "coordinates": [4.9814, 48.9439]
      },
      "mairie": {
        "type": "Point",
        "coordinates": [5.0042, 48.9481]
      },
      "population": 44,
      "surface": 1220.92,
      "radius": 1.97
    },
    {
      "nom": "Belval-sous-Châtillon",
      "code": "51048",
      "codesPostaux": ["51480"],
      "centre": {
        "type": "Point",
        "coordinates": [3.8533, 49.124]
      },
      "mairie": {
        "type": "Point",
        "coordinates": [3.854, 49.1222]
      },
      "population": 171,
      "surface": 712.13,
      "radius": 1.51
    },
    {
      "nom": "Bergères-lès-Vertus",
      "code": "51049",
      "codesPostaux": ["51130"],
      "centre": {
        "type": "Point",
        "coordinates": [4.0108, 48.8747]
      },
      "mairie": {
        "type": "Point",
        "coordinates": [4.0048, 48.8794]
      },
      "population": 580,
      "surface": 1834.09,
      "radius": 2.42
    },
    {
      "nom": "Bergères-sous-Montmirail",
      "code": "51050",
      "codesPostaux": ["51210"],
      "centre": {
        "type": "Point",
        "coordinates": [3.5965, 48.8472]
      },
      "mairie": {
        "type": "Point",
        "coordinates": [3.5902, 48.8446]
      },
      "population": 145,
      "surface": 1061.9,
      "radius": 1.84
    },
    {
      "nom": "Berméricourt",
      "code": "51051",
      "codesPostaux": ["51220"],
      "centre": {
        "type": "Point",
        "coordinates": [3.9842, 49.3639]
      },
      "mairie": {
        "type": "Point",
        "coordinates": [3.9932, 49.357]
      },
      "population": 263,
      "surface": 809.36,
      "radius": 1.61
    },
    {
      "nom": "Berru",
      "code": "51052",
      "codesPostaux": ["51420"],
      "centre": {
        "type": "Point",
        "coordinates": [4.1631, 49.2711]
      },
      "mairie": {
        "type": "Point",
        "coordinates": [4.1508, 49.271]
      },
      "population": 618,
      "surface": 1366.17,
      "radius": 2.09
    },
    {
      "nom": "Berzieux",
      "code": "51053",
      "codesPostaux": ["51800"],
      "centre": {
        "type": "Point",
        "coordinates": [4.7949, 49.1606]
      },
      "mairie": {
        "type": "Point",
        "coordinates": [4.798, 49.1652]
      },
      "population": 71,
      "surface": 1165.68,
      "radius": 1.93
    },
    {
      "nom": "Bétheniville",
      "code": "51054",
      "codesPostaux": ["51490"],
      "centre": {
        "type": "Point",
        "coordinates": [4.3672, 49.2929]
      },
      "mairie": {
        "type": "Point",
        "coordinates": [4.3696, 49.2907]
      },
      "population": 1270,
      "surface": 1769.13,
      "radius": 2.37
    },
    {
      "nom": "Bétheny",
      "code": "51055",
      "codesPostaux": ["51450"],
      "centre": {
        "type": "Point",
        "coordinates": [4.0623, 49.2979]
      },
      "mairie": {
        "type": "Point",
        "coordinates": [4.0584, 49.2859]
      },
      "population": 7030,
      "surface": 2000.18,
      "radius": 2.52
    },
    {
      "nom": "Bethon",
      "code": "51056",
      "codesPostaux": ["51260"],
      "centre": {
        "type": "Point",
        "coordinates": [3.6084, 48.6105]
      },
      "mairie": {
        "type": "Point",
        "coordinates": [3.6154, 48.6119]
      },
      "population": 228,
      "surface": 1535.44,
      "radius": 2.21
    },
    {
      "nom": "Bettancourt-la-Longue",
      "code": "51057",
      "codesPostaux": ["51330"],
      "centre": {
        "type": "Point",
        "coordinates": [4.882, 48.8339]
      },
      "mairie": {
        "type": "Point",
        "coordinates": [4.8907, 48.8289]
      },
      "population": 75,
      "surface": 614.95,
      "radius": 1.4
    },
    {
      "nom": "Bezannes",
      "code": "51058",
      "codesPostaux": ["51430"],
      "centre": {
        "type": "Point",
        "coordinates": [3.9915, 49.2223]
      },
      "mairie": {
        "type": "Point",
        "coordinates": [3.9866, 49.2191]
      },
      "population": 4456,
      "surface": 812.18,
      "radius": 1.61
    },
    {
      "nom": "Bignicourt-sur-Marne",
      "code": "51059",
      "codesPostaux": ["51300"],
      "centre": {
        "type": "Point",
        "coordinates": [4.6084, 48.6804]
      },
      "mairie": {
        "type": "Point",
        "coordinates": [4.6103, 48.6807]
      },
      "population": 373,
      "surface": 284.08,
      "radius": 0.95
    },
    {
      "nom": "Bignicourt-sur-Saulx",
      "code": "51060",
      "codesPostaux": ["51340"],
      "centre": {
        "type": "Point",
        "coordinates": [4.7912, 48.7586]
      },
      "mairie": {
        "type": "Point",
        "coordinates": [4.7759, 48.765]
      },
      "population": 156,
      "surface": 1105.35,
      "radius": 1.88
    },
    {
      "nom": "Billy-le-Grand",
      "code": "51061",
      "codesPostaux": ["51400"],
      "centre": {
        "type": "Point",
        "coordinates": [4.2329, 49.1078]
      },
      "mairie": {
        "type": "Point",
        "coordinates": [4.2323, 49.1082]
      },
      "population": 139,
      "surface": 729.05,
      "radius": 1.52
    },
    {
      "nom": "Binarville",
      "code": "51062",
      "codesPostaux": ["51800"],
      "centre": {
        "type": "Point",
        "coordinates": [4.9064, 49.2467]
      },
      "mairie": {
        "type": "Point",
        "coordinates": [4.8941, 49.2409]
      },
      "population": 87,
      "surface": 1666.95,
      "radius": 2.3
    },
    {
      "nom": "Blacy",
      "code": "51065",
      "codesPostaux": ["51300"],
      "centre": {
        "type": "Point",
        "coordinates": [4.5133, 48.7242]
      },
      "mairie": {
        "type": "Point",
        "coordinates": [4.5561, 48.7272]
      },
      "population": 618,
      "surface": 1739.31,
      "radius": 2.35
    },
    {
      "nom": "Blaise-sous-Arzillières",
      "code": "51066",
      "codesPostaux": ["51300"],
      "centre": {
        "type": "Point",
        "coordinates": [4.5849, 48.6715]
      },
      "mairie": {
        "type": "Point",
        "coordinates": [4.5842, 48.6715]
      },
      "population": 318,
      "surface": 689.01,
      "radius": 1.48
    },
    {
      "nom": "Blancs-Coteaux",
      "code": "51612",
      "codesPostaux": ["51130", "51190"],
      "centre": {
        "type": "Point",
        "coordinates": [3.9714, 48.9227]
      },
      "mairie": {
        "type": "Point",
        "coordinates": [4.0008, 48.9048]
      },
      "population": 3120,
      "surface": 6588.03,
      "radius": 4.58
    },
    {
      "nom": "Blesme",
      "code": "51068",
      "codesPostaux": ["51340"],
      "centre": {
        "type": "Point",
        "coordinates": [4.7893, 48.7311]
      },
      "mairie": {
        "type": "Point",
        "coordinates": [4.7758, 48.7258]
      },
      "population": 197,
      "surface": 668.02,
      "radius": 1.46
    },
    {
      "nom": "Bligny",
      "code": "51069",
      "codesPostaux": ["51170"],
      "centre": {
        "type": "Point",
        "coordinates": [3.8596, 49.1935]
      },
      "mairie": {
        "type": "Point",
        "coordinates": [3.8604, 49.1947]
      },
      "population": 115,
      "surface": 261.64,
      "radius": 0.91
    },
    {
      "nom": "Boissy-le-Repos",
      "code": "51070",
      "codesPostaux": ["51210"],
      "centre": {
        "type": "Point",
        "coordinates": [3.6408, 48.848]
      },
      "mairie": {
        "type": "Point",
        "coordinates": [3.6478, 48.8469]
      },
      "population": 233,
      "surface": 1520.18,
      "radius": 2.2
    },
    {
      "nom": "Bouchy-Saint-Genest",
      "code": "51071",
      "codesPostaux": ["51310"],
      "centre": {
        "type": "Point",
        "coordinates": [3.4904, 48.6551]
      },
      "mairie": {
        "type": "Point",
        "coordinates": [3.5091, 48.6502]
      },
      "population": 210,
      "surface": 1962.59,
      "radius": 2.5
    },
    {
      "nom": "Bouilly",
      "code": "51072",
      "codesPostaux": ["51390"],
      "centre": {
        "type": "Point",
        "coordinates": [3.8976, 49.1961]
      },
      "mairie": {
        "type": "Point",
        "coordinates": [3.8887, 49.198]
      },
      "population": 229,
      "surface": 569.78,
      "radius": 1.35
    },
    {
      "nom": "Bouleuse",
      "code": "51073",
      "codesPostaux": ["51170"],
      "centre": {
        "type": "Point",
        "coordinates": [3.8419, 49.2268]
      },
      "mairie": {
        "type": "Point",
        "coordinates": [3.8408, 49.225]
      },
      "population": 226,
      "surface": 403.19,
      "radius": 1.13
    },
    {
      "nom": "Boult-sur-Suippe",
      "code": "51074",
      "codesPostaux": ["51110"],
      "centre": {
        "type": "Point",
        "coordinates": [4.1517, 49.3774]
      },
      "mairie": {
        "type": "Point",
        "coordinates": [4.1476, 49.371]
      },
      "population": 1793,
      "surface": 1970.84,
      "radius": 2.5
    },
    {
      "nom": "Bourgogne-Fresne",
      "code": "51075",
      "codesPostaux": ["51110"],
      "centre": {
        "type": "Point",
        "coordinates": [4.0855, 49.3488]
      },
      "mairie": {
        "type": "Point",
        "coordinates": [4.0697, 49.3493]
      },
      "population": 1454,
      "surface": 2702.75,
      "radius": 2.93
    },
    {
      "nom": "Boursault",
      "code": "51076",
      "codesPostaux": ["51480"],
      "centre": {
        "type": "Point",
        "coordinates": [3.8401, 49.0513]
      },
      "mairie": {
        "type": "Point",
        "coordinates": [3.8412, 49.0604]
      },
      "population": 407,
      "surface": 1649.95,
      "radius": 2.29
    },
    {
      "nom": "Bouvancourt",
      "code": "51077",
      "codesPostaux": ["51140"],
      "centre": {
        "type": "Point",
        "coordinates": [3.8575, 49.346]
      },
      "mairie": {
        "type": "Point",
        "coordinates": [3.8345, 49.3388]
      },
      "population": 175,
      "surface": 1298.96,
      "radius": 2.03
    },
    {
      "nom": "Bouy",
      "code": "51078",
      "codesPostaux": ["51400"],
      "centre": {
        "type": "Point",
        "coordinates": [4.3692, 49.0881]
      },
      "mairie": {
        "type": "Point",
        "coordinates": [4.3485, 49.0854]
      },
      "population": 536,
      "surface": 2249.68,
      "radius": 2.68
    },
    {
      "nom": "Bouzy",
      "code": "51079",
      "codesPostaux": ["51150"],
      "centre": {
        "type": "Point",
        "coordinates": [4.1297, 49.0861]
      },
      "mairie": {
        "type": "Point",
        "coordinates": [4.1464, 49.08]
      },
      "population": 833,
      "surface": 624.35,
      "radius": 1.41
    },
    {
      "nom": "Brandonvillers",
      "code": "51080",
      "codesPostaux": ["51290"],
      "centre": {
        "type": "Point",
        "coordinates": [4.5697, 48.5883]
      },
      "mairie": {
        "type": "Point",
        "coordinates": [4.559, 48.5923]
      },
      "population": 196,
      "surface": 1169.99,
      "radius": 1.93
    },
    {
      "nom": "Branscourt",
      "code": "51081",
      "codesPostaux": ["51140"],
      "centre": {
        "type": "Point",
        "coordinates": [3.8213, 49.2701]
      },
      "mairie": {
        "type": "Point",
        "coordinates": [3.8217, 49.2704]
      },
      "population": 315,
      "surface": 371.47,
      "radius": 1.09
    },
    {
      "nom": "Braux-Saint-Remy",
      "code": "51083",
      "codesPostaux": ["51800"],
      "centre": {
        "type": "Point",
        "coordinates": [4.8673, 49.0234]
      },
      "mairie": {
        "type": "Point",
        "coordinates": [4.8615, 49.0222]
      },
      "population": 81,
      "surface": 975.21,
      "radius": 1.76
    },
    {
      "nom": "Braux-Sainte-Cohière",
      "code": "51082",
      "codesPostaux": ["51800"],
      "centre": {
        "type": "Point",
        "coordinates": [4.8207, 49.0929]
      },
      "mairie": {
        "type": "Point",
        "coordinates": [4.8291, 49.0921]
      },
      "population": 94,
      "surface": 622.24,
      "radius": 1.41
    },
    {
      "nom": "Bréban",
      "code": "51084",
      "codesPostaux": ["51320"],
      "centre": {
        "type": "Point",
        "coordinates": [4.3866, 48.5777]
      },
      "mairie": {
        "type": "Point",
        "coordinates": [4.403, 48.5774]
      },
      "population": 84,
      "surface": 1073.75,
      "radius": 1.85
    },
    {
      "nom": "Breuil-sur-Vesle",
      "code": "51086",
      "codesPostaux": ["51140"],
      "centre": {
        "type": "Point",
        "coordinates": [3.7686, 49.3028]
      },
      "mairie": {
        "type": "Point",
        "coordinates": [3.7677, 49.3113]
      },
      "population": 326,
      "surface": 654.22,
      "radius": 1.44
    },
    {
      "nom": "Breuvery-sur-Coole",
      "code": "51087",
      "codesPostaux": ["51240"],
      "centre": {
        "type": "Point",
        "coordinates": [4.3032, 48.854]
      },
      "mairie": {
        "type": "Point",
        "coordinates": [4.3101, 48.8638]
      },
      "population": 210,
      "surface": 1017.54,
      "radius": 1.8
    },
    {
      "nom": "Brimont",
      "code": "51088",
      "codesPostaux": ["51220"],
      "centre": {
        "type": "Point",
        "coordinates": [4.0337, 49.3369]
      },
      "mairie": {
        "type": "Point",
        "coordinates": [4.024, 49.34]
      },
      "population": 453,
      "surface": 1262.78,
      "radius": 2
    },
    {
      "nom": "Brouillet",
      "code": "51089",
      "codesPostaux": ["51170"],
      "centre": {
        "type": "Point",
        "coordinates": [3.7371, 49.2271]
      },
      "mairie": {
        "type": "Point",
        "coordinates": [3.7397, 49.226]
      },
      "population": 60,
      "surface": 451.31,
      "radius": 1.2
    },
    {
      "nom": "Broussy-le-Grand",
      "code": "51090",
      "codesPostaux": ["51230"],
      "centre": {
        "type": "Point",
        "coordinates": [3.8686, 48.7861]
      },
      "mairie": {
        "type": "Point",
        "coordinates": [3.8782, 48.7871]
      },
      "population": 312,
      "surface": 2122.29,
      "radius": 2.6
    },
    {
      "nom": "Broussy-le-Petit",
      "code": "51091",
      "codesPostaux": ["51230"],
      "centre": {
        "type": "Point",
        "coordinates": [3.8345, 48.7859]
      },
      "mairie": {
        "type": "Point",
        "coordinates": [3.8262, 48.7913]
      },
      "population": 137,
      "surface": 1162.74,
      "radius": 1.92
    },
    {
      "nom": "Broyes",
      "code": "51092",
      "codesPostaux": ["51120"],
      "centre": {
        "type": "Point",
        "coordinates": [3.7603, 48.7611]
      },
      "mairie": {
        "type": "Point",
        "coordinates": [3.7688, 48.7582]
      },
      "population": 341,
      "surface": 1519.34,
      "radius": 2.2
    },
    {
      "nom": "Brugny-Vaudancourt",
      "code": "51093",
      "codesPostaux": ["51530"],
      "centre": {
        "type": "Point",
        "coordinates": [3.8603, 48.9849]
      },
      "mairie": {
        "type": "Point",
        "coordinates": [3.8861, 48.9999]
      },
      "population": 437,
      "surface": 1983.49,
      "radius": 2.51
    },
    {
      "nom": "Brusson",
      "code": "51094",
      "codesPostaux": ["51300"],
      "centre": {
        "type": "Point",
        "coordinates": [4.7067, 48.7416]
      },
      "mairie": {
        "type": "Point",
        "coordinates": [4.7031, 48.7498]
      },
      "population": 187,
      "surface": 487.91,
      "radius": 1.25
    },
    {
      "nom": "Bussy-le-Château",
      "code": "51097",
      "codesPostaux": ["51600"],
      "centre": {
        "type": "Point",
        "coordinates": [4.5243, 49.0558]
      },
      "mairie": {
        "type": "Point",
        "coordinates": [4.5411, 49.0637]
      },
      "population": 184,
      "surface": 2391.42,
      "radius": 2.76
    },
    {
      "nom": "Bussy-le-Repos",
      "code": "51098",
      "codesPostaux": ["51330"],
      "centre": {
        "type": "Point",
        "coordinates": [4.7387, 48.9018]
      },
      "mairie": {
        "type": "Point",
        "coordinates": [4.7563, 48.899]
      },
      "population": 136,
      "surface": 2268.89,
      "radius": 2.69
    },
    {
      "nom": "Bussy-Lettrée",
      "code": "51099",
      "codesPostaux": ["51320"],
      "centre": {
        "type": "Point",
        "coordinates": [4.2445, 48.8079]
      },
      "mairie": {
        "type": "Point",
        "coordinates": [4.26, 48.8034]
      },
      "population": 315,
      "surface": 3358.02,
      "radius": 3.27
    },
    {
      "nom": "Caurel",
      "code": "51101",
      "codesPostaux": ["51110"],
      "centre": {
        "type": "Point",
        "coordinates": [4.1476, 49.3058]
      },
      "mairie": {
        "type": "Point",
        "coordinates": [4.1527, 49.3043]
      },
      "population": 696,
      "surface": 974.32,
      "radius": 1.76
    },
    {
      "nom": "Cauroy-lès-Hermonville",
      "code": "51102",
      "codesPostaux": ["51220"],
      "centre": {
        "type": "Point",
        "coordinates": [3.9212, 49.3579]
      },
      "mairie": {
        "type": "Point",
        "coordinates": [3.9234, 49.3489]
      },
      "population": 504,
      "surface": 1024.36,
      "radius": 1.81
    },
    {
      "nom": "Cernay-en-Dormois",
      "code": "51104",
      "codesPostaux": ["51800"],
      "centre": {
        "type": "Point",
        "coordinates": [4.762, 49.2248]
      },
      "mairie": {
        "type": "Point",
        "coordinates": [4.7637, 49.2259]
      },
      "population": 134,
      "surface": 2542.61,
      "radius": 2.84
    },
    {
      "nom": "Cernay-lès-Reims",
      "code": "51105",
      "codesPostaux": ["51420"],
      "centre": {
        "type": "Point",
        "coordinates": [4.1078, 49.2539]
      },
      "mairie": {
        "type": "Point",
        "coordinates": [4.1046, 49.264]
      },
      "population": 1566,
      "surface": 1637.92,
      "radius": 2.28
    },
    {
      "nom": "Cernon",
      "code": "51106",
      "codesPostaux": ["51240"],
      "centre": {
        "type": "Point",
        "coordinates": [4.3426, 48.8307]
      },
      "mairie": {
        "type": "Point",
        "coordinates": [4.3441, 48.8402]
      },
      "population": 126,
      "surface": 1607.93,
      "radius": 2.26
    },
    {
      "nom": "Chaintrix-Bierges",
      "code": "51107",
      "codesPostaux": ["51130"],
      "centre": {
        "type": "Point",
        "coordinates": [4.1088, 48.8934]
      },
      "mairie": {
        "type": "Point",
        "coordinates": [4.1057, 48.9018]
      },
      "population": 344,
      "surface": 1028.7,
      "radius": 1.81
    },
    {
      "nom": "Châlons-en-Champagne",
      "code": "51108",
      "codesPostaux": ["51000"],
      "centre": {
        "type": "Point",
        "coordinates": [4.3801, 48.9656]
      },
      "mairie": {
        "type": "Point",
        "coordinates": [4.3633, 48.9565]
      },
      "population": 43218,
      "surface": 2601.67,
      "radius": 2.88
    },
    {
      "nom": "Châlons-sur-Vesle",
      "code": "51109",
      "codesPostaux": ["51140"],
      "centre": {
        "type": "Point",
        "coordinates": [3.9198, 49.2875]
      },
      "mairie": {
        "type": "Point",
        "coordinates": [3.9182, 49.2894]
      },
      "population": 202,
      "surface": 447.42,
      "radius": 1.19
    },
    {
      "nom": "Chaltrait",
      "code": "51110",
      "codesPostaux": ["51130"],
      "centre": {
        "type": "Point",
        "coordinates": [3.8925, 48.935]
      },
      "mairie": {
        "type": "Point",
        "coordinates": [3.8962, 48.9301]
      },
      "population": 60,
      "surface": 661.14,
      "radius": 1.45
    },
    {
      "nom": "Chambrecy",
      "code": "51111",
      "codesPostaux": ["51170"],
      "centre": {
        "type": "Point",
        "coordinates": [3.8231, 49.1834]
      },
      "mairie": {
        "type": "Point",
        "coordinates": [3.8224, 49.1831]
      },
      "population": 147,
      "surface": 618.85,
      "radius": 1.4
    },
    {
      "nom": "Chamery",
      "code": "51112",
      "codesPostaux": ["51500"],
      "centre": {
        "type": "Point",
        "coordinates": [3.9577, 49.1681]
      },
      "mairie": {
        "type": "Point",
        "coordinates": [3.9557, 49.1718]
      },
      "population": 455,
      "surface": 531.5,
      "radius": 1.3
    },
    {
      "nom": "Champaubert",
      "code": "51113",
      "codesPostaux": ["51270"],
      "centre": {
        "type": "Point",
        "coordinates": [3.766, 48.8858]
      },
      "mairie": {
        "type": "Point",
        "coordinates": [3.7764, 48.8785]
      },
      "population": 123,
      "surface": 1265.89,
      "radius": 2.01
    },
    {
      "nom": "Champfleury",
      "code": "51115",
      "codesPostaux": ["51500"],
      "centre": {
        "type": "Point",
        "coordinates": [4.0196, 49.1982]
      },
      "mairie": {
        "type": "Point",
        "coordinates": [4.0181, 49.1998]
      },
      "population": 603,
      "surface": 398.6,
      "radius": 1.13
    },
    {
      "nom": "Champguyon",
      "code": "51116",
      "codesPostaux": ["51310"],
      "centre": {
        "type": "Point",
        "coordinates": [3.5639, 48.7729]
      },
      "mairie": {
        "type": "Point",
        "coordinates": [3.5416, 48.7762]
      },
      "population": 296,
      "surface": 1677.07,
      "radius": 2.31
    },
    {
      "nom": "Champigneul-Champagne",
      "code": "51117",
      "codesPostaux": ["51150"],
      "centre": {
        "type": "Point",
        "coordinates": [4.1744, 48.9619]
      },
      "mairie": {
        "type": "Point",
        "coordinates": [4.1676, 48.971]
      },
      "population": 323,
      "surface": 2949.14,
      "radius": 3.06
    },
    {
      "nom": "Champigny",
      "code": "51118",
      "codesPostaux": ["51370"],
      "centre": {
        "type": "Point",
        "coordinates": [3.9582, 49.2675]
      },
      "mairie": {
        "type": "Point",
        "coordinates": [3.9731, 49.2684]
      },
      "population": 1616,
      "surface": 447.08,
      "radius": 1.19
    },
    {
      "nom": "Champillon",
      "code": "51119",
      "codesPostaux": ["51160"],
      "centre": {
        "type": "Point",
        "coordinates": [3.9753, 49.0859]
      },
      "mairie": {
        "type": "Point",
        "coordinates": [3.978, 49.0851]
      },
      "population": 511,
      "surface": 146.07,
      "radius": 0.68
    },
    {
      "nom": "Champlat-et-Boujacourt",
      "code": "51120",
      "codesPostaux": ["51480"],
      "centre": {
        "type": "Point",
        "coordinates": [3.8268, 49.1545]
      },
      "mairie": {
        "type": "Point",
        "coordinates": [3.8336, 49.1545]
      },
      "population": 147,
      "surface": 630.83,
      "radius": 1.42
    },
    {
      "nom": "Champvoisy",
      "code": "51121",
      "codesPostaux": ["51700"],
      "centre": {
        "type": "Point",
        "coordinates": [3.6267, 49.1274]
      },
      "mairie": {
        "type": "Point",
        "coordinates": [3.6371, 49.1292]
      },
      "population": 253,
      "surface": 917.88,
      "radius": 1.71
    },
    {
      "nom": "Changy",
      "code": "51122",
      "codesPostaux": ["51300"],
      "centre": {
        "type": "Point",
        "coordinates": [4.6788, 48.7804]
      },
      "mairie": {
        "type": "Point",
        "coordinates": [4.678, 48.773]
      },
      "population": 116,
      "surface": 624.85,
      "radius": 1.41
    },
    {
      "nom": "Chantemerle",
      "code": "51124",
      "codesPostaux": ["51260"],
      "centre": {
        "type": "Point",
        "coordinates": [3.6356, 48.6183]
      },
      "mairie": {
        "type": "Point",
        "coordinates": [3.6593, 48.6128]
      },
      "population": 49,
      "surface": 844.86,
      "radius": 1.64
    },
    {
      "nom": "Chapelaine",
      "code": "51125",
      "codesPostaux": ["51290"],
      "centre": {
        "type": "Point",
        "coordinates": [4.4777, 48.5788]
      },
      "mairie": {
        "type": "Point",
        "coordinates": [4.4982, 48.5783]
      },
      "population": 50,
      "surface": 917.17,
      "radius": 1.71
    },
    {
      "nom": "Charleville",
      "code": "51129",
      "codesPostaux": ["51120"],
      "centre": {
        "type": "Point",
        "coordinates": [3.6535, 48.8028]
      },
      "mairie": {
        "type": "Point",
        "coordinates": [3.6673, 48.8137]
      },
      "population": 260,
      "surface": 1744.47,
      "radius": 2.36
    },
    {
      "nom": "Charmont",
      "code": "51130",
      "codesPostaux": ["51330"],
      "centre": {
        "type": "Point",
        "coordinates": [4.8733, 48.8671]
      },
      "mairie": {
        "type": "Point",
        "coordinates": [4.8661, 48.87]
      },
      "population": 236,
      "surface": 2281.55,
      "radius": 2.69
    },
    {
      "nom": "Châtelraould-Saint-Louvent",
      "code": "51134",
      "codesPostaux": ["51300"],
      "centre": {
        "type": "Point",
        "coordinates": [4.5173, 48.6613]
      },
      "mairie": {
        "type": "Point",
        "coordinates": [4.548, 48.6795]
      },
      "population": 253,
      "surface": 1688.78,
      "radius": 2.32
    },
    {
      "nom": "Châtillon-sur-Broué",
      "code": "51135",
      "codesPostaux": ["51290"],
      "centre": {
        "type": "Point",
        "coordinates": [4.7011, 48.549]
      },
      "mairie": {
        "type": "Point",
        "coordinates": [4.7037, 48.5457]
      },
      "population": 85,
      "surface": 667.18,
      "radius": 1.46
    },
    {
      "nom": "Châtillon-sur-Marne",
      "code": "51136",
      "codesPostaux": ["51700"],
      "centre": {
        "type": "Point",
        "coordinates": [3.7734, 49.1044]
      },
      "mairie": {
        "type": "Point",
        "coordinates": [3.7587, 49.1006]
      },
      "population": 621,
      "surface": 1152.67,
      "radius": 1.92
    },
    {
      "nom": "Châtillon-sur-Morin",
      "code": "51137",
      "codesPostaux": ["51310"],
      "centre": {
        "type": "Point",
        "coordinates": [3.5968, 48.7006]
      },
      "mairie": {
        "type": "Point",
        "coordinates": [3.5811, 48.7138]
      },
      "population": 208,
      "surface": 1806.68,
      "radius": 2.4
    },
    {
      "nom": "Châtrices",
      "code": "51138",
      "codesPostaux": ["51800"],
      "centre": {
        "type": "Point",
        "coordinates": [4.9395, 49.0388]
      },
      "mairie": {
        "type": "Point",
        "coordinates": [4.9386, 49.0387]
      },
      "population": 36,
      "surface": 1975.93,
      "radius": 2.51
    },
    {
      "nom": "Chaudefontaine",
      "code": "51139",
      "codesPostaux": ["51800"],
      "centre": {
        "type": "Point",
        "coordinates": [4.8861, 49.1024]
      },
      "mairie": {
        "type": "Point",
        "coordinates": [4.8693, 49.1]
      },
      "population": 312,
      "surface": 1302.53,
      "radius": 2.04
    },
    {
      "nom": "Chaumuzy",
      "code": "51140",
      "codesPostaux": ["51170"],
      "centre": {
        "type": "Point",
        "coordinates": [3.8704, 49.1543]
      },
      "mairie": {
        "type": "Point",
        "coordinates": [3.8647, 49.1751]
      },
      "population": 348,
      "surface": 1992.55,
      "radius": 2.52
    },
    {
      "nom": "Chavot-Courcourt",
      "code": "51142",
      "codesPostaux": ["51530"],
      "centre": {
        "type": "Point",
        "coordinates": [3.9181, 48.9966]
      },
      "mairie": {
        "type": "Point",
        "coordinates": [3.928, 49.0047]
      },
      "population": 337,
      "surface": 439.02,
      "radius": 1.18
    },
    {
      "nom": "Cheminon",
      "code": "51144",
      "codesPostaux": ["51250"],
      "centre": {
        "type": "Point",
        "coordinates": [4.9217, 48.7421]
      },
      "mairie": {
        "type": "Point",
        "coordinates": [4.9029, 48.736]
      },
      "population": 595,
      "surface": 2767.7,
      "radius": 2.97
    },
    {
      "nom": "Chenay",
      "code": "51145",
      "codesPostaux": ["51140"],
      "centre": {
        "type": "Point",
        "coordinates": [3.9259, 49.3022]
      },
      "mairie": {
        "type": "Point",
        "coordinates": [3.929, 49.2979]
      },
      "population": 223,
      "surface": 392.11,
      "radius": 1.12
    },
    {
      "nom": "Cheniers",
      "code": "51146",
      "codesPostaux": ["51510"],
      "centre": {
        "type": "Point",
        "coordinates": [4.2464, 48.8884]
      },
      "mairie": {
        "type": "Point",
        "coordinates": [4.2454, 48.8849]
      },
      "population": 120,
      "surface": 1538.59,
      "radius": 2.21
    },
    {
      "nom": "Cheppes-la-Prairie",
      "code": "51148",
      "codesPostaux": ["51240"],
      "centre": {
        "type": "Point",
        "coordinates": [4.4447, 48.8207]
      },
      "mairie": {
        "type": "Point",
        "coordinates": [4.473, 48.8333]
      },
      "population": 141,
      "surface": 1996.58,
      "radius": 2.52
    },
    {
      "nom": "Chepy",
      "code": "51149",
      "codesPostaux": ["51240"],
      "centre": {
        "type": "Point",
        "coordinates": [4.4511, 48.9071]
      },
      "mairie": {
        "type": "Point",
        "coordinates": [4.4366, 48.8998]
      },
      "population": 456,
      "surface": 869.71,
      "radius": 1.66
    },
    {
      "nom": "Cherville",
      "code": "51150",
      "codesPostaux": ["51150"],
      "centre": {
        "type": "Point",
        "coordinates": [4.1523, 49.0038]
      },
      "mairie": {
        "type": "Point",
        "coordinates": [4.164, 49.0186]
      },
      "population": 84,
      "surface": 381.39,
      "radius": 1.1
    },
    {
      "nom": "Chichey",
      "code": "51151",
      "codesPostaux": ["51120"],
      "centre": {
        "type": "Point",
        "coordinates": [3.7527, 48.6854]
      },
      "mairie": {
        "type": "Point",
        "coordinates": [3.7597, 48.6882]
      },
      "population": 170,
      "surface": 718.01,
      "radius": 1.51
    },
    {
      "nom": "Chigny-les-Roses",
      "code": "51152",
      "codesPostaux": ["51500"],
      "centre": {
        "type": "Point",
        "coordinates": [4.0608, 49.1514]
      },
      "mairie": {
        "type": "Point",
        "coordinates": [4.0623, 49.1569]
      },
      "population": 525,
      "surface": 435.07,
      "radius": 1.18
    },
    {
      "nom": "Chouilly",
      "code": "51153",
      "codesPostaux": ["51530"],
      "centre": {
        "type": "Point",
        "coordinates": [4.0013, 49.0146]
      },
      "mairie": {
        "type": "Point",
        "coordinates": [4.0156, 49.026]
      },
      "population": 1062,
      "surface": 1607.55,
      "radius": 2.26
    },
    {
      "nom": "Clamanges",
      "code": "51154",
      "codesPostaux": ["51130"],
      "centre": {
        "type": "Point",
        "coordinates": [4.0867, 48.8315]
      },
      "mairie": {
        "type": "Point",
        "coordinates": [4.084, 48.8287]
      },
      "population": 225,
      "surface": 2365.48,
      "radius": 2.74
    },
    {
      "nom": "Clesles",
      "code": "51155",
      "codesPostaux": ["51260"],
      "centre": {
        "type": "Point",
        "coordinates": [3.8261, 48.5322]
      },
      "mairie": {
        "type": "Point",
        "coordinates": [3.8319, 48.5339]
      },
      "population": 631,
      "surface": 1333.21,
      "radius": 2.06
    },
    {
      "nom": "Cloyes-sur-Marne",
      "code": "51156",
      "codesPostaux": ["51300"],
      "centre": {
        "type": "Point",
        "coordinates": [4.6437, 48.66]
      },
      "mairie": {
        "type": "Point",
        "coordinates": [4.6373, 48.6632]
      },
      "population": 124,
      "surface": 628.29,
      "radius": 1.41
    },
    {
      "nom": "Cœur-de-la-Vallée",
      "code": "51457",
      "codesPostaux": ["51480", "51700"],
      "centre": {
        "type": "Point",
        "coordinates": [3.8089, 49.0945]
      },
      "mairie": {
        "type": "Point",
        "coordinates": [3.7991, 49.0833]
      },
      "population": 645,
      "surface": 1351.11,
      "radius": 2.07
    },
    {
      "nom": "Coizard-Joches",
      "code": "51157",
      "codesPostaux": ["51270"],
      "centre": {
        "type": "Point",
        "coordinates": [3.8663, 48.828]
      },
      "mairie": {
        "type": "Point",
        "coordinates": [3.8649, 48.8286]
      },
      "population": 91,
      "surface": 1087.62,
      "radius": 1.86
    },
    {
      "nom": "Compertrix",
      "code": "51160",
      "codesPostaux": ["51510"],
      "centre": {
        "type": "Point",
        "coordinates": [4.3217, 48.9278]
      },
      "mairie": {
        "type": "Point",
        "coordinates": [4.3501, 48.9406]
      },
      "population": 1307,
      "surface": 472.25,
      "radius": 1.23
    },
    {
      "nom": "Condé-sur-Marne",
      "code": "51161",
      "codesPostaux": ["51150"],
      "centre": {
        "type": "Point",
        "coordinates": [4.1827, 49.0459]
      },
      "mairie": {
        "type": "Point",
        "coordinates": [4.1794, 49.0434]
      },
      "population": 749,
      "surface": 1232.88,
      "radius": 1.98
    },
    {
      "nom": "Conflans-sur-Seine",
      "code": "51162",
      "codesPostaux": ["51260"],
      "centre": {
        "type": "Point",
        "coordinates": [3.6834, 48.5508]
      },
      "mairie": {
        "type": "Point",
        "coordinates": [3.6802, 48.5519]
      },
      "population": 621,
      "surface": 616.39,
      "radius": 1.4
    },
    {
      "nom": "Congy",
      "code": "51163",
      "codesPostaux": ["51270"],
      "centre": {
        "type": "Point",
        "coordinates": [3.8191, 48.8707]
      },
      "mairie": {
        "type": "Point",
        "coordinates": [3.8266, 48.8588]
      },
      "population": 256,
      "surface": 1756.92,
      "radius": 2.36
    },
    {
      "nom": "Connantray-Vaurefroy",
      "code": "51164",
      "codesPostaux": ["51230"],
      "centre": {
        "type": "Point",
        "coordinates": [4.0692, 48.7378]
      },
      "mairie": {
        "type": "Point",
        "coordinates": [4.062, 48.7473]
      },
      "population": 137,
      "surface": 2869.88,
      "radius": 3.02
    },
    {
      "nom": "Connantre",
      "code": "51165",
      "codesPostaux": ["51230"],
      "centre": {
        "type": "Point",
        "coordinates": [3.9159, 48.7391]
      },
      "mairie": {
        "type": "Point",
        "coordinates": [3.9217, 48.7247]
      },
      "population": 1006,
      "surface": 2841.58,
      "radius": 3.01
    },
    {
      "nom": "Contault",
      "code": "51166",
      "codesPostaux": ["51330"],
      "centre": {
        "type": "Point",
        "coordinates": [4.7879, 48.9143]
      },
      "mairie": {
        "type": "Point",
        "coordinates": [4.7915, 48.9128]
      },
      "population": 67,
      "surface": 954.79,
      "radius": 1.74
    },
    {
      "nom": "Coole",
      "code": "51167",
      "codesPostaux": ["51320"],
      "centre": {
        "type": "Point",
        "coordinates": [4.3943, 48.7391]
      },
      "mairie": {
        "type": "Point",
        "coordinates": [4.3924, 48.7437]
      },
      "population": 156,
      "surface": 2997.43,
      "radius": 3.09
    },
    {
      "nom": "Coolus",
      "code": "51168",
      "codesPostaux": ["51510"],
      "centre": {
        "type": "Point",
        "coordinates": [4.3174, 48.9142]
      },
      "mairie": {
        "type": "Point",
        "coordinates": [4.3561, 48.9253]
      },
      "population": 230,
      "surface": 1316.56,
      "radius": 2.05
    },
    {
      "nom": "Corbeil",
      "code": "51169",
      "codesPostaux": ["51320"],
      "centre": {
        "type": "Point",
        "coordinates": [4.4364, 48.5719]
      },
      "mairie": {
        "type": "Point",
        "coordinates": [4.4253, 48.5779]
      },
      "population": 99,
      "surface": 955.98,
      "radius": 1.74
    },
    {
      "nom": "Corfélix",
      "code": "51170",
      "codesPostaux": ["51210"],
      "centre": {
        "type": "Point",
        "coordinates": [3.7005, 48.8321]
      },
      "mairie": {
        "type": "Point",
        "coordinates": [3.6976, 48.8381]
      },
      "population": 109,
      "surface": 838.02,
      "radius": 1.63
    },
    {
      "nom": "Cormicy",
      "code": "51171",
      "codesPostaux": ["51220"],
      "centre": {
        "type": "Point",
        "coordinates": [3.892, 49.3794]
      },
      "mairie": {
        "type": "Point",
        "coordinates": [3.8952, 49.3702]
      },
      "population": 1504,
      "surface": 3174.66,
      "radius": 3.18
    },
    {
      "nom": "Cormontreuil",
      "code": "51172",
      "codesPostaux": ["51350"],
      "centre": {
        "type": "Point",
        "coordinates": [4.0522, 49.2165]
      },
      "mairie": {
        "type": "Point",
        "coordinates": [4.0544, 49.2237]
      },
      "population": 6454,
      "surface": 467.82,
      "radius": 1.22
    },
    {
      "nom": "Cormoyeux",
      "code": "51173",
      "codesPostaux": ["51480"],
      "centre": {
        "type": "Point",
        "coordinates": [3.9147, 49.1093]
      },
      "mairie": {
        "type": "Point",
        "coordinates": [3.9143, 49.1093]
      },
      "population": 128,
      "surface": 214.18,
      "radius": 0.83
    },
    {
      "nom": "Corribert",
      "code": "51174",
      "codesPostaux": ["51270"],
      "centre": {
        "type": "Point",
        "coordinates": [3.7641, 48.9442]
      },
      "mairie": {
        "type": "Point",
        "coordinates": [3.7648, 48.9422]
      },
      "population": 64,
      "surface": 974.89,
      "radius": 1.76
    },
    {
      "nom": "Corrobert",
      "code": "51175",
      "codesPostaux": ["51210"],
      "centre": {
        "type": "Point",
        "coordinates": [3.6094, 48.9235]
      },
      "mairie": {
        "type": "Point",
        "coordinates": [3.6048, 48.9153]
      },
      "population": 208,
      "surface": 1425.01,
      "radius": 2.13
    },
    {
      "nom": "Corroy",
      "code": "51176",
      "codesPostaux": ["51230"],
      "centre": {
        "type": "Point",
        "coordinates": [3.9552, 48.7003]
      },
      "mairie": {
        "type": "Point",
        "coordinates": [3.9391, 48.7024]
      },
      "population": 149,
      "surface": 1988.52,
      "radius": 2.52
    },
    {
      "nom": "Coulommes-la-Montagne",
      "code": "51177",
      "codesPostaux": ["51390"],
      "centre": {
        "type": "Point",
        "coordinates": [3.9136, 49.2271]
      },
      "mairie": {
        "type": "Point",
        "coordinates": [3.9106, 49.2255]
      },
      "population": 207,
      "surface": 273.2,
      "radius": 0.93
    },
    {
      "nom": "Coupetz",
      "code": "51178",
      "codesPostaux": ["51240"],
      "centre": {
        "type": "Point",
        "coordinates": [4.3501, 48.813]
      },
      "mairie": {
        "type": "Point",
        "coordinates": [4.3625, 48.8208]
      },
      "population": 84,
      "surface": 1054.71,
      "radius": 1.83
    },
    {
      "nom": "Coupéville",
      "code": "51179",
      "codesPostaux": ["51240"],
      "centre": {
        "type": "Point",
        "coordinates": [4.6266, 48.9063]
      },
      "mairie": {
        "type": "Point",
        "coordinates": [4.6274, 48.9105]
      },
      "population": 168,
      "surface": 3046.56,
      "radius": 3.11
    },
    {
      "nom": "Courcelles-Sapicourt",
      "code": "51181",
      "codesPostaux": ["51140"],
      "centre": {
        "type": "Point",
        "coordinates": [3.8418, 49.2685]
      },
      "mairie": {
        "type": "Point",
        "coordinates": [3.845, 49.2628]
      },
      "population": 395,
      "surface": 386.79,
      "radius": 1.11
    },
    {
      "nom": "Courcemain",
      "code": "51182",
      "codesPostaux": ["51260"],
      "centre": {
        "type": "Point",
        "coordinates": [3.9369, 48.6172]
      },
      "mairie": {
        "type": "Point",
        "coordinates": [3.9202, 48.6181]
      },
      "population": 87,
      "surface": 991.31,
      "radius": 1.78
    },
    {
      "nom": "Courcy",
      "code": "51183",
      "codesPostaux": ["51220"],
      "centre": {
        "type": "Point",
        "coordinates": [4.0084, 49.3247]
      },
      "mairie": {
        "type": "Point",
        "coordinates": [4.0023, 49.3225]
      },
      "population": 1262,
      "surface": 1536.36,
      "radius": 2.21
    },
    {
      "nom": "Courdemanges",
      "code": "51184",
      "codesPostaux": ["51300"],
      "centre": {
        "type": "Point",
        "coordinates": [4.5112, 48.6783]
      },
      "mairie": {
        "type": "Point",
        "coordinates": [4.5413, 48.6946]
      },
      "population": 388,
      "surface": 1943.87,
      "radius": 2.49
    },
    {
      "nom": "Courgivaux",
      "code": "51185",
      "codesPostaux": ["51310"],
      "centre": {
        "type": "Point",
        "coordinates": [3.4919, 48.7122]
      },
      "mairie": {
        "type": "Point",
        "coordinates": [3.4888, 48.7113]
      },
      "population": 277,
      "surface": 1083.02,
      "radius": 1.86
    },
    {
      "nom": "Courjeonnet",
      "code": "51186",
      "codesPostaux": ["51270"],
      "centre": {
        "type": "Point",
        "coordinates": [3.8297, 48.8235]
      },
      "mairie": {
        "type": "Point",
        "coordinates": [3.8345, 48.8301]
      },
      "population": 49,
      "surface": 554.2,
      "radius": 1.33
    },
    {
      "nom": "Courlandon",
      "code": "51187",
      "codesPostaux": ["51170"],
      "centre": {
        "type": "Point",
        "coordinates": [3.7332, 49.3183]
      },
      "mairie": {
        "type": "Point",
        "coordinates": [3.7366, 49.3128]
      },
      "population": 302,
      "surface": 349.22,
      "radius": 1.05
    },
    {
      "nom": "Courmas",
      "code": "51188",
      "codesPostaux": ["51390"],
      "centre": {
        "type": "Point",
        "coordinates": [3.9103, 49.19]
      },
      "mairie": {
        "type": "Point",
        "coordinates": [3.909, 49.1894]
      },
      "population": 225,
      "surface": 285.78,
      "radius": 0.95
    },
    {
      "nom": "Courtagnon",
      "code": "51190",
      "codesPostaux": ["51480"],
      "centre": {
        "type": "Point",
        "coordinates": [3.9484, 49.1435]
      },
      "mairie": {
        "type": "Point",
        "coordinates": [3.9479, 49.1425]
      },
      "population": 74,
      "surface": 395.14,
      "radius": 1.12
    },
    {
      "nom": "Courtémont",
      "code": "51191",
      "codesPostaux": ["51800"],
      "centre": {
        "type": "Point",
        "coordinates": [4.7844, 49.137]
      },
      "mairie": {
        "type": "Point",
        "coordinates": [4.7835, 49.132]
      },
      "population": 62,
      "surface": 1064.95,
      "radius": 1.84
    },
    {
      "nom": "Courthiézy",
      "code": "51192",
      "codesPostaux": ["51700"],
      "centre": {
        "type": "Point",
        "coordinates": [3.601, 49.0525]
      },
      "mairie": {
        "type": "Point",
        "coordinates": [3.595, 49.0535]
      },
      "population": 344,
      "surface": 599.33,
      "radius": 1.38
    },
    {
      "nom": "Courtisols",
      "code": "51193",
      "codesPostaux": ["51460"],
      "centre": {
        "type": "Point",
        "coordinates": [4.5282, 48.9776]
      },
      "mairie": {
        "type": "Point",
        "coordinates": [4.5176, 48.9868]
      },
      "population": 2345,
      "surface": 6566.06,
      "radius": 4.57
    },
    {
      "nom": "Courville",
      "code": "51194",
      "codesPostaux": ["51170"],
      "centre": {
        "type": "Point",
        "coordinates": [3.7078, 49.2696]
      },
      "mairie": {
        "type": "Point",
        "coordinates": [3.6976, 49.2687]
      },
      "population": 454,
      "surface": 1203.9,
      "radius": 1.96
    },
    {
      "nom": "Couvrot",
      "code": "51195",
      "codesPostaux": ["51300"],
      "centre": {
        "type": "Point",
        "coordinates": [4.5759, 48.7644]
      },
      "mairie": {
        "type": "Point",
        "coordinates": [4.5723, 48.7576]
      },
      "population": 796,
      "surface": 803.91,
      "radius": 1.6
    },
    {
      "nom": "Cramant",
      "code": "51196",
      "codesPostaux": ["51530"],
      "centre": {
        "type": "Point",
        "coordinates": [4.0004, 48.9879]
      },
      "mairie": {
        "type": "Point",
        "coordinates": [3.9916, 48.9866]
      },
      "population": 877,
      "surface": 535.51,
      "radius": 1.31
    },
    {
      "nom": "Crugny",
      "code": "51198",
      "codesPostaux": ["51170"],
      "centre": {
        "type": "Point",
        "coordinates": [3.7375, 49.2515]
      },
      "mairie": {
        "type": "Point",
        "coordinates": [3.7393, 49.2577]
      },
      "population": 675,
      "surface": 1261.76,
      "radius": 2
    },
    {
      "nom": "Cuchery",
      "code": "51199",
      "codesPostaux": ["51480"],
      "centre": {
        "type": "Point",
        "coordinates": [3.827, 49.1275]
      },
      "mairie": {
        "type": "Point",
        "coordinates": [3.8236, 49.1308]
      },
      "population": 414,
      "surface": 700.62,
      "radius": 1.49
    },
    {
      "nom": "Cuis",
      "code": "51200",
      "codesPostaux": ["51530"],
      "centre": {
        "type": "Point",
        "coordinates": [3.967, 48.9989]
      },
      "mairie": {
        "type": "Point",
        "coordinates": [3.9669, 48.9969]
      },
      "population": 368,
      "surface": 828.42,
      "radius": 1.62
    },
    {
      "nom": "Cuisles",
      "code": "51201",
      "codesPostaux": ["51700"],
      "centre": {
        "type": "Point",
        "coordinates": [3.7782, 49.1293]
      },
      "mairie": {
        "type": "Point",
        "coordinates": [3.7728, 49.1282]
      },
      "population": 127,
      "surface": 291.64,
      "radius": 0.96
    },
    {
      "nom": "Cumières",
      "code": "51202",
      "codesPostaux": ["51480"],
      "centre": {
        "type": "Point",
        "coordinates": [3.9214, 49.0715]
      },
      "mairie": {
        "type": "Point",
        "coordinates": [3.9264, 49.0721]
      },
      "population": 716,
      "surface": 299.69,
      "radius": 0.98
    },
    {
      "nom": "Cuperly",
      "code": "51203",
      "codesPostaux": ["51400"],
      "centre": {
        "type": "Point",
        "coordinates": [4.4464, 49.0653]
      },
      "mairie": {
        "type": "Point",
        "coordinates": [4.431, 49.0621]
      },
      "population": 219,
      "surface": 2077.63,
      "radius": 2.57
    },
    {
      "nom": "Damery",
      "code": "51204",
      "codesPostaux": ["51480"],
      "centre": {
        "type": "Point",
        "coordinates": [3.8852, 49.0841]
      },
      "mairie": {
        "type": "Point",
        "coordinates": [3.8784, 49.0733]
      },
      "population": 1329,
      "surface": 1544.75,
      "radius": 2.22
    },
    {
      "nom": "Dampierre-le-Château",
      "code": "51206",
      "codesPostaux": ["51330"],
      "centre": {
        "type": "Point",
        "coordinates": [4.7957, 49.007]
      },
      "mairie": {
        "type": "Point",
        "coordinates": [4.7934, 49.0096]
      },
      "population": 117,
      "surface": 1110.68,
      "radius": 1.88
    },
    {
      "nom": "Dampierre-sur-Moivre",
      "code": "51208",
      "codesPostaux": ["51240"],
      "centre": {
        "type": "Point",
        "coordinates": [4.5735, 48.8809]
      },
      "mairie": {
        "type": "Point",
        "coordinates": [4.559, 48.8936]
      },
      "population": 110,
      "surface": 1149.06,
      "radius": 1.91
    },
    {
      "nom": "Dizy",
      "code": "51210",
      "codesPostaux": ["51530"],
      "centre": {
        "type": "Point",
        "coordinates": [3.9716, 49.0699]
      },
      "mairie": {
        "type": "Point",
        "coordinates": [3.9684, 49.0644]
      },
      "population": 1485,
      "surface": 321.37,
      "radius": 1.01
    },
    {
      "nom": "Dommartin-Dampierre",
      "code": "51211",
      "codesPostaux": ["51800"],
      "centre": {
        "type": "Point",
        "coordinates": [4.8261, 49.0645]
      },
      "mairie": {
        "type": "Point",
        "coordinates": [4.8265, 49.0727]
      },
      "population": 75,
      "surface": 831.54,
      "radius": 1.63
    },
    {
      "nom": "Dommartin-Lettrée",
      "code": "51212",
      "codesPostaux": ["51320"],
      "centre": {
        "type": "Point",
        "coordinates": [4.2849, 48.7677]
      },
      "mairie": {
        "type": "Point",
        "coordinates": [4.2992, 48.7666]
      },
      "population": 163,
      "surface": 3263.95,
      "radius": 3.22
    },
    {
      "nom": "Dommartin-sous-Hans",
      "code": "51213",
      "codesPostaux": ["51800"],
      "centre": {
        "type": "Point",
        "coordinates": [4.7931, 49.1227]
      },
      "mairie": {
        "type": "Point",
        "coordinates": [4.7842, 49.1263]
      },
      "population": 45,
      "surface": 649.75,
      "radius": 1.44
    },
    {
      "nom": "Dommartin-Varimont",
      "code": "51214",
      "codesPostaux": ["51330"],
      "centre": {
        "type": "Point",
        "coordinates": [4.7743, 48.9807]
      },
      "mairie": {
        "type": "Point",
        "coordinates": [4.7824, 48.978]
      },
      "population": 136,
      "surface": 2366.58,
      "radius": 2.74
    },
    {
      "nom": "Dompremy",
      "code": "51215",
      "codesPostaux": ["51300"],
      "centre": {
        "type": "Point",
        "coordinates": [4.7395, 48.7326]
      },
      "mairie": {
        "type": "Point",
        "coordinates": [4.7405, 48.7286]
      },
      "population": 116,
      "surface": 365.77,
      "radius": 1.08
    },
    {
      "nom": "Dontrien",
      "code": "51216",
      "codesPostaux": ["51490"],
      "centre": {
        "type": "Point",
        "coordinates": [4.409, 49.2455]
      },
      "mairie": {
        "type": "Point",
        "coordinates": [4.412, 49.2398]
      },
      "population": 259,
      "surface": 1266.11,
      "radius": 2.01
    },
    {
      "nom": "Dormans",
      "code": "51217",
      "codesPostaux": ["51700"],
      "centre": {
        "type": "Point",
        "coordinates": [3.6447, 49.0636]
      },
      "mairie": {
        "type": "Point",
        "coordinates": [3.638, 49.0746]
      },
      "population": 2898,
      "surface": 2253.03,
      "radius": 2.68
    },
    {
      "nom": "Drosnay",
      "code": "51219",
      "codesPostaux": ["51290"],
      "centre": {
        "type": "Point",
        "coordinates": [4.6147, 48.5746]
      },
      "mairie": {
        "type": "Point",
        "coordinates": [4.6191, 48.5787]
      },
      "population": 195,
      "surface": 1860.62,
      "radius": 2.43
    },
    {
      "nom": "Drouilly",
      "code": "51220",
      "codesPostaux": ["51300"],
      "centre": {
        "type": "Point",
        "coordinates": [4.51, 48.7699]
      },
      "mairie": {
        "type": "Point",
        "coordinates": [4.5258, 48.7728]
      },
      "population": 144,
      "surface": 246.43,
      "radius": 0.89
    },
    {
      "nom": "Éclaires",
      "code": "51222",
      "codesPostaux": ["51800"],
      "centre": {
        "type": "Point",
        "coordinates": [4.9983, 48.9939]
      },
      "mairie": {
        "type": "Point",
        "coordinates": [5.0046, 49.0016]
      },
      "population": 86,
      "surface": 1091.25,
      "radius": 1.86
    },
    {
      "nom": "Écollemont",
      "code": "51223",
      "codesPostaux": ["51290"],
      "centre": {
        "type": "Point",
        "coordinates": [4.7405, 48.6149]
      },
      "mairie": {
        "type": "Point",
        "coordinates": [4.733, 48.6216]
      },
      "population": 63,
      "surface": 281.93,
      "radius": 0.95
    },
    {
      "nom": "Écriennes",
      "code": "51224",
      "codesPostaux": ["51300"],
      "centre": {
        "type": "Point",
        "coordinates": [4.6854, 48.6925]
      },
      "mairie": {
        "type": "Point",
        "coordinates": [4.6856, 48.6914]
      },
      "population": 166,
      "surface": 636.07,
      "radius": 1.42
    },
    {
      "nom": "Écueil",
      "code": "51225",
      "codesPostaux": ["51500"],
      "centre": {
        "type": "Point",
        "coordinates": [3.9528, 49.1791]
      },
      "mairie": {
        "type": "Point",
        "coordinates": [3.9534, 49.1871]
      },
      "population": 349,
      "surface": 701.27,
      "radius": 1.49
    },
    {
      "nom": "Écury-le-Repos",
      "code": "51226",
      "codesPostaux": ["51230"],
      "centre": {
        "type": "Point",
        "coordinates": [4.0289, 48.8076]
      },
      "mairie": {
        "type": "Point",
        "coordinates": [4.0321, 48.8081]
      },
      "population": 62,
      "surface": 1001.55,
      "radius": 1.79
    },
    {
      "nom": "Écury-sur-Coole",
      "code": "51227",
      "codesPostaux": ["51240"],
      "centre": {
        "type": "Point",
        "coordinates": [4.3369, 48.898]
      },
      "mairie": {
        "type": "Point",
        "coordinates": [4.3349, 48.8946]
      },
      "population": 491,
      "surface": 1823.28,
      "radius": 2.41
    },
    {
      "nom": "Élise-Daucourt",
      "code": "51228",
      "codesPostaux": ["51800"],
      "centre": {
        "type": "Point",
        "coordinates": [4.8658, 49.0425]
      },
      "mairie": {
        "type": "Point",
        "coordinates": [4.8668, 49.0468]
      },
      "population": 81,
      "surface": 1534.41,
      "radius": 2.21
    },
    {
      "nom": "Épense",
      "code": "51229",
      "codesPostaux": ["51330"],
      "centre": {
        "type": "Point",
        "coordinates": [4.8329, 48.9737]
      },
      "mairie": {
        "type": "Point",
        "coordinates": [4.8326, 48.9711]
      },
      "population": 123,
      "surface": 1136.74,
      "radius": 1.9
    },
    {
      "nom": "Épernay",
      "code": "51230",
      "codesPostaux": ["51200"],
      "centre": {
        "type": "Point",
        "coordinates": [3.9282, 49.0391]
      },
      "mairie": {
        "type": "Point",
        "coordinates": [3.9587, 49.0438]
      },
      "population": 22022,
      "surface": 2276.05,
      "radius": 2.69
    },
    {
      "nom": "Époye",
      "code": "51232",
      "codesPostaux": ["51490"],
      "centre": {
        "type": "Point",
        "coordinates": [4.2305, 49.2879]
      },
      "mairie": {
        "type": "Point",
        "coordinates": [4.2377, 49.2906]
      },
      "population": 417,
      "surface": 1536.21,
      "radius": 2.21
    },
    {
      "nom": "Escardes",
      "code": "51233",
      "codesPostaux": ["51310"],
      "centre": {
        "type": "Point",
        "coordinates": [3.5309, 48.6912]
      },
      "mairie": {
        "type": "Point",
        "coordinates": [3.5123, 48.697]
      },
      "population": 64,
      "surface": 1443.46,
      "radius": 2.14
    },
    {
      "nom": "Esclavolles-Lurey",
      "code": "51234",
      "codesPostaux": ["51260"],
      "centre": {
        "type": "Point",
        "coordinates": [3.652, 48.5546]
      },
      "mairie": {
        "type": "Point",
        "coordinates": [3.657, 48.5527]
      },
      "population": 644,
      "surface": 947.8,
      "radius": 1.74
    },
    {
      "nom": "Esternay",
      "code": "51237",
      "codesPostaux": ["51310"],
      "centre": {
        "type": "Point",
        "coordinates": [3.5839, 48.7281]
      },
      "mairie": {
        "type": "Point",
        "coordinates": [3.5584, 48.7322]
      },
      "population": 1776,
      "surface": 3171,
      "radius": 3.18
    },
    {
      "nom": "Étoges",
      "code": "51238",
      "codesPostaux": ["51270"],
      "centre": {
        "type": "Point",
        "coordinates": [3.8566, 48.8929]
      },
      "mairie": {
        "type": "Point",
        "coordinates": [3.8551, 48.88]
      },
      "population": 417,
      "surface": 1462.81,
      "radius": 2.16
    },
    {
      "nom": "Étréchy",
      "code": "51239",
      "codesPostaux": ["51130"],
      "centre": {
        "type": "Point",
        "coordinates": [3.9477, 48.8815]
      },
      "mairie": {
        "type": "Point",
        "coordinates": [3.9424, 48.8849]
      },
      "population": 102,
      "surface": 669.04,
      "radius": 1.46
    },
    {
      "nom": "Étrepy",
      "code": "51240",
      "codesPostaux": ["51340"],
      "centre": {
        "type": "Point",
        "coordinates": [4.81, 48.7635]
      },
      "mairie": {
        "type": "Point",
        "coordinates": [4.8065, 48.7634]
      },
      "population": 115,
      "surface": 767.18,
      "radius": 1.56
    },
    {
      "nom": "Euvy",
      "code": "51241",
      "codesPostaux": ["51230"],
      "centre": {
        "type": "Point",
        "coordinates": [4.0237, 48.7176]
      },
      "mairie": {
        "type": "Point",
        "coordinates": [4.0295, 48.7199]
      },
      "population": 79,
      "surface": 1437.45,
      "radius": 2.14
    },
    {
      "nom": "Fagnières",
      "code": "51242",
      "codesPostaux": ["51510"],
      "centre": {
        "type": "Point",
        "coordinates": [4.3061, 48.9478]
      },
      "mairie": {
        "type": "Point",
        "coordinates": [4.3183, 48.9629]
      },
      "population": 4886,
      "surface": 1951.81,
      "radius": 2.49
    },
    {
      "nom": "Faux-Fresnay",
      "code": "51243",
      "codesPostaux": ["51230"],
      "centre": {
        "type": "Point",
        "coordinates": [3.9508, 48.6558]
      },
      "mairie": {
        "type": "Point",
        "coordinates": [3.9374, 48.6504]
      },
      "population": 330,
      "surface": 2724,
      "radius": 2.94
    },
    {
      "nom": "Faux-Vésigneul",
      "code": "51244",
      "codesPostaux": ["51320"],
      "centre": {
        "type": "Point",
        "coordinates": [4.3847, 48.7854]
      },
      "mairie": {
        "type": "Point",
        "coordinates": [4.3971, 48.7816]
      },
      "population": 239,
      "surface": 3921.61,
      "radius": 3.53
    },
    {
      "nom": "Faverolles-et-Coëmy",
      "code": "51245",
      "codesPostaux": ["51170"],
      "centre": {
        "type": "Point",
        "coordinates": [3.7873, 49.2329]
      },
      "mairie": {
        "type": "Point",
        "coordinates": [3.7925, 49.234]
      },
      "population": 597,
      "surface": 550.25,
      "radius": 1.32
    },
    {
      "nom": "Favresse",
      "code": "51246",
      "codesPostaux": ["51300"],
      "centre": {
        "type": "Point",
        "coordinates": [4.7159, 48.7196]
      },
      "mairie": {
        "type": "Point",
        "coordinates": [4.7332, 48.7181]
      },
      "population": 219,
      "surface": 1030.36,
      "radius": 1.81
    },
    {
      "nom": "Fère-Champenoise",
      "code": "51248",
      "codesPostaux": ["51230"],
      "centre": {
        "type": "Point",
        "coordinates": [4.0259, 48.7693]
      },
      "mairie": {
        "type": "Point",
        "coordinates": [3.991, 48.7548]
      },
      "population": 2181,
      "surface": 6578.5,
      "radius": 4.58
    },
    {
      "nom": "Fèrebrianges",
      "code": "51247",
      "codesPostaux": ["51270"],
      "centre": {
        "type": "Point",
        "coordinates": [3.8409, 48.8708]
      },
      "mairie": {
        "type": "Point",
        "coordinates": [3.843, 48.872]
      },
      "population": 136,
      "surface": 702.62,
      "radius": 1.5
    },
    {
      "nom": "Festigny",
      "code": "51249",
      "codesPostaux": ["51700"],
      "centre": {
        "type": "Point",
        "coordinates": [3.7673, 49.0274]
      },
      "mairie": {
        "type": "Point",
        "coordinates": [3.7471, 49.0535]
      },
      "population": 392,
      "surface": 2566.74,
      "radius": 2.86
    },
    {
      "nom": "Fismes",
      "code": "51250",
      "codesPostaux": ["51170"],
      "centre": {
        "type": "Point",
        "coordinates": [3.6794, 49.308]
      },
      "mairie": {
        "type": "Point",
        "coordinates": [3.6802, 49.3072]
      },
      "population": 5884,
      "surface": 1672.28,
      "radius": 2.31
    },
    {
      "nom": "Flavigny",
      "code": "51251",
      "codesPostaux": ["51190"],
      "centre": {
        "type": "Point",
        "coordinates": [4.0621, 48.9738]
      },
      "mairie": {
        "type": "Point",
        "coordinates": [4.0591, 48.9752]
      },
      "population": 177,
      "surface": 796.16,
      "radius": 1.59
    },
    {
      "nom": "Fleury-la-Rivière",
      "code": "51252",
      "codesPostaux": ["51480"],
      "centre": {
        "type": "Point",
        "coordinates": [3.8839, 49.0994]
      },
      "mairie": {
        "type": "Point",
        "coordinates": [3.8838, 49.0981]
      },
      "population": 520,
      "surface": 794.37,
      "radius": 1.59
    },
    {
      "nom": "Florent-en-Argonne",
      "code": "51253",
      "codesPostaux": ["51800"],
      "centre": {
        "type": "Point",
        "coordinates": [4.9525, 49.1422]
      },
      "mairie": {
        "type": "Point",
        "coordinates": [4.955, 49.1347]
      },
      "population": 217,
      "surface": 1228.62,
      "radius": 1.98
    },
    {
      "nom": "Fontaine-Denis-Nuisy",
      "code": "51254",
      "codesPostaux": ["51120"],
      "centre": {
        "type": "Point",
        "coordinates": [3.6792, 48.635]
      },
      "mairie": {
        "type": "Point",
        "coordinates": [3.6878, 48.6251]
      },
      "population": 235,
      "surface": 1321.09,
      "radius": 2.05
    },
    {
      "nom": "Fontaine-en-Dormois",
      "code": "51255",
      "codesPostaux": ["51800"],
      "centre": {
        "type": "Point",
        "coordinates": [4.7202, 49.242]
      },
      "mairie": {
        "type": "Point",
        "coordinates": [4.7158, 49.2387]
      },
      "population": 15,
      "surface": 527.78,
      "radius": 1.3
    },
    {
      "nom": "Fontaine-sur-Ay",
      "code": "51256",
      "codesPostaux": ["51160"],
      "centre": {
        "type": "Point",
        "coordinates": [4.065, 49.0915]
      },
      "mairie": {
        "type": "Point",
        "coordinates": [4.0742, 49.082]
      },
      "population": 315,
      "surface": 769.98,
      "radius": 1.57
    },
    {
      "nom": "Francheville",
      "code": "51259",
      "codesPostaux": ["51240"],
      "centre": {
        "type": "Point",
        "coordinates": [4.54, 48.8797]
      },
      "mairie": {
        "type": "Point",
        "coordinates": [4.5412, 48.8904]
      },
      "population": 192,
      "surface": 939.5,
      "radius": 1.73
    },
    {
      "nom": "Frignicourt",
      "code": "51262",
      "codesPostaux": ["51300"],
      "centre": {
        "type": "Point",
        "coordinates": [4.5941, 48.7004]
      },
      "mairie": {
        "type": "Point",
        "coordinates": [4.591, 48.6991]
      },
      "population": 1751,
      "surface": 971.06,
      "radius": 1.76
    },
    {
      "nom": "Fromentières",
      "code": "51263",
      "codesPostaux": ["51210"],
      "centre": {
        "type": "Point",
        "coordinates": [3.7063, 48.8863]
      },
      "mairie": {
        "type": "Point",
        "coordinates": [3.7061, 48.8901]
      },
      "population": 379,
      "surface": 882.76,
      "radius": 1.68
    },
    {
      "nom": "Gaye",
      "code": "51265",
      "codesPostaux": ["51120"],
      "centre": {
        "type": "Point",
        "coordinates": [3.8069, 48.6788]
      },
      "mairie": {
        "type": "Point",
        "coordinates": [3.8029, 48.6849]
      },
      "population": 581,
      "surface": 2125.69,
      "radius": 2.6
    },
    {
      "nom": "Germaine",
      "code": "51266",
      "codesPostaux": ["51160"],
      "centre": {
        "type": "Point",
        "coordinates": [4.0284, 49.1162]
      },
      "mairie": {
        "type": "Point",
        "coordinates": [4.0299, 49.1134]
      },
      "population": 529,
      "surface": 1477.48,
      "radius": 2.17
    },
    {
      "nom": "Germigny",
      "code": "51267",
      "codesPostaux": ["51390"],
      "centre": {
        "type": "Point",
        "coordinates": [3.8612, 49.2448]
      },
      "mairie": {
        "type": "Point",
        "coordinates": [3.8655, 49.2447]
      },
      "population": 184,
      "surface": 240.67,
      "radius": 0.88
    },
    {
      "nom": "Germinon",
      "code": "51268",
      "codesPostaux": ["51130"],
      "centre": {
        "type": "Point",
        "coordinates": [4.1833, 48.8873]
      },
      "mairie": {
        "type": "Point",
        "coordinates": [4.1566, 48.8788]
      },
      "population": 188,
      "surface": 1954.28,
      "radius": 2.49
    },
    {
      "nom": "Giffaumont-Champaubert",
      "code": "51269",
      "codesPostaux": ["51290"],
      "centre": {
        "type": "Point",
        "coordinates": [4.7496, 48.5645]
      },
      "mairie": {
        "type": "Point",
        "coordinates": [4.7512, 48.5558]
      },
      "population": 286,
      "surface": 2817.19,
      "radius": 2.99
    },
    {
      "nom": "Gigny-Bussy",
      "code": "51270",
      "codesPostaux": ["51290"],
      "centre": {
        "type": "Point",
        "coordinates": [4.5807, 48.6103]
      },
      "mairie": {
        "type": "Point",
        "coordinates": [4.5715, 48.6063]
      },
      "population": 227,
      "surface": 2245.74,
      "radius": 2.67
    },
    {
      "nom": "Givry-en-Argonne",
      "code": "51272",
      "codesPostaux": ["51330"],
      "centre": {
        "type": "Point",
        "coordinates": [4.9113, 48.9482]
      },
      "mairie": {
        "type": "Point",
        "coordinates": [4.8872, 48.9507]
      },
      "population": 451,
      "surface": 748.51,
      "radius": 1.54
    },
    {
      "nom": "Givry-lès-Loisy",
      "code": "51273",
      "codesPostaux": ["51130"],
      "centre": {
        "type": "Point",
        "coordinates": [3.9188, 48.8907]
      },
      "mairie": {
        "type": "Point",
        "coordinates": [3.9115, 48.8939]
      },
      "population": 73,
      "surface": 504.49,
      "radius": 1.27
    },
    {
      "nom": "Gizaucourt",
      "code": "51274",
      "codesPostaux": ["51800"],
      "centre": {
        "type": "Point",
        "coordinates": [4.7809, 49.0536]
      },
      "mairie": {
        "type": "Point",
        "coordinates": [4.7838, 49.0524]
      },
      "population": 116,
      "surface": 782.76,
      "radius": 1.58
    },
    {
      "nom": "Glannes",
      "code": "51275",
      "codesPostaux": ["51300"],
      "centre": {
        "type": "Point",
        "coordinates": [4.5005, 48.7018]
      },
      "mairie": {
        "type": "Point",
        "coordinates": [4.5421, 48.7073]
      },
      "population": 184,
      "surface": 1318.74,
      "radius": 2.05
    },
    {
      "nom": "Gourgançon",
      "code": "51276",
      "codesPostaux": ["51230"],
      "centre": {
        "type": "Point",
        "coordinates": [4.0254, 48.6869]
      },
      "mairie": {
        "type": "Point",
        "coordinates": [4.023, 48.6887]
      },
      "population": 146,
      "surface": 2907.52,
      "radius": 3.04
    },
    {
      "nom": "Granges-sur-Aube",
      "code": "51279",
      "codesPostaux": ["51260"],
      "centre": {
        "type": "Point",
        "coordinates": [3.8602, 48.5877]
      },
      "mairie": {
        "type": "Point",
        "coordinates": [3.8522, 48.5824]
      },
      "population": 182,
      "surface": 809.02,
      "radius": 1.6
    },
    {
      "nom": "Gratreuil",
      "code": "51280",
      "codesPostaux": ["51800"],
      "centre": {
        "type": "Point",
        "coordinates": [4.6939, 49.246]
      },
      "mairie": {
        "type": "Point",
        "coordinates": [4.6972, 49.2463]
      },
      "population": 21,
      "surface": 474.19,
      "radius": 1.23
    },
    {
      "nom": "Grauves",
      "code": "51281",
      "codesPostaux": ["51190"],
      "centre": {
        "type": "Point",
        "coordinates": [3.9604, 48.9702]
      },
      "mairie": {
        "type": "Point",
        "coordinates": [3.9633, 48.974]
      },
      "population": 618,
      "surface": 782.66,
      "radius": 1.58
    },
    {
      "nom": "Gueux",
      "code": "51282",
      "codesPostaux": ["51390"],
      "centre": {
        "type": "Point",
        "coordinates": [3.9097, 49.2534]
      },
      "mairie": {
        "type": "Point",
        "coordinates": [3.9102, 49.2484]
      },
      "population": 1901,
      "surface": 886.43,
      "radius": 1.68
    },
    {
      "nom": "Hans",
      "code": "51283",
      "codesPostaux": ["51800"],
      "centre": {
        "type": "Point",
        "coordinates": [4.7446, 49.1146]
      },
      "mairie": {
        "type": "Point",
        "coordinates": [4.7496, 49.1097]
      },
      "population": 122,
      "surface": 1936.53,
      "radius": 2.48
    },
    {
      "nom": "Haussignémont",
      "code": "51284",
      "codesPostaux": ["51300"],
      "centre": {
        "type": "Point",
        "coordinates": [4.7532, 48.7165]
      },
      "mairie": {
        "type": "Point",
        "coordinates": [4.7524, 48.7178]
      },
      "population": 311,
      "surface": 281.95,
      "radius": 0.95
    },
    {
      "nom": "Haussimont",
      "code": "51285",
      "codesPostaux": ["51320"],
      "centre": {
        "type": "Point",
        "coordinates": [4.1752, 48.7472]
      },
      "mairie": {
        "type": "Point",
        "coordinates": [4.1679, 48.7476]
      },
      "population": 139,
      "surface": 1747.46,
      "radius": 2.36
    },
    {
      "nom": "Hauteville",
      "code": "51286",
      "codesPostaux": ["51290"],
      "centre": {
        "type": "Point",
        "coordinates": [4.7703, 48.6357]
      },
      "mairie": {
        "type": "Point",
        "coordinates": [4.7678, 48.6385]
      },
      "population": 233,
      "surface": 1084.69,
      "radius": 1.86
    },
    {
      "nom": "Hautvillers",
      "code": "51287",
      "codesPostaux": ["51160"],
      "centre": {
        "type": "Point",
        "coordinates": [3.942, 49.0839]
      },
      "mairie": {
        "type": "Point",
        "coordinates": [3.9437, 49.0826]
      },
      "population": 628,
      "surface": 1174.22,
      "radius": 1.93
    },
    {
      "nom": "Heiltz-l'Évêque",
      "code": "51290",
      "codesPostaux": ["51340"],
      "centre": {
        "type": "Point",
        "coordinates": [4.7361, 48.7809]
      },
      "mairie": {
        "type": "Point",
        "coordinates": [4.7451, 48.7804]
      },
      "population": 278,
      "surface": 949.76,
      "radius": 1.74
    },
    {
      "nom": "Heiltz-le-Hutier",
      "code": "51288",
      "codesPostaux": ["51300"],
      "centre": {
        "type": "Point",
        "coordinates": [4.7741, 48.6899]
      },
      "mairie": {
        "type": "Point",
        "coordinates": [4.7692, 48.6879]
      },
      "population": 235,
      "surface": 1089.08,
      "radius": 1.86
    },
    {
      "nom": "Heiltz-le-Maurupt",
      "code": "51289",
      "codesPostaux": ["51340"],
      "centre": {
        "type": "Point",
        "coordinates": [4.8289, 48.8051]
      },
      "mairie": {
        "type": "Point",
        "coordinates": [4.8136, 48.7935]
      },
      "population": 435,
      "surface": 1633.33,
      "radius": 2.28
    },
    {
      "nom": "Hermonville",
      "code": "51291",
      "codesPostaux": ["51220"],
      "centre": {
        "type": "Point",
        "coordinates": [3.9171, 49.3324]
      },
      "mairie": {
        "type": "Point",
        "coordinates": [3.9087, 49.3354]
      },
      "population": 1409,
      "surface": 1331.09,
      "radius": 2.06
    },
    {
      "nom": "Herpont",
      "code": "51292",
      "codesPostaux": ["51460"],
      "centre": {
        "type": "Point",
        "coordinates": [4.7275, 48.9871]
      },
      "mairie": {
        "type": "Point",
        "coordinates": [4.7299, 48.9965]
      },
      "population": 122,
      "surface": 2300.49,
      "radius": 2.71
    },
    {
      "nom": "Heutrégiville",
      "code": "51293",
      "codesPostaux": ["51110"],
      "centre": {
        "type": "Point",
        "coordinates": [4.2596, 49.3312]
      },
      "mairie": {
        "type": "Point",
        "coordinates": [4.2624, 49.3254]
      },
      "population": 504,
      "surface": 1178.77,
      "radius": 1.94
    },
    {
      "nom": "Hourges",
      "code": "51294",
      "codesPostaux": ["51140"],
      "centre": {
        "type": "Point",
        "coordinates": [3.7693, 49.2801]
      },
      "mairie": {
        "type": "Point",
        "coordinates": [3.7687, 49.2826]
      },
      "population": 84,
      "surface": 430.55,
      "radius": 1.17
    },
    {
      "nom": "Huiron",
      "code": "51295",
      "codesPostaux": ["51300"],
      "centre": {
        "type": "Point",
        "coordinates": [4.5049, 48.6904]
      },
      "mairie": {
        "type": "Point",
        "coordinates": [4.5401, 48.7025]
      },
      "population": 302,
      "surface": 1332.77,
      "radius": 2.06
    },
    {
      "nom": "Humbauville",
      "code": "51296",
      "codesPostaux": ["51320"],
      "centre": {
        "type": "Point",
        "coordinates": [4.3889, 48.6578]
      },
      "mairie": {
        "type": "Point",
        "coordinates": [4.4172, 48.6585]
      },
      "population": 75,
      "surface": 1691.53,
      "radius": 2.32
    },
    {
      "nom": "Igny-Comblizy",
      "code": "51298",
      "codesPostaux": ["51700"],
      "centre": {
        "type": "Point",
        "coordinates": [3.7224, 49.0112]
      },
      "mairie": {
        "type": "Point",
        "coordinates": [3.7129, 49.0192]
      },
      "population": 436,
      "surface": 4081.14,
      "radius": 3.6
    },
    {
      "nom": "Isle-sur-Marne",
      "code": "51300",
      "codesPostaux": ["51290"],
      "centre": {
        "type": "Point",
        "coordinates": [4.686, 48.6471]
      },
      "mairie": {
        "type": "Point",
        "coordinates": [4.688, 48.6399]
      },
      "population": 96,
      "surface": 541.86,
      "radius": 1.31
    },
    {
      "nom": "Isles-sur-Suippe",
      "code": "51299",
      "codesPostaux": ["51110"],
      "centre": {
        "type": "Point",
        "coordinates": [4.2095, 49.3609]
      },
      "mairie": {
        "type": "Point",
        "coordinates": [4.2005, 49.3557]
      },
      "population": 979,
      "surface": 1235.93,
      "radius": 1.98
    },
    {
      "nom": "Isse",
      "code": "51301",
      "codesPostaux": ["51150"],
      "centre": {
        "type": "Point",
        "coordinates": [4.2151, 49.0689]
      },
      "mairie": {
        "type": "Point",
        "coordinates": [4.2074, 49.0663]
      },
      "population": 109,
      "surface": 1093.84,
      "radius": 1.87
    },
    {
      "nom": "Jâlons",
      "code": "51303",
      "codesPostaux": ["51150"],
      "centre": {
        "type": "Point",
        "coordinates": [4.1752, 49.0066]
      },
      "mairie": {
        "type": "Point",
        "coordinates": [4.1871, 49.01]
      },
      "population": 550,
      "surface": 1025.7,
      "radius": 1.81
    },
    {
      "nom": "Janvilliers",
      "code": "51304",
      "codesPostaux": ["51210"],
      "centre": {
        "type": "Point",
        "coordinates": [3.6563, 48.8957]
      },
      "mairie": {
        "type": "Point",
        "coordinates": [3.6481, 48.8957]
      },
      "population": 159,
      "surface": 888.63,
      "radius": 1.68
    },
    {
      "nom": "Janvry",
      "code": "51305",
      "codesPostaux": ["51390"],
      "centre": {
        "type": "Point",
        "coordinates": [3.875, 49.2461]
      },
      "mairie": {
        "type": "Point",
        "coordinates": [3.8762, 49.2456]
      },
      "population": 146,
      "surface": 195.8,
      "radius": 0.79
    },
    {
      "nom": "Joiselle",
      "code": "51306",
      "codesPostaux": ["51310"],
      "centre": {
        "type": "Point",
        "coordinates": [3.5001, 48.762]
      },
      "mairie": {
        "type": "Point",
        "coordinates": [3.5155, 48.7712]
      },
      "population": 107,
      "surface": 968.75,
      "radius": 1.76
    },
    {
      "nom": "Jonchery-sur-Suippe",
      "code": "51307",
      "codesPostaux": ["51600"],
      "centre": {
        "type": "Point",
        "coordinates": [4.4773, 49.1361]
      },
      "mairie": {
        "type": "Point",
        "coordinates": [4.4758, 49.1593]
      },
      "population": 228,
      "surface": 2458.3,
      "radius": 2.8
    },
    {
      "nom": "Jonchery-sur-Vesle",
      "code": "51308",
      "codesPostaux": ["51140"],
      "centre": {
        "type": "Point",
        "coordinates": [3.8222, 49.2875]
      },
      "mairie": {
        "type": "Point",
        "coordinates": [3.814, 49.2877]
      },
      "population": 1815,
      "surface": 322.45,
      "radius": 1.01
    },
    {
      "nom": "Jonquery",
      "code": "51309",
      "codesPostaux": ["51700"],
      "centre": {
        "type": "Point",
        "coordinates": [3.7904, 49.1461]
      },
      "mairie": {
        "type": "Point",
        "coordinates": [3.7891, 49.148]
      },
      "population": 114,
      "surface": 426.67,
      "radius": 1.17
    },
    {
      "nom": "Jouy-lès-Reims",
      "code": "51310",
      "codesPostaux": ["51390"],
      "centre": {
        "type": "Point",
        "coordinates": [3.9261, 49.2127]
      },
      "mairie": {
        "type": "Point",
        "coordinates": [3.9292, 49.2151]
      },
      "population": 208,
      "surface": 188.27,
      "radius": 0.77
    },
    {
      "nom": "Jussecourt-Minecourt",
      "code": "51311",
      "codesPostaux": ["51340"],
      "centre": {
        "type": "Point",
        "coordinates": [4.7822, 48.7928]
      },
      "mairie": {
        "type": "Point",
        "coordinates": [4.7879, 48.7896]
      },
      "population": 199,
      "surface": 904.64,
      "radius": 1.7
    },
    {
      "nom": "Juvigny",
      "code": "51312",
      "codesPostaux": ["51150"],
      "centre": {
        "type": "Point",
        "coordinates": [4.2692, 49.0206]
      },
      "mairie": {
        "type": "Point",
        "coordinates": [4.2614, 49.0194]
      },
      "population": 959,
      "surface": 2157.29,
      "radius": 2.62
    },
    {
      "nom": "L'Épine",
      "code": "51231",
      "codesPostaux": ["51460"],
      "centre": {
        "type": "Point",
        "coordinates": [4.4451, 48.9943]
      },
      "mairie": {
        "type": "Point",
        "coordinates": [4.4694, 48.9772]
      },
      "population": 676,
      "surface": 3046.83,
      "radius": 3.11
    },
    {
      "nom": "La Caure",
      "code": "51100",
      "codesPostaux": ["51270"],
      "centre": {
        "type": "Point",
        "coordinates": [3.7765, 48.9086]
      },
      "mairie": {
        "type": "Point",
        "coordinates": [3.7897, 48.9123]
      },
      "population": 99,
      "surface": 861.2,
      "radius": 1.66
    },
    {
      "nom": "La Celle-sous-Chantemerle",
      "code": "51103",
      "codesPostaux": ["51260"],
      "centre": {
        "type": "Point",
        "coordinates": [3.6834, 48.6054]
      },
      "mairie": {
        "type": "Point",
        "coordinates": [3.6789, 48.6125]
      },
      "population": 137,
      "surface": 1204.39,
      "radius": 1.96
    },
    {
      "nom": "La Chapelle-Felcourt",
      "code": "51126",
      "codesPostaux": ["51800"],
      "centre": {
        "type": "Point",
        "coordinates": [4.755, 49.0404]
      },
      "mairie": {
        "type": "Point",
        "coordinates": [4.7549, 49.045]
      },
      "population": 45,
      "surface": 984.2,
      "radius": 1.77
    },
    {
      "nom": "La Chapelle-Lasson",
      "code": "51127",
      "codesPostaux": ["51260"],
      "centre": {
        "type": "Point",
        "coordinates": [3.8192, 48.6341]
      },
      "mairie": {
        "type": "Point",
        "coordinates": [3.8322, 48.6285]
      },
      "population": 85,
      "surface": 1502.27,
      "radius": 2.19
    },
    {
      "nom": "La Chapelle-sous-Orbais",
      "code": "51128",
      "codesPostaux": ["51270"],
      "centre": {
        "type": "Point",
        "coordinates": [3.7181, 48.9138]
      },
      "mairie": {
        "type": "Point",
        "coordinates": [3.7314, 48.9103]
      },
      "population": 57,
      "surface": 1473.21,
      "radius": 2.17
    },
    {
      "nom": "La Chaussée-sur-Marne",
      "code": "51141",
      "codesPostaux": ["51240"],
      "centre": {
        "type": "Point",
        "coordinates": [4.5458, 48.8426]
      },
      "mairie": {
        "type": "Point",
        "coordinates": [4.5215, 48.8343]
      },
      "population": 764,
      "surface": 2238.1,
      "radius": 2.67
    },
    {
      "nom": "La Cheppe",
      "code": "51147",
      "codesPostaux": ["51600"],
      "centre": {
        "type": "Point",
        "coordinates": [4.4896, 49.056]
      },
      "mairie": {
        "type": "Point",
        "coordinates": [4.4995, 49.0501]
      },
      "population": 326,
      "surface": 2400.3,
      "radius": 2.76
    },
    {
      "nom": "La Croix-en-Champagne",
      "code": "51197",
      "codesPostaux": ["51600"],
      "centre": {
        "type": "Point",
        "coordinates": [4.6593, 49.0673]
      },
      "mairie": {
        "type": "Point",
        "coordinates": [4.6484, 49.0659]
      },
      "population": 86,
      "surface": 1662.02,
      "radius": 2.3
    },
    {
      "nom": "La Forestière",
      "code": "51258",
      "codesPostaux": ["51120"],
      "centre": {
        "type": "Point",
        "coordinates": [3.6066, 48.6593]
      },
      "mairie": {
        "type": "Point",
        "coordinates": [3.5946, 48.6571]
      },
      "population": 206,
      "surface": 2266.29,
      "radius": 2.69
    },
    {
      "nom": "La Neuville-au-Pont",
      "code": "51399",
      "codesPostaux": ["51800"],
      "centre": {
        "type": "Point",
        "coordinates": [4.8551, 49.1302]
      },
      "mairie": {
        "type": "Point",
        "coordinates": [4.857, 49.1243]
      },
      "population": 489,
      "surface": 1517.36,
      "radius": 2.2
    },
    {
      "nom": "La Neuville-au-Temple",
      "code": "51485",
      "codesPostaux": ["51400"],
      "centre": {
        "type": "Point",
        "coordinates": [4.3863, 49.0419]
      },
      "mairie": {
        "type": "Point",
        "coordinates": [4.3848, 49.0567]
      },
      "population": 304,
      "surface": 1636.54,
      "radius": 2.28
    },
    {
      "nom": "La Neuville-aux-Bois",
      "code": "51397",
      "codesPostaux": ["51330"],
      "centre": {
        "type": "Point",
        "coordinates": [4.8937, 48.9681]
      },
      "mairie": {
        "type": "Point",
        "coordinates": [4.8881, 48.9688]
      },
      "population": 138,
      "surface": 1459.71,
      "radius": 2.16
    },
    {
      "nom": "La Neuville-aux-Larris",
      "code": "51398",
      "codesPostaux": ["51480"],
      "centre": {
        "type": "Point",
        "coordinates": [3.8309, 49.1434]
      },
      "mairie": {
        "type": "Point",
        "coordinates": [3.842, 49.1426]
      },
      "population": 192,
      "surface": 168.03,
      "radius": 0.73
    },
    {
      "nom": "La Noue",
      "code": "51407",
      "codesPostaux": ["51310"],
      "centre": {
        "type": "Point",
        "coordinates": [3.6255, 48.7399]
      },
      "mairie": {
        "type": "Point",
        "coordinates": [3.6106, 48.7428]
      },
      "population": 377,
      "surface": 1334.1,
      "radius": 2.06
    },
    {
      "nom": "La Veuve",
      "code": "51617",
      "codesPostaux": ["51520"],
      "centre": {
        "type": "Point",
        "coordinates": [4.3344, 49.0389]
      },