{
  "departmentCode": "62",
  "departmentName": "Pas-de-Calais",
  "stats": {
    "communeCount": 887,
    "totalPopulation": 1457915,
    "totalSurface": 668885
  },
  "communes": [
    {
      "nom": "Ablain-Saint-Nazaire",
      "code": "62001",
      "codesPostaux": ["62153"],
      "centre": {
        "type": "Point",
        "coordinates": [2.6983, 50.3989]
      },
      "mairie": {
        "type": "Point",
        "coordinates": [2.7123, 50.3925]
      },
      "population": 1966,
      "surface": 994.63,
      "radius": 1.78
    },
    {
      "nom": "Ablainzevelle",
      "code": "62002",
      "codesPostaux": ["62116"],
      "centre": {
        "type": "Point",
        "coordinates": [2.7395, 50.1532]
      },
      "mairie": {
        "type": "Point",
        "coordinates": [2.7307, 50.1513]
      },
      "population": 220,
      "surface": 428.35,
      "radius": 1.17
    },
    {
      "nom": "Acheville",
      "code": "62003",
      "codesPostaux": ["62320"],
      "centre": {
        "type": "Point",
        "coordinates": [2.8815, 50.3847]
      },
      "mairie": {
        "type": "Point",
        "coordinates": [2.8828, 50.3833]
      },
      "population": 579,
      "surface": 307.04,
      "radius": 0.99
    },
    {
      "nom": "Achicourt",
      "code": "62004",
      "codesPostaux": ["62217"],
      "centre": {
        "type": "Point",
        "coordinates": [2.7572, 50.2723]
      },
      "mairie": {
        "type": "Point",
        "coordinates": [2.7578, 50.2731]
      },
      "population": 7899,
      "surface": 582.09,
      "radius": 1.36
    },
    {
      "nom": "Achiet-le-Grand",
      "code": "62005",
      "codesPostaux": ["62121"],
      "centre": {
        "type": "Point",
        "coordinates": [2.7785, 50.1306]
      },
      "mairie": {
        "type": "Point",
        "coordinates": [2.7843, 50.1322]
      },
      "population": 969,
      "surface": 508.46,
      "radius": 1.27
    },
    {
      "nom": "Achiet-le-Petit",
      "code": "62006",
      "codesPostaux": ["62121"],
      "centre": {
        "type": "Point",
        "coordinates": [2.7568, 50.1285]
      },
      "mairie": {
        "type": "Point",
        "coordinates": [2.7513, 50.1228]
      },
      "population": 311,
      "surface": 729.01,
      "radius": 1.52
    },
    {
      "nom": "Acq",
      "code": "62007",
      "codesPostaux": ["62144"],
      "centre": {
        "type": "Point",
        "coordinates": [2.654, 50.3502]
      },
      "mairie": {
        "type": "Point",
        "coordinates": [2.6561, 50.3484]
      },
      "population": 790,
      "surface": 486.57,
      "radius": 1.24
    },
    {
      "nom": "Acquin-Westbécourt",
      "code": "62008",
      "codesPostaux": ["62380"],
      "centre": {
        "type": "Point",
        "coordinates": [2.0763, 50.7333]
      },
      "mairie": {
        "type": "Point",
        "coordinates": [2.087, 50.7279]
      },
      "population": 799,
      "surface": 1445.04,
      "radius": 2.14
    },
    {
      "nom": "Adinfer",
      "code": "62009",
      "codesPostaux": ["62116"],
      "centre": {
        "type": "Point",
        "coordinates": [2.7073, 50.1913]
      },
      "mairie": {
        "type": "Point",
        "coordinates": [2.7085, 50.1944]
      },
      "population": 283,
      "surface": 626.64,
      "radius": 1.41
    },
    {
      "nom": "Affringues",
      "code": "62010",
      "codesPostaux": ["62380"],
      "centre": {
        "type": "Point",
        "coordinates": [2.0692, 50.6901]
      },
      "mairie": {
        "type": "Point",
        "coordinates": [2.0747, 50.6898]
      },
      "population": 255,
      "surface": 296.95,
      "radius": 0.97
    },
    {
      "nom": "Agnez-lès-Duisans",
      "code": "62011",
      "codesPostaux": ["62161"],
      "centre": {
        "type": "Point",
        "coordinates": [2.6461, 50.307]
      },
      "mairie": {
        "type": "Point",
        "coordinates": [2.6589, 50.3071]
      },
      "population": 635,
      "surface": 740.15,
      "radius": 1.53
    },
    {
      "nom": "Agnières",
      "code": "62012",
      "codesPostaux": ["62690"],
      "centre": {
        "type": "Point",
        "coordinates": [2.6098, 50.3507]
      },
      "mairie": {
        "type": "Point",
        "coordinates": [2.6042, 50.3541]
      },
      "population": 255,
      "surface": 327.12,
      "radius": 1.02
    },
    {
      "nom": "Agny",
      "code": "62013",
      "codesPostaux": ["62217"],
      "centre": {
        "type": "Point",
        "coordinates": [2.76, 50.2519]
      },
      "mairie": {
        "type": "Point",
        "coordinates": [2.7585, 50.2602]
      },
      "population": 1863,
      "surface": 611.33,
      "radius": 1.39
    },
    {
      "nom": "Aire-sur-la-Lys",
      "code": "62014",
      "codesPostaux": ["62120"],
      "centre": {
        "type": "Point",
        "coordinates": [2.3962, 50.6457]
      },
      "mairie": {
        "type": "Point",
        "coordinates": [2.3962, 50.6385]
      },
      "population": 9568,
      "surface": 3319.53,
      "radius": 3.25
    },
    {
      "nom": "Airon-Notre-Dame",
      "code": "62015",
      "codesPostaux": ["62180"],
      "centre": {
        "type": "Point",
        "coordinates": [1.6711, 50.4416]
      },
      "mairie": {
        "type": "Point",
        "coordinates": [1.6535, 50.4369]
      },
      "population": 259,
      "surface": 509.96,
      "radius": 1.27
    },
    {
      "nom": "Airon-Saint-Vaast",
      "code": "62016",
      "codesPostaux": ["62180"],
      "centre": {
        "type": "Point",
        "coordinates": [1.6687, 50.4262]
      },
      "mairie": {
        "type": "Point",
        "coordinates": [1.6685, 50.4308]
      },
      "population": 189,
      "surface": 589.47,
      "radius": 1.37
    },
    {
      "nom": "Aix-en-Ergny",
      "code": "62017",
      "codesPostaux": ["62650"],
      "centre": {
        "type": "Point",
        "coordinates": [2.0011, 50.5836]
      },
      "mairie": {
        "type": "Point",
        "coordinates": [1.996, 50.5817]
      },
      "population": 201,
      "surface": 485.61,
      "radius": 1.24
    },
    {
      "nom": "Aix-en-Issart",
      "code": "62018",
      "codesPostaux": ["62170"],
      "centre": {
        "type": "Point",
        "coordinates": [1.8635, 50.4822]
      },
      "mairie": {
        "type": "Point",
        "coordinates": [1.8566, 50.4751]
      },
      "population": 267,
      "surface": 1024.17,
      "radius": 1.81
    },
    {
      "nom": "Aix-Noulette",
      "code": "62019",
      "codesPostaux": ["62160"],
      "centre": {
        "type": "Point",
        "coordinates": [2.7125, 50.4231]
      },
      "mairie": {
        "type": "Point",
        "coordinates": [2.7106, 50.4267]
      },
      "population": 3915,
      "surface": 1043.95,
      "radius": 1.82
    },
    {
      "nom": "Alembon",
      "code": "62020",
      "codesPostaux": ["62850"],
      "centre": {
        "type": "Point",
        "coordinates": [1.8719, 50.7805]
      },
      "mairie": {
        "type": "Point",
        "coordinates": [1.8868, 50.7847]
      },
      "population": 626,
      "surface": 922.67,
      "radius": 1.71
    },
    {
      "nom": "Alette",
      "code": "62021",
      "codesPostaux": ["62650"],
      "centre": {
        "type": "Point",
        "coordinates": [1.8506, 50.5258]
      },
      "mairie": {
        "type": "Point",
        "coordinates": [1.8269, 50.5181]
      },
      "population": 372,
      "surface": 1396.93,
      "radius": 2.11
    },
    {
      "nom": "Alincthun",
      "code": "62022",
      "codesPostaux": ["62142"],
      "centre": {
        "type": "Point",
        "coordinates": [1.8119, 50.7255]
      },
      "mairie": {
        "type": "Point",
        "coordinates": [1.8029, 50.731]
      },
      "population": 296,
      "surface": 998.79,
      "radius": 1.78
    },
    {
      "nom": "Allouagne",
      "code": "62023",
      "codesPostaux": ["62157"],
      "centre": {
        "type": "Point",
        "coordinates": [2.5047, 50.535]
      },
      "mairie": {
        "type": "Point",
        "coordinates": [2.505, 50.5311]
      },
      "population": 2837,
      "surface": 781.82,
      "radius": 1.58
    },
    {
      "nom": "Alquines",
      "code": "62024",
      "codesPostaux": ["62850"],
      "centre": {
        "type": "Point",
        "coordinates": [1.9964, 50.7343]
      },
      "mairie": {
        "type": "Point",
        "coordinates": [1.9931, 50.7409]
      },
      "population": 985,
      "surface": 1054.11,
      "radius": 1.83
    },
    {
      "nom": "Ambleteuse",
      "code": "62025",
      "codesPostaux": ["62164"],
      "centre": {
        "type": "Point",
        "coordinates": [1.6198, 50.8129]
      },
      "mairie": {
        "type": "Point",
        "coordinates": [1.6069, 50.8113]
      },
      "population": 2010,
      "surface": 563.89,
      "radius": 1.34
    },
    {
      "nom": "Ambricourt",
      "code": "62026",
      "codesPostaux": ["62310"],
      "centre": {
        "type": "Point",
        "coordinates": [2.1728, 50.4668]
      },
      "mairie": {
        "type": "Point",
        "coordinates": [2.1779, 50.4722]
      },
      "population": 119,
      "surface": 340.39,
      "radius": 1.04
    },
    {
      "nom": "Ambrines",
      "code": "62027",
      "codesPostaux": ["62127"],
      "centre": {
        "type": "Point",
        "coordinates": [2.466, 50.3082]
      },
      "mairie": {
        "type": "Point",
        "coordinates": [2.4686, 50.3104]
      },
      "population": 212,
      "surface": 456.9,
      "radius": 1.21
    },
    {
      "nom": "Ames",
      "code": "62028",
      "codesPostaux": ["62190"],
      "centre": {
        "type": "Point",
        "coordinates": [2.4149, 50.5345]
      },
      "mairie": {
        "type": "Point",
        "coordinates": [2.4142, 50.5415]
      },
      "population": 660,
      "surface": 365.08,
      "radius": 1.08
    },
    {
      "nom": "Amettes",
      "code": "62029",
      "codesPostaux": ["62260"],
      "centre": {
        "type": "Point",
        "coordinates": [2.3961, 50.528]
      },
      "mairie": {
        "type": "Point",
        "coordinates": [2.3934, 50.5297]
      },
      "population": 466,
      "surface": 687.03,
      "radius": 1.48
    },
    {
      "nom": "Amplier",
      "code": "62030",
      "codesPostaux": ["62760"],
      "centre": {
        "type": "Point",
        "coordinates": [2.3985, 50.1357]
      },
      "mairie": {
        "type": "Point",
        "coordinates": [2.4, 50.1372]
      },
      "population": 303,
      "surface": 866.88,
      "radius": 1.66
    },
    {
      "nom": "Andres",
      "code": "62031",
      "codesPostaux": ["62340"],
      "centre": {
        "type": "Point",
        "coordinates": [1.9191, 50.865]
      },
      "mairie": {
        "type": "Point",
        "coordinates": [1.921, 50.8659]
      },
      "population": 1534,
      "surface": 724.98,
      "radius": 1.52
    },
    {
      "nom": "Angres",
      "code": "62032",
      "codesPostaux": ["62143"],
      "centre": {
        "type": "Point",
        "coordinates": [2.7538, 50.4119]
      },
      "mairie": {
        "type": "Point",
        "coordinates": [2.7562, 50.4088]
      },
      "population": 4719,
      "surface": 483.01,
      "radius": 1.24
    },
    {
      "nom": "Annay",
      "code": "62033",
      "codesPostaux": ["62880"],
      "centre": {
        "type": "Point",
        "coordinates": [2.8849, 50.4606]
      },
      "mairie": {
        "type": "Point",
        "coordinates": [2.8777, 50.4623]
      },
      "population": 4544,
      "surface": 432.37,
      "radius": 1.17
    },
    {
      "nom": "Annequin",
      "code": "62034",
      "codesPostaux": ["62149"],
      "centre": {
        "type": "Point",
        "coordinates": [2.718, 50.5028]
      },
      "mairie": {
        "type": "Point",
        "coordinates": [2.7273, 50.509]
      },
      "population": 2147,
      "surface": 397.06,
      "radius": 1.12
    },
    {
      "nom": "Annezin",
      "code": "62035",
      "codesPostaux": ["62232"],
      "centre": {
        "type": "Point",
        "coordinates": [2.6166, 50.5422]
      },
      "mairie": {
        "type": "Point",
        "coordinates": [2.6182, 50.5323]
      },
      "population": 5819,
      "surface": 604.03,
      "radius": 1.39
    },
    {
      "nom": "Anvin",
      "code": "62036",
      "codesPostaux": ["62134"],
      "centre": {
        "type": "Point",
        "coordinates": [2.2614, 50.4506]
      },
      "mairie": {
        "type": "Point",
        "coordinates": [2.2521, 50.4463]
      },
      "population": 709,
      "surface": 788.78,
      "radius": 1.58
    },
    {
      "nom": "Anzin-Saint-Aubin",
      "code": "62037",
      "codesPostaux": ["62223"],
      "centre": {
        "type": "Point",
        "coordinates": [2.7384, 50.3206]
      },
      "mairie": {
        "type": "Point",
        "coordinates": [2.747, 50.3135]
      },
      "population": 2833,
      "surface": 511.76,
      "radius": 1.28
    },
    {
      "nom": "Ardres",
      "code": "62038",
      "codesPostaux": ["62610"],
      "centre": {
        "type": "Point",
        "coordinates": [1.9827, 50.8772]
      },
      "mairie": {
        "type": "Point",
        "coordinates": [1.9789, 50.8537]
      },
      "population": 4393,
      "surface": 1362.94,
      "radius": 2.08
    },
    {
      "nom": "Arleux-en-Gohelle",
      "code": "62039",
      "codesPostaux": ["62580"],
      "centre": {
        "type": "Point",
        "coordinates": [2.8673, 50.3646]
      },
      "mairie": {
        "type": "Point",
        "coordinates": [2.8695, 50.3634]
      },
      "population": 933,
      "surface": 628.89,
      "radius": 1.41
    },
    {
      "nom": "Arques",
      "code": "62040",
      "codesPostaux": ["62510"],
      "centre": {
        "type": "Point",
        "coordinates": [2.3177, 50.7388]
      },
      "mairie": {
        "type": "Point",
        "coordinates": [2.295, 50.7337]
      },
      "population": 9526,
      "surface": 2237.2,
      "radius": 2.67
    },
    {
      "nom": "Arras",
      "code": "62041",
      "codesPostaux": ["62000"],
      "centre": {
        "type": "Point",
        "coordinates": [2.7679, 50.2893]
      },
      "mairie": {
        "type": "Point",
        "coordinates": [2.7788, 50.2934]
      },
      "population": 42621,
      "surface": 1188.11,
      "radius": 1.94
    },
    {
      "nom": "Athies",
      "code": "62042",
      "codesPostaux": ["62223"],
      "centre": {
        "type": "Point",
        "coordinates": [2.8416, 50.3093]
      },
      "mairie": {
        "type": "Point",
        "coordinates": [2.837, 50.3015]
      },
      "population": 1049,
      "surface": 432.82,
      "radius": 1.17
    },
    {
      "nom": "Attin",
      "code": "62044",
      "codesPostaux": ["62170"],
      "centre": {
        "type": "Point",
        "coordinates": [1.7533, 50.4926]
      },
      "mairie": {
        "type": "Point",
        "coordinates": [1.7434, 50.4882]
      },
      "population": 864,
      "surface": 659.48,
      "radius": 1.45
    },
    {
      "nom": "Aubigny-en-Artois",
      "code": "62045",
      "codesPostaux": ["62690"],
      "centre": {
        "type": "Point",
        "coordinates": [2.5833, 50.3501]
      },
      "mairie": {
        "type": "Point",
        "coordinates": [2.59, 50.3515]
      },
      "population": 1484,
      "surface": 625.93,
      "radius": 1.41
    },
    {
      "nom": "Aubin-Saint-Vaast",
      "code": "62046",
      "codesPostaux": ["62140"],
      "centre": {
        "type": "Point",
        "coordinates": [1.9662, 50.3864]
      },
      "mairie": {
        "type": "Point",
        "coordinates": [1.9728, 50.3959]
      },
      "population": 735,
      "surface": 668.96,
      "radius": 1.46
    },
    {
      "nom": "Aubrometz",
      "code": "62047",
      "codesPostaux": ["62390"],
      "centre": {
        "type": "Point",
        "coordinates": [2.1761, 50.3037]
      },
      "mairie": {
        "type": "Point",
        "coordinates": [2.181, 50.3032]
      },
      "population": 142,
      "surface": 272.43,
      "radius": 0.93
    },
    {
      "nom": "Auchel",
      "code": "62048",
      "codesPostaux": ["62260"],
      "centre": {
        "type": "Point",
        "coordinates": [2.4656, 50.5108]
      },
      "mairie": {
        "type": "Point",
        "coordinates": [2.4672, 50.5035]
      },
      "population": 10124,
      "surface": 597.36,
      "radius": 1.38
    },
    {
      "nom": "Auchy-au-Bois",
      "code": "62049",
      "codesPostaux": ["62190"],
      "centre": {
        "type": "Point",
        "coordinates": [2.3728, 50.5501]
      },
      "mairie": {
        "type": "Point",
        "coordinates": [2.3713, 50.5517]
      },
      "population": 549,
      "surface": 429,
      "radius": 1.17
    },
    {
      "nom": "Auchy-lès-Hesdin",
      "code": "62050",
      "codesPostaux": ["62770"],
      "centre": {
        "type": "Point",
        "coordinates": [2.0973, 50.4096]
      },
      "mairie": {
        "type": "Point",
        "coordinates": [2.1015, 50.3991]
      },
      "population": 1517,
      "surface": 974.55,
      "radius": 1.76
    },
    {
      "nom": "Auchy-les-Mines",
      "code": "62051",
      "codesPostaux": ["62138"],
      "centre": {
        "type": "Point",
        "coordinates": [2.7812, 50.5041]
      },
      "mairie": {
        "type": "Point",
        "coordinates": [2.7855, 50.5116]
      },
      "population": 4642,
      "surface": 508.71,
      "radius": 1.27
    },
    {
      "nom": "Audembert",
      "code": "62052",
      "codesPostaux": ["62250"],
      "centre": {
        "type": "Point",
        "coordinates": [1.6924, 50.8585]
      },
      "mairie": {
        "type": "Point",
        "coordinates": [1.6907, 50.8612]
      },
      "population": 435,
      "surface": 755.39,
      "radius": 1.55
    },
    {
      "nom": "Audincthun",
      "code": "62053",
      "codesPostaux": ["62560"],
      "centre": {
        "type": "Point",
        "coordinates": [2.1235, 50.5818]
      },
      "mairie": {
        "type": "Point",
        "coordinates": [2.1328, 50.5868]
      },
      "population": 680,
      "surface": 1521.82,
      "radius": 2.2
    },
    {
      "nom": "Audinghen",
      "code": "62054",
      "codesPostaux": ["62179"],
      "centre": {
        "type": "Point",
        "coordinates": [1.6142, 50.8514]
      },
      "mairie": {
        "type": "Point",
        "coordinates": [1.6132, 50.8515]
      },
      "population": 623,
      "surface": 1336.48,
      "radius": 2.06
    },
    {
      "nom": "Audrehem",
      "code": "62055",
      "codesPostaux": ["62890"],
      "centre": {
        "type": "Point",
        "coordinates": [1.983, 50.7713]
      },
      "mairie": {
        "type": "Point",
        "coordinates": [1.9917, 50.7813]
      },
      "population": 522,
      "surface": 926.61,
      "radius": 1.72
    },
    {
      "nom": "Audresselles",
      "code": "62056",
      "codesPostaux": ["62164"],
      "centre": {
        "type": "Point",
        "coordinates": [1.6131, 50.8288]
      },
      "mairie": {
        "type": "Point",
        "coordinates": [1.5958, 50.8241]
      },
      "population": 616,
      "surface": 575.94,
      "radius": 1.35
    },
    {
      "nom": "Audruicq",
      "code": "62057",
      "codesPostaux": ["62370"],
      "centre": {
        "type": "Point",
        "coordinates": [2.0858, 50.8809]
      },
      "mairie": {
        "type": "Point",
        "coordinates": [2.0824, 50.8793]
      },
      "population": 5349,
      "surface": 1443.08,
      "radius": 2.14
    },
    {
      "nom": "Aumerval",
      "code": "62058",
      "codesPostaux": ["62550"],
      "centre": {
        "type": "Point",
        "coordinates": [2.4073, 50.5067]
      },
      "mairie": {
        "type": "Point",
        "coordinates": [2.399, 50.5067]
      },
      "population": 194,
      "surface": 341.64,
      "radius": 1.04
    },
    {
      "nom": "Autingues",
      "code": "62059",
      "codesPostaux": ["62610"],
      "centre": {
        "type": "Point",
        "coordinates": [1.9848, 50.8433]
      },
      "mairie": {
        "type": "Point",
        "coordinates": [1.985, 50.8416]
      },
      "population": 291,
      "surface": 297.81,
      "radius": 0.97
    },
    {
      "nom": "Auxi-le-Château",
      "code": "62060",
      "codesPostaux": ["62390"],
      "centre": {
        "type": "Point",
        "coordinates": [2.1174, 50.2366]
      },
      "mairie": {
        "type": "Point",
        "coordinates": [2.1182, 50.2316]
      },
      "population": 2549,
      "surface": 2727.67,
      "radius": 2.95
    },
    {
      "nom": "Averdoingt",
      "code": "62061",
      "codesPostaux": ["62127"],
      "centre": {
        "type": "Point",
        "coordinates": [2.4404, 50.3474]
      },
      "mairie": {
        "type": "Point",
        "coordinates": [2.4409, 50.3448]
      },
      "population": 293,
      "surface": 856.08,
      "radius": 1.65
    },
    {
      "nom": "Avesnes",
      "code": "62062",
      "codesPostaux": ["62650"],
      "centre": {
        "type": "Point",
        "coordinates": [1.9631, 50.5513]
      },
      "mairie": {
        "type": "Point",
        "coordinates": [1.972, 50.5496]
      },
      "population": 49,
      "surface": 301.57,
      "radius": 0.98
    },
    {
      "nom": "Avesnes-le-Comte",
      "code": "62063",
      "codesPostaux": ["62810"],
      "centre": {
        "type": "Point",
        "coordinates": [2.533, 50.2688]
      },
      "mairie": {
        "type": "Point",
        "coordinates": [2.5276, 50.2763]
      },
      "population": 1817,
      "surface": 929.89,
      "radius": 1.72
    },
    {
      "nom": "Avesnes-lès-Bapaume",
      "code": "62064",
      "codesPostaux": ["62450"],
      "centre": {
        "type": "Point",
        "coordinates": [2.8327, 50.1042]
      },
      "mairie": {
        "type": "Point",
        "coordinates": [2.84, 50.1054]
      },
      "population": 170,
      "surface": 309.97,
      "radius": 0.99
    },
    {
      "nom": "Avion",
      "code": "62065",
      "codesPostaux": ["62210"],
      "centre": {
        "type": "Point",
        "coordinates": [2.8243, 50.404]
      },
      "mairie": {
        "type": "Point",
        "coordinates": [2.8338, 50.4131]
      },
      "population": 17571,
      "surface": 1300.85,
      "radius": 2.03
    },
    {
      "nom": "Avondance",
      "code": "62066",
      "codesPostaux": ["62310"],
      "centre": {
        "type": "Point",
        "coordinates": [2.1002, 50.4787]
      },
      "mairie": {
        "type": "Point",
        "coordinates": [2.0969, 50.4752]
      },
      "population": 33,
      "surface": 222.94,
      "radius": 0.84
    },
    {
      "nom": "Avroult",
      "code": "62067",
      "codesPostaux": ["62560"],
      "centre": {
        "type": "Point",
        "coordinates": [2.1467, 50.6309]
      },
      "mairie": {
        "type": "Point",
        "coordinates": [2.1439, 50.633]
      },
      "population": 541,
      "surface": 477.26,
      "radius": 1.23
    },
    {
      "nom": "Ayette",
      "code": "62068",
      "codesPostaux": ["62116"],
      "centre": {
        "type": "Point",
        "coordinates": [2.7263, 50.1705]
      },
      "mairie": {
        "type": "Point",
        "coordinates": [2.7342, 50.1747]
      },
      "population": 328,
      "surface": 515.86,
      "radius": 1.28
    },
    {
      "nom": "Azincourt",
      "code": "62069",
      "codesPostaux": ["62310"],
      "centre": {
        "type": "Point",
        "coordinates": [2.1154, 50.4574]
      },
      "mairie": {
        "type": "Point",
        "coordinates": [2.1285, 50.463]
      },
      "population": 304,
      "surface": 859.39,
      "radius": 1.65
    },
    {
      "nom": "Bailleul-aux-Cornailles",
      "code": "62070",
      "codesPostaux": ["62127"],
      "centre": {
        "type": "Point",
        "coordinates": [2.4484, 50.3723]
      },
      "mairie": {
        "type": "Point",
        "coordinates": [2.4437, 50.3712]
      },
      "population": 267,
      "surface": 677.98,
      "radius": 1.47
    },
    {
      "nom": "Bailleul-lès-Pernes",
      "code": "62071",
      "codesPostaux": ["62550"],
      "centre": {
        "type": "Point",
        "coordinates": [2.3801, 50.5094]
      },
      "mairie": {
        "type": "Point",
        "coordinates": [2.39, 50.5064]
      },
      "population": 409,
      "surface": 354.01,
      "radius": 1.06
    },
    {
      "nom": "Bailleul-Sir-Berthoult",
      "code": "62073",
      "codesPostaux": ["62580"],
      "centre": {
        "type": "Point",
        "coordinates": [2.8436, 50.3357]
      },
      "mairie": {
        "type": "Point",
        "coordinates": [2.8519, 50.3379]
      },
      "population": 1432,
      "surface": 931.72,
      "radius": 1.72
    },
    {
      "nom": "Bailleulmont",
      "code": "62072",
      "codesPostaux": ["62123"],
      "centre": {
        "type": "Point",
        "coordinates": [2.6046, 50.2083]
      },
      "mairie": {
        "type": "Point",
        "coordinates": [2.6124, 50.2157]
      },
      "population": 216,
      "surface": 530.64,
      "radius": 1.3
    },
    {
      "nom": "Bailleulval",
      "code": "62074",
      "codesPostaux": ["62123"],
      "centre": {
        "type": "Point",
        "coordinates": [2.6236, 50.2226]
      },
      "mairie": {
        "type": "Point",
        "coordinates": [2.6359, 50.2232]
      },
      "population": 233,
      "surface": 394.97,
      "radius": 1.12
    },
    {
      "nom": "Baincthun",
      "code": "62075",
      "codesPostaux": ["62360"],
      "centre": {
        "type": "Point",
        "coordinates": [1.7082, 50.6978]
      },
      "mairie": {
        "type": "Point",
        "coordinates": [1.6827, 50.7092]
      },
      "population": 1321,
      "surface": 2682.82,
      "radius": 2.92
    },
    {
      "nom": "Bainghen",
      "code": "62076",
      "codesPostaux": ["62850"],
      "centre": {
        "type": "Point",
        "coordinates": [1.9021, 50.7518]
      },
      "mairie": {
        "type": "Point",
        "coordinates": [1.9065, 50.7512]
      },
      "population": 214,
      "surface": 680.71,
      "radius": 1.47
    },
    {
      "nom": "Bajus",
      "code": "62077",
      "codesPostaux": ["62150"],
      "centre": {
        "type": "Point",
        "coordinates": [2.4714, 50.4218]
      },
      "mairie": {
        "type": "Point",
        "coordinates": [2.482, 50.4216]
      },
      "population": 358,
      "surface": 297.65,
      "radius": 0.97
    },
    {
      "nom": "Balinghem",
      "code": "62078",
      "codesPostaux": ["62610"],
      "centre": {
        "type": "Point",
        "coordinates": [1.9375, 50.8627]
      },
      "mairie": {
        "type": "Point",
        "coordinates": [1.9424, 50.8609]
      },
      "population": 1225,
      "surface": 579.39,
      "radius": 1.36
    },
    {
      "nom": "Bancourt",
      "code": "62079",
      "codesPostaux": ["62450"],
      "centre": {
        "type": "Point",
        "coordinates": [2.8935, 50.1033]
      },
      "mairie": {
        "type": "Point",
        "coordinates": [2.8899, 50.1012]
      },
      "population": 84,
      "surface": 456.9,
      "radius": 1.21
    },
    {
      "nom": "Bapaume",
      "code": "62080",
      "codesPostaux": ["62450"],
      "centre": {
        "type": "Point",
        "coordinates": [2.8559, 50.1018]
      },
      "mairie": {
        "type": "Point",
        "coordinates": [2.8497, 50.104]
      },
      "population": 3718,
      "surface": 577.97,
      "radius": 1.36
    },
    {
      "nom": "Baralle",
      "code": "62081",
      "codesPostaux": ["62860"],
      "centre": {
        "type": "Point",
        "coordinates": [3.0574, 50.2107]
      },
      "mairie": {
        "type": "Point",
        "coordinates": [3.0581, 50.2111]
      },
      "population": 435,
      "surface": 797.15,
      "radius": 1.59
    },
    {
      "nom": "Barastre",
      "code": "62082",
      "codesPostaux": ["62124"],
      "centre": {
        "type": "Point",
        "coordinates": [2.9386, 50.0685]
      },
      "mairie": {
        "type": "Point",
        "coordinates": [2.9342, 50.0759]
      },
      "population": 314,
      "surface": 763.36,
      "radius": 1.56
    },
    {
      "nom": "Barlin",
      "code": "62083",
      "codesPostaux": ["62620"],
      "centre": {
        "type": "Point",
        "coordinates": [2.6148, 50.4551]
      },
      "mairie": {
        "type": "Point",
        "coordinates": [2.617, 50.4568]
      },
      "population": 7330,
      "surface": 629.1,
      "radius": 1.42
    },
    {
      "nom": "Barly",
      "code": "62084",
      "codesPostaux": ["62810"],
      "centre": {
        "type": "Point",
        "coordinates": [2.5374, 50.2486]
      },
      "mairie": {
        "type": "Point",
        "coordinates": [2.5477, 50.2514]
      },
      "population": 203,
      "surface": 613.6,
      "radius": 1.4
    },
    {
      "nom": "Basseux",
      "code": "62085",
      "codesPostaux": ["62123"],
      "centre": {
        "type": "Point",
        "coordinates": [2.6463, 50.2271]
      },
      "mairie": {
        "type": "Point",
        "coordinates": [2.6441, 50.2256]
      },
      "population": 131,
      "surface": 338.72,
      "radius": 1.04
    },
    {
      "nom": "Bavincourt",
      "code": "62086",
      "codesPostaux": ["62158"],
      "centre": {
        "type": "Point",
        "coordinates": [2.567, 50.2236]
      },
      "mairie": {
        "type": "Point",
        "coordinates": [2.5679, 50.2254]
      },
      "population": 419,
      "surface": 763.83,
      "radius": 1.56
    },
    {
      "nom": "Bayenghem-lès-Éperlecques",
      "code": "62087",
      "codesPostaux": ["62910"],
      "centre": {
        "type": "Point",
        "coordinates": [2.1181, 50.8037]
      },
      "mairie": {
        "type": "Point",
        "coordinates": [2.1252, 50.806]
      },
      "population": 1019,
      "surface": 453.75,
      "radius": 1.2
    },
    {
      "nom": "Bayenghem-lès-Seninghem",
      "code": "62088",
      "codesPostaux": ["62380"],
      "centre": {
        "type": "Point",
        "coordinates": [2.0785, 50.7052]
      },
      "mairie": {
        "type": "Point",
        "coordinates": [2.0791, 50.7]
      },
      "population": 345,
      "surface": 327.46,
      "radius": 1.02
    },
    {
      "nom": "Bazinghen",
      "code": "62089",
      "codesPostaux": ["62250"],
      "centre": {
        "type": "Point",
        "coordinates": [1.6591, 50.8309]
      },
      "mairie": {
        "type": "Point",
        "coordinates": [1.6612, 50.8256]
      },
      "population": 408,
      "surface": 1327.6,
      "radius": 2.06
    },
    {
      "nom": "Béalencourt",
      "code": "62090",
      "codesPostaux": ["62770"],
      "centre": {
        "type": "Point",
        "coordinates": [2.1206, 50.4359]
      },
      "mairie": {
        "type": "Point",
        "coordinates": [2.1209, 50.4351]
      },
      "population": 133,
      "surface": 740.05,
      "radius": 1.53
    },
    {
      "nom": "Beaudricourt",
      "code": "62091",
      "codesPostaux": ["62810"],
      "centre": {
        "type": "Point",
        "coordinates": [2.4082, 50.2496]
      },
      "mairie": {
        "type": "Point",
        "coordinates": [2.4082, 50.2486]
      },
      "population": 98,
      "surface": 457.35,
      "radius": 1.21
    },
    {
      "nom": "Beaufort-Blavincourt",
      "code": "62092",
      "codesPostaux": ["62810"],
      "centre": {
        "type": "Point",
        "coordinates": [2.4856, 50.2751]
      },
      "mairie": {
        "type": "Point",
        "coordinates": [2.4964, 50.279]
      },
      "population": 404,
      "surface": 813.41,
      "radius": 1.61
    },
    {
      "nom": "Beaulencourt",
      "code": "62093",
      "codesPostaux": ["62450"],
      "centre": {
        "type": "Point",
        "coordinates": [2.8726, 50.0729]
      },
      "mairie": {
        "type": "Point",
        "coordinates": [2.8795, 50.0752]
      },
      "population": 232,
      "surface": 490.61,
      "radius": 1.25
    },
    {
      "nom": "Beaumerie-Saint-Martin",
      "code": "62094",
      "codesPostaux": ["62170"],
      "centre": {
        "type": "Point",
        "coordinates": [1.7929, 50.4431]
      },
      "mairie": {
        "type": "Point",
        "coordinates": [1.7982, 50.4561]
      },
      "population": 384,
      "surface": 928.56,
      "radius": 1.72
    },
    {
      "nom": "Beaumetz-lès-Aire",
      "code": "62095",
      "codesPostaux": ["62960"],
      "centre": {
        "type": "Point",
        "coordinates": [2.2173, 50.5432]
      },
      "mairie": {
        "type": "Point",
        "coordinates": [2.2287, 50.5408]
      },
      "population": 228,
      "surface": 421.07,
      "radius": 1.16
    },
    {
      "nom": "Beaumetz-lès-Cambrai",
      "code": "62096",
      "codesPostaux": ["62124"],
      "centre": {
        "type": "Point",
        "coordinates": [2.9825, 50.128]
      },
      "mairie": {
        "type": "Point",
        "coordinates": [2.9814, 50.1212]
      },
      "population": 536,
      "surface": 994.88,
      "radius": 1.78
    },
    {
      "nom": "Beaumetz-lès-Loges",
      "code": "62097",
      "codesPostaux": ["62123"],
      "centre": {
        "type": "Point",
        "coordinates": [2.6608, 50.2463]
      },
      "mairie": {
        "type": "Point",
        "coordinates": [2.6555, 50.2437]
      },
      "population": 1000,
      "surface": 503.9,
      "radius": 1.27
    },
    {
      "nom": "Beaurains",
      "code": "62099",
      "codesPostaux": ["62217"],
      "centre": {
        "type": "Point",
        "coordinates": [2.7907, 50.2595]
      },
      "mairie": {
        "type": "Point",
        "coordinates": [2.7886, 50.2634]
      },
      "population": 5530,
      "surface": 593.82,
      "radius": 1.37
    },
    {
      "nom": "Beaurainville",
      "code": "62100",
      "codesPostaux": ["62990"],
      "centre": {
        "type": "Point",
        "coordinates": [1.9027, 50.4183]
      },
      "mairie": {
        "type": "Point",
        "coordinates": [1.901, 50.4251]
      },
      "population": 2028,
      "surface": 1316.39,
      "radius": 2.05
    },
    {
      "nom": "Beauvoir-Wavans",
      "code": "62881",
      "codesPostaux": ["62390"],
      "centre": {
        "type": "Point",
        "coordinates": [2.1717, 50.2151]
      },
      "mairie": {
        "type": "Point",
        "coordinates": [2.1632, 50.2184]
      },
      "population": 363,
      "surface": 949.31,
      "radius": 1.74
    },
    {
      "nom": "Beauvois",
      "code": "62101",
      "codesPostaux": ["62130"],
      "centre": {
        "type": "Point",
        "coordinates": [2.2344, 50.3741]
      },
      "mairie": {
        "type": "Point",
        "coordinates": [2.2318, 50.3744]
      },
      "population": 133,
      "surface": 262.65,
      "radius": 0.91
    },
    {
      "nom": "Bécourt",
      "code": "62102",
      "codesPostaux": ["62240"],
      "centre": {
        "type": "Point",
        "coordinates": [1.906, 50.6383]
      },
      "mairie": {
        "type": "Point",
        "coordinates": [1.9109, 50.6363]
      },
      "population": 281,
      "surface": 607.23,
      "radius": 1.39
    },
    {
      "nom": "Béhagnies",
      "code": "62103",
      "codesPostaux": ["62121"],
      "centre": {
        "type": "Point",
        "coordinates": [2.8282, 50.1412]
      },
      "mairie": {
        "type": "Point",
        "coordinates": [2.8291, 50.1397]
      },
      "population": 121,
      "surface": 307.9,
      "radius": 0.99
    },
    {
      "nom": "Belle-et-Houllefort",
      "code": "62105",
      "codesPostaux": ["62142"],
      "centre": {
        "type": "Point",
        "coordinates": [1.7671, 50.7473]
      },
      "mairie": {
        "type": "Point",
        "coordinates": [1.7561, 50.7454]
      },
      "population": 524,
      "surface": 926.14,
      "radius": 1.72
    },
    {
      "nom": "Bellebrune",
      "code": "62104",
      "codesPostaux": ["62142"],
      "centre": {
        "type": "Point",
        "coordinates": [1.7758, 50.7348]
      },
      "mairie": {
        "type": "Point",
        "coordinates": [1.7743, 50.7271]
      },
      "population": 429,
      "surface": 545.43,
      "radius": 1.32
    },
    {
      "nom": "Bellinghem",
      "code": "62471",
      "codesPostaux": ["62129"],
      "centre": {
        "type": "Point",
        "coordinates": [2.2291, 50.6618]
      },
      "mairie": {
        "type": "Point",
        "coordinates": [2.2426, 50.6677]
      },
      "population": 1075,
      "surface": 777.58,
      "radius": 1.57
    },
    {
      "nom": "Bellonne",
      "code": "62106",
      "codesPostaux": ["62490"],
      "centre": {
        "type": "Point",
        "coordinates": [3.0435, 50.3013]
      },
      "mairie": {
        "type": "Point",
        "coordinates": [3.0422, 50.3029]
      },
      "population": 213,
      "surface": 204.37,
      "radius": 0.81
    },
    {
      "nom": "Bénifontaine",
      "code": "62107",
      "codesPostaux": ["62410"],
      "centre": {
        "type": "Point",
        "coordinates": [2.8285, 50.478]
      },
      "mairie": {
        "type": "Point",
        "coordinates": [2.8306, 50.4852]
      },
      "population": 337,
      "surface": 415.82,
      "radius": 1.15
    },
    {
      "nom": "Berck",
      "code": "62108",
      "codesPostaux": ["62600"],
      "centre": {
        "type": "Point",
        "coordinates": [1.5809, 50.4147]
      },
      "mairie": {
        "type": "Point",
        "coordinates": [1.5926, 50.4082]
      },
      "population": 12967,
      "surface": 1448.51,
      "radius": 2.15
    },
    {
      "nom": "Bergueneuse",
      "code": "62109",
      "codesPostaux": ["62134"],
      "centre": {
        "type": "Point",
        "coordinates": [2.2498, 50.4676]
      },
      "mairie": {
        "type": "Point",
        "coordinates": [2.2513, 50.4674]
      },
      "population": 215,
      "surface": 280.11,
      "radius": 0.94
    },
    {
      "nom": "Berlencourt-le-Cauroy",
      "code": "62111",
      "codesPostaux": ["62810"],
      "centre": {
        "type": "Point",
        "coordinates": [2.4251, 50.2751]
      },
      "mairie": {
        "type": "Point",
        "coordinates": [2.4235, 50.2794]
      },
      "population": 273,
      "surface": 762.95,
      "radius": 1.56
    },
    {
      "nom": "Berles-au-Bois",
      "code": "62112",
      "codesPostaux": ["62123"],
      "centre": {
        "type": "Point",
        "coordinates": [2.6297, 50.1988]
      },
      "mairie": {
        "type": "Point",
        "coordinates": [2.6275, 50.1991]
      },
      "population": 538,
      "surface": 888.39,
      "radius": 1.68
    },
    {
      "nom": "Berles-Monchel",
      "code": "62113",
      "codesPostaux": ["62690"],
      "centre": {
        "type": "Point",
        "coordinates": [2.5232, 50.3471]
      },
      "mairie": {
        "type": "Point",
        "coordinates": [2.5375, 50.3458]
      },
      "population": 487,
      "surface": 847.95,
      "radius": 1.64
    },
    {
      "nom": "Bermicourt",
      "code": "62114",
      "codesPostaux": ["62130"],
      "centre": {
        "type": "Point",
        "coordinates": [2.2321, 50.4076]
      },
      "mairie": {
        "type": "Point",
        "coordinates": [2.2311, 50.4089]
      },
      "population": 167,
      "surface": 553.53,
      "radius": 1.33
    },
    {
      "nom": "Berneville",
      "code": "62115",
      "codesPostaux": ["62123"],
      "centre": {
        "type": "Point",
        "coordinates": [2.6723, 50.2632]
      },
      "mairie": {
        "type": "Point",
        "coordinates": [2.6709, 50.266]
      },
      "population": 475,
      "surface": 568.2,
      "radius": 1.34
    },
    {
      "nom": "Bernieulles",
      "code": "62116",
      "codesPostaux": ["62170"],
      "centre": {
        "type": "Point",
        "coordinates": [1.773, 50.5554]
      },
      "mairie": {
        "type": "Point",
        "coordinates": [1.7737, 50.5546]
      },
      "population": 165,
      "surface": 584.69,
      "radius": 1.36
    },
    {
      "nom": "Bertincourt",
      "code": "62117",
      "codesPostaux": ["62124"],
      "centre": {
        "type": "Point",
        "coordinates": [2.9794, 50.0894]
      },
      "mairie": {
        "type": "Point",
        "coordinates": [2.9819, 50.0868]
      },
      "population": 918,
      "surface": 751.24,
      "radius": 1.55
    },
    {
      "nom": "Béthonsart",
      "code": "62118",
      "codesPostaux": ["62690"],
      "centre": {
        "type": "Point",
        "coordinates": [2.5428, 50.3818]
      },
      "mairie": {
        "type": "Point",
        "coordinates": [2.5525, 50.3754]
      },
      "population": 150,
      "surface": 423.77,
      "radius": 1.16
    },
    {
      "nom": "Béthune",
      "code": "62119",
      "codesPostaux": ["62400"],
      "centre": {
        "type": "Point",
        "coordinates": [2.6438, 50.5299]
      },
      "mairie": {
        "type": "Point",
        "coordinates": [2.6386, 50.5307]
      },
      "population": 25342,
      "surface": 945.65,
      "radius": 1.73
    },
    {
      "nom": "Beugin",
      "code": "62120",
      "codesPostaux": ["62150"],
      "centre": {
        "type": "Point",
        "coordinates": [2.5077, 50.4415]
      },
      "mairie": {
        "type": "Point",
        "coordinates": [2.5162, 50.4412]
      },
      "population": 465,
      "surface": 503.63,
      "radius": 1.27
    },
    {
      "nom": "Beugnâtre",
      "code": "62121",
      "codesPostaux": ["62450"],
      "centre": {
        "type": "Point",
        "coordinates": [2.8757, 50.1313]
      },
      "mairie": {
        "type": "Point",
        "coordinates": [2.8752, 50.1286]
      },
      "population": 181,
      "surface": 397.44,
      "radius": 1.12
    },
    {
      "nom": "Beugny",
      "code": "62122",
      "codesPostaux": ["62124"],
      "centre": {
        "type": "Point",
        "coordinates": [2.9336, 50.118]
      },
      "mairie": {
        "type": "Point",
        "coordinates": [2.9346, 50.1201]
      },
      "population": 353,
      "surface": 575.54,
      "radius": 1.35
    },
    {
      "nom": "Beussent",
      "code": "62123",
      "codesPostaux": ["62170"],
      "centre": {
        "type": "Point",
        "coordinates": [1.8158, 50.5584]
      },
      "mairie": {
        "type": "Point",
        "coordinates": [1.7946, 50.5455]
      },
      "population": 551,
      "surface": 1598.94,
      "radius": 2.26
    },
    {
      "nom": "Beutin",
      "code": "62124",
      "codesPostaux": ["62170"],
      "centre": {
        "type": "Point",
        "coordinates": [1.7283, 50.497]
      },
      "mairie": {
        "type": "Point",
        "coordinates": [1.7275, 50.4909]
      },
      "population": 434,
      "surface": 296.12,
      "radius": 0.97
    },
    {
      "nom": "Beuvrequen",
      "code": "62125",
      "codesPostaux": ["62250"],
      "centre": {
        "type": "Point",
        "coordinates": [1.6755, 50.7978]
      },
      "mairie": {
        "type": "Point",
        "coordinates": [1.6652, 50.8015]
      },
      "population": 459,
      "surface": 473.43,
      "radius": 1.23
    },
    {
      "nom": "Beuvry",
      "code": "62126",
      "codesPostaux": ["62660"],
      "centre": {
        "type": "Point",
        "coordinates": [2.6913, 50.5347]
      },
      "mairie": {
        "type": "Point",
        "coordinates": [2.6813, 50.5222]
      },
      "population": 9078,
      "surface": 1681.6,
      "radius": 2.31
    },
    {
      "nom": "Bezinghem",
      "code": "62127",
      "codesPostaux": ["62650"],
      "centre": {
        "type": "Point",
        "coordinates": [1.8591, 50.5987]
      },
      "mairie": {
        "type": "Point",
        "coordinates": [1.8255, 50.5944]
      },
      "population": 374,
      "surface": 1323.48,
      "radius": 2.05
    },
    {
      "nom": "Biache-Saint-Vaast",
      "code": "62128",
      "codesPostaux": ["62118"],
      "centre": {
        "type": "Point",
        "coordinates": [2.9418, 50.3114]
      },
      "mairie": {
        "type": "Point",
        "coordinates": [2.944, 50.3118]
      },
      "population": 4519,
      "surface": 929.04,
      "radius": 1.72
    },
    {
      "nom": "Biefvillers-lès-Bapaume",
      "code": "62129",
      "codesPostaux": ["62450"],
      "centre": {
        "type": "Point",
        "coordinates": [2.8245, 50.1199]
      },
      "mairie": {
        "type": "Point",
        "coordinates": [2.8228, 50.1155]
      },
      "population": 94,
      "surface": 408.11,
      "radius": 1.14
    },
    {
      "nom": "Bienvillers-au-Bois",
      "code": "62130",
      "codesPostaux": ["62111"],
      "centre": {
        "type": "Point",
        "coordinates": [2.6081, 50.1667]
      },
      "mairie": {
        "type": "Point",
        "coordinates": [2.6201, 50.1748]
      },
      "population": 665,
      "surface": 738.09,
      "radius": 1.53
    },
    {
      "nom": "Bihucourt",
      "code": "62131",
      "codesPostaux": ["62121"],
      "centre": {
        "type": "Point",
        "coordinates": [2.8, 50.1276]
      },
      "mairie": {
        "type": "Point",
        "coordinates": [2.7999, 50.1268]
      },
      "population": 310,
      "surface": 469.76,
      "radius": 1.22
    },
    {
      "nom": "Billy-Berclau",
      "code": "62132",
      "codesPostaux": ["62138"],
      "centre": {
        "type": "Point",
        "coordinates": [2.8666, 50.5218]
      },
      "mairie": {
        "type": "Point",
        "coordinates": [2.8703, 50.5214]
      },
      "population": 5076,
      "surface": 734.92,
      "radius": 1.53
    },
    {
      "nom": "Billy-Montigny",
      "code": "62133",
      "codesPostaux": ["62420"],
      "centre": {
        "type": "Point",
        "coordinates": [2.9068, 50.4152]
      },
      "mairie": {
        "type": "Point",
        "coordinates": [2.9118, 50.4176]
      },
      "population": 8027,
      "surface": 272.32,
      "radius": 0.93
    },
    {
      "nom": "Bimont",
      "code": "62134",
      "codesPostaux": ["62650"],
      "centre": {
        "type": "Point",
        "coordinates": [1.909, 50.5375]
      },
      "mairie": {
        "type": "Point",
        "coordinates": [1.8978, 50.5418]
      },
      "population": 103,
      "surface": 682.05,
      "radius": 1.47
    },
    {
      "nom": "Blairville",
      "code": "62135",
      "codesPostaux": ["62173"],
      "centre": {
        "type": "Point",
        "coordinates": [2.7143, 50.2192]
      },
      "mairie": {
        "type": "Point",
        "coordinates": [2.7147, 50.2197]
      },
      "population": 306,
      "surface": 459.67,
      "radius": 1.21
    },
    {
      "nom": "Blangerval-Blangermont",
      "code": "62137",
      "codesPostaux": ["62270"],
      "centre": {
        "type": "Point",
        "coordinates": [2.2198, 50.3258]
      },
      "mairie": {
        "type": "Point",
        "coordinates": [2.2227, 50.3265]
      },
      "population": 93,
      "surface": 464.23,
      "radius": 1.22
    },
    {
      "nom": "Blangy-sur-Ternoise",
      "code": "62138",
      "codesPostaux": ["62770"],
      "centre": {
        "type": "Point",
        "coordinates": [2.1767, 50.4252]
      },
      "mairie": {
        "type": "Point",
        "coordinates": [2.1665, 50.4226]
      },
      "population": 700,
      "surface": 1160.08,
      "radius": 1.92
    },
    {
      "nom": "Blendecques",
      "code": "62139",
      "codesPostaux": ["62575"],
      "centre": {
        "type": "Point",
        "coordinates": [2.2816, 50.7183]
      },
      "mairie": {
        "type": "Point",
        "coordinates": [2.2833, 50.7166]
      },
      "population": 4891,
      "surface": 958.6,
      "radius": 1.75
    },
    {
      "nom": "Bléquin",
      "code": "62140",
      "codesPostaux": ["62380"],
      "centre": {
        "type": "Point",
        "coordinates": [1.973, 50.6653]
      },
      "mairie": {
        "type": "Point",
        "coordinates": [1.9875, 50.663]
      },
      "population": 485,
      "surface": 865.59,
      "radius": 1.66
    },
    {
      "nom": "Blessy",
      "code": "62141",
      "codesPostaux": ["62120"],
      "centre": {
        "type": "Point",
        "coordinates": [2.332, 50.6164]
      },
      "mairie": {
        "type": "Point",
        "coordinates": [2.3317, 50.6164]
      },
      "population": 904,
      "surface": 535.75,
      "radius": 1.31
    },
    {
      "nom": "Blingel",
      "code": "62142",
      "codesPostaux": ["62770"],
      "centre": {
        "type": "Point",
        "coordinates": [2.1502, 50.4063]
      },
      "mairie": {
        "type": "Point",
        "coordinates": [2.1473, 50.4087]
      },
      "population": 159,
      "surface": 320.84,
      "radius": 1.01
    },
    {
      "nom": "Boffles",
      "code": "62143",
      "codesPostaux": ["62390"],
      "centre": {
        "type": "Point",
        "coordinates": [2.2011, 50.2561]
      },
      "mairie": {
        "type": "Point",
        "coordinates": [2.2024, 50.2539]
      },
      "population": 47,
      "surface": 345.58,
      "radius": 1.05
    },
    {
      "nom": "Boiry-Becquerelle",
      "code": "62144",
      "codesPostaux": ["62128"],
      "centre": {
        "type": "Point",
        "coordinates": [2.8229, 50.2133]
      },
      "mairie": {
        "type": "Point",
        "coordinates": [2.8158, 50.2133]
      },
      "population": 473,
      "surface": 459.66,
      "radius": 1.21
    },
    {
      "nom": "Boiry-Notre-Dame",
      "code": "62145",
      "codesPostaux": ["62156"],
      "centre": {
        "type": "Point",
        "coordinates": [2.9414, 50.2746]
      },
      "mairie": {
        "type": "Point",
        "coordinates": [2.9434, 50.2735]
      },
      "population": 443,
      "surface": 619.82,
      "radius": 1.4
    },
    {
      "nom": "Boiry-Saint-Martin",
      "code": "62146",
      "codesPostaux": ["62175"],
      "centre": {
        "type": "Point",
        "coordinates": [2.7587, 50.1925]
      },
      "mairie": {
        "type": "Point",
        "coordinates": [2.7588, 50.1994]
      },
      "population": 258,
      "surface": 351.2,
      "radius": 1.06
    },
    {
      "nom": "Boiry-Sainte-Rictrude",
      "code": "62147",
      "codesPostaux": ["62175"],
      "centre": {
        "type": "Point",
        "coordinates": [2.7474, 50.2003]
      },
      "mairie": {
        "type": "Point",
        "coordinates": [2.754, 50.2025]
      },
      "population": 386,
      "surface": 586.72,
      "radius": 1.37
    },
    {
      "nom": "Bois-Bernard",
      "code": "62148",
      "codesPostaux": ["62320"],
      "centre": {
        "type": "Point",
        "coordinates": [2.9141, 50.376]
      },
      "mairie": {
        "type": "Point",
        "coordinates": [2.9117, 50.383]
      },
      "population": 833,
      "surface": 395.75,
      "radius": 1.12
    },
    {
      "nom": "Boisdinghem",
      "code": "62149",
      "codesPostaux": ["62500"],
      "centre": {
        "type": "Point",
        "coordinates": [2.0941, 50.7493]
      },
      "mairie": {
        "type": "Point",
        "coordinates": [2.097, 50.7486]
      },
      "population": 255,
      "surface": 315.58,
      "radius": 1
    },
    {
      "nom": "Boisjean",
      "code": "62150",
      "codesPostaux": ["62170"],
      "centre": {
        "type": "Point",
        "coordinates": [1.7843, 50.4044]
      },
      "mairie": {
        "type": "Point",
        "coordinates": [1.7695, 50.4043]
      },
      "population": 513,
      "surface": 1272.45,
      "radius": 2.01
    },
    {
      "nom": "Boisleux-au-Mont",
      "code": "62151",
      "codesPostaux": ["62175"],
      "centre": {
        "type": "Point",
        "coordinates": [2.7771, 50.2112]
      },
      "mairie": {
        "type": "Point",
        "coordinates": [2.7812, 50.2114]
      },
      "population": 522,
      "surface": 471.89,
      "radius": 1.23
    },
    {
      "nom": "Boisleux-Saint-Marc",
      "code": "62152",
      "codesPostaux": ["62175"],
      "centre": {
        "type": "Point",
        "coordinates": [2.7952, 50.213]
      },
      "mairie": {
        "type": "Point",
        "coordinates": [2.7984, 50.212]
      },
      "population": 256,
      "surface": 339.81,
      "radius": 1.04
    },
    {
      "nom": "Bomy",
      "code": "62153",
      "codesPostaux": ["62960"],
      "centre": {
        "type": "Point",
        "coordinates": [2.2241, 50.571]
      },
      "mairie": {
        "type": "Point",
        "coordinates": [2.2359, 50.5742]
      },
      "population": 628,
      "surface": 1452.79,
      "radius": 2.15
    },
    {
      "nom": "Bonnières",
      "code": "62154",
      "codesPostaux": ["62270"],
      "centre": {
        "type": "Point",
        "coordinates": [2.2774, 50.2372]
      },
      "mairie": {
        "type": "Point",
        "coordinates": [2.2618, 50.2431]
      },
      "population": 667,
      "surface": 2709.27,
      "radius": 2.94
    },
    {
      "nom": "Bonningues-lès-Ardres",
      "code": "62155",
      "codesPostaux": ["62890"],
      "centre": {
        "type": "Point",
        "coordinates": [2.0206, 50.7767]
      },
      "mairie": {
        "type": "Point",
        "coordinates": [2.0116, 50.7908]
      },
      "population": 620,
      "surface": 1067.07,
      "radius": 1.84
    },
    {
      "nom": "Bonningues-lès-Calais",
      "code": "62156",
      "codesPostaux": ["62340"],
      "centre": {
        "type": "Point",
        "coordinates": [1.7681, 50.8947]
      },
      "mairie": {
        "type": "Point",
        "coordinates": [1.7726, 50.8897]
      },
      "population": 598,
      "surface": 855.89,
      "radius": 1.65
    },
    {
      "nom": "Boubers-lès-Hesmond",
      "code": "62157",
      "codesPostaux": ["62990"],
      "centre": {
        "type": "Point",
        "coordinates": [1.9476, 50.48]
      },
      "mairie": {
        "type": "Point",
        "coordinates": [1.9492, 50.4749]
      },
      "population": 70,
      "surface": 174.21,
      "radius": 0.74
    },
    {
      "nom": "Boubers-sur-Canche",
      "code": "62158",
      "codesPostaux": ["62270"],
      "centre": {
        "type": "Point",
        "coordinates": [2.2332, 50.2917]
      },
      "mairie": {
        "type": "Point",
        "coordinates": [2.237, 50.2911]
      },
      "population": 577,
      "surface": 921.89,
      "radius": 1.71
    },
    {
      "nom": "Bouin-Plumoison",
      "code": "62661",
      "codesPostaux": ["62140"],
      "centre": {
        "type": "Point",
        "coordinates": [1.981, 50.3769]
      },
      "mairie": {
        "type": "Point",
        "coordinates": [1.9936, 50.3807]
      },
      "population": 511,
      "surface": 616.2,
      "radius": 1.4
    },
    {
      "nom": "Boulogne-sur-Mer",
      "code": "62160",
      "codesPostaux": ["62200"],
      "centre": {
        "type": "Point",
        "coordinates": [1.6062, 50.7303]
      },
      "mairie": {
        "type": "Point",
        "coordinates": [1.6134, 50.7251]
      },
      "population": 41039,
      "surface": 778.79,
      "radius": 1.57
    },
    {
      "nom": "Bouquehault",
      "code": "62161",
      "codesPostaux": ["62340"],
      "centre": {
        "type": "Point",
        "coordinates": [1.9005, 50.8148]
      },
      "mairie": {
        "type": "Point",
        "coordinates": [1.9062, 50.8285]
      },
      "population": 794,
      "surface": 810.08,
      "radius": 1.61
    },
    {
      "nom": "Bourecq",
      "code": "62162",
      "codesPostaux": ["62190"],
      "centre": {
        "type": "Point",
        "coordinates": [2.4382, 50.5781]
      },
      "mairie": {
        "type": "Point",
        "coordinates": [2.4346, 50.5712]
      },
      "population": 575,
      "surface": 403.39,
      "radius": 1.13
    },
    {
      "nom": "Bouret-sur-Canche",
      "code": "62163",
      "codesPostaux": ["62270"],
      "centre": {
        "type": "Point",
        "coordinates": [2.3239, 50.2659]
      },
      "mairie": {
        "type": "Point",
        "coordinates": [2.3202, 50.2675]
      },
      "population": 245,
      "surface": 499.89,
      "radius": 1.26
    },
    {
      "nom": "Bourlon",
      "code": "62164",
      "codesPostaux": ["62860"],
      "centre": {
        "type": "Point",
        "coordinates": [3.1239, 50.181]
      },
      "mairie": {
        "type": "Point",
        "coordinates": [3.1155, 50.1782]
      },
      "population": 1148,
      "surface": 1220.14,
      "radius": 1.97
    },
    {
      "nom": "Bournonville",
      "code": "62165",
      "codesPostaux": ["62240"],
      "centre": {
        "type": "Point",
        "coordinates": [1.8415, 50.6971]
      },
      "mairie": {
        "type": "Point",
        "coordinates": [1.8511, 50.7037]
      },
      "population": 226,
      "surface": 877.8,
      "radius": 1.67
    },
    {
      "nom": "Bours",
      "code": "62166",
      "codesPostaux": ["62550"],
      "centre": {
        "type": "Point",
        "coordinates": [2.4058, 50.445]
      },
      "mairie": {
        "type": "Point",
        "coordinates": [2.4107, 50.4544]
      },
      "population": 588,
      "surface": 1202.45,
      "radius": 1.96
    },
    {
      "nom": "Boursin",
      "code": "62167",
      "codesPostaux": ["62132"],
      "centre": {
        "type": "Point",
        "coordinates": [1.8207, 50.7714]
      },
      "mairie": {
        "type": "Point",
        "coordinates": [1.8334, 50.7757]
      },
      "population": 242,
      "surface": 765.01,
      "radius": 1.56
    },
    {
      "nom": "Bourthes",
      "code": "62168",
      "codesPostaux": ["62650"],
      "centre": {
        "type": "Point",
        "coordinates": [1.936, 50.6113]
      },
      "mairie": {
        "type": "Point",
        "coordinates": [1.9322, 50.6066]
      },
      "population": 851,
      "surface": 2235.76,
      "radius": 2.67
    },
    {
      "nom": "Bouvelinghem",
      "code": "62169",
      "codesPostaux": ["62380"],
      "centre": {
        "type": "Point",
        "coordinates": [2.0382, 50.7338]
      },
      "mairie": {
        "type": "Point",
        "coordinates": [2.0338, 50.7344]
      },
      "population": 255,
      "surface": 638.83,
      "radius": 1.43
    },
    {
      "nom": "Bouvigny-Boyeffles",
      "code": "62170",
      "codesPostaux": ["62172"],
      "centre": {
        "type": "Point",
        "coordinates": [2.6757, 50.4232]
      },
      "mairie": {
        "type": "Point",
        "coordinates": [2.6705, 50.4216]
      },
      "population": 2385,
      "surface": 912.42,
      "radius": 1.7
    },
    {
      "nom": "Boyaval",
      "code": "62171",
      "codesPostaux": ["62134"],
      "centre": {
        "type": "Point",
        "coordinates": [2.3113, 50.4723]
      },
      "mairie": {
        "type": "Point",
        "coordinates": [2.3032, 50.4746]
      },
      "population": 138,
      "surface": 545.14,
      "radius": 1.32
    },
    {
      "nom": "Boyelles",
      "code": "62172",
      "codesPostaux": ["62128"],
      "centre": {
        "type": "Point",
        "coordinates": [2.8206, 50.1955]
      },
      "mairie": {
        "type": "Point",
        "coordinates": [2.8169, 50.2038]
      },
      "population": 366,
      "surface": 412.08,
      "radius": 1.15
    },
    {
      "nom": "Brebières",
      "code": "62173",
      "codesPostaux": ["62117"],
      "centre": {
        "type": "Point",
        "coordinates": [3.0216, 50.3387]
      },
      "mairie": {
        "type": "Point",
        "coordinates": [3.0224, 50.3374]
      },
      "population": 5210,
      "surface": 1075.52,
      "radius": 1.85
    },
    {
      "nom": "Brêmes",
      "code": "62174",
      "codesPostaux": ["62610"],
      "centre": {
        "type": "Point",
        "coordinates": [1.956, 50.8469]
      },
      "mairie": {
        "type": "Point",
        "coordinates": [1.959, 50.8557]
      },
      "population": 1311,
      "surface": 729.73,
      "radius": 1.52
    },
    {
      "nom": "Brévillers",
      "code": "62175",
      "codesPostaux": ["62140"],
      "centre": {
        "type": "Point",
        "coordinates": [2.0214, 50.3475]
      },
      "mairie": {
        "type": "Point",
        "coordinates": [2.0158, 50.3461]
      },
      "population": 157,
      "surface": 304.93,
      "radius": 0.99
    },
    {
      "nom": "Bréxent-Énocq",
      "code": "62176",
      "codesPostaux": ["62170"],
      "centre": {
        "type": "Point",
        "coordinates": [1.7235, 50.5066]
      },
      "mairie": {
        "type": "Point",
        "coordinates": [1.7294, 50.5103]
      },
      "population": 639,
      "surface": 727.21,
      "radius": 1.52
    },
    {
      "nom": "Brias",
      "code": "62180",
      "codesPostaux": ["62130"],
      "centre": {
        "type": "Point",
        "coordinates": [2.3857, 50.4099]
      },
      "mairie": {
        "type": "Point",
        "coordinates": [2.379, 50.4093]
      },
      "population": 297,
      "surface": 775.44,
      "radius": 1.57
    },
    {
      "nom": "Brimeux",
      "code": "62177",
      "codesPostaux": ["62170"],
      "centre": {
        "type": "Point",
        "coordinates": [1.837, 50.4353]
      },
      "mairie": {
        "type": "Point",
        "coordinates": [1.8385, 50.4424]
      },
      "population": 872,
      "surface": 1067.84,
      "radius": 1.84
    },
    {
      "nom": "Bruay-la-Buissière",
      "code": "62178",
      "codesPostaux": ["62700"],
      "centre": {
        "type": "Point",
        "coordinates": [2.5505, 50.4891]
      },
      "mairie": {
        "type": "Point",
        "coordinates": [2.5458, 50.4823]
      },
      "population": 21997,
      "surface": 1642.51,
      "radius": 2.29
    },
    {
      "nom": "Brunembert",
      "code": "62179",
      "codesPostaux": ["62240"],
      "centre": {
        "type": "Point",
        "coordinates": [1.8856, 50.7165]
      },
      "mairie": {
        "type": "Point",
        "coordinates": [1.8951, 50.7141]
      },
      "population": 394,
      "surface": 619.31,
      "radius": 1.4
    },
    {
      "nom": "Bucquoy",
      "code": "62181",
      "codesPostaux": ["62116"],
      "centre": {
        "type": "Point",
        "coordinates": [2.7003, 50.1496]
      },
      "mairie": {
        "type": "Point",
        "coordinates": [2.7089, 50.1404]
      },
      "population": 1506,
      "surface": 2075.96,
      "radius": 2.57
    },
    {
      "nom": "Buire-au-Bois",
      "code": "62182",
      "codesPostaux": ["62390"],
      "centre": {
        "type": "Point",
        "coordinates": [2.1568, 50.2653]
      },
      "mairie": {
        "type": "Point",
        "coordinates": [2.1513, 50.2635]
      },
      "population": 238,
      "surface": 1157.06,
      "radius": 1.92
    },
    {
      "nom": "Buire-le-Sec",
      "code": "62183",
      "codesPostaux": ["62870"],
      "centre": {
        "type": "Point",
        "coordinates": [1.8203, 50.3927]
      },
      "mairie": {
        "type": "Point",
        "coordinates": [1.8315, 50.3822]
      },
      "population": 752,
      "surface": 1340.61,
      "radius": 2.07
    },
    {
      "nom": "Buissy",
      "code": "62184",
      "codesPostaux": ["62860"],
      "centre": {
        "type": "Point",
        "coordinates": [3.0291, 50.2026]
      },
      "mairie": {
        "type": "Point",
        "coordinates": [3.0427, 50.2065]
      },
      "population": 287,
      "surface": 688.15,
      "radius": 1.48
    },
    {
      "nom": "Bullecourt",
      "code": "62185",
      "codesPostaux": ["62128"],
      "centre": {
        "type": "Point",
        "coordinates": [2.927, 50.1921]
      },
      "mairie": {
        "type": "Point",
        "coordinates": [2.9292, 50.193]
      },
      "population": 227,
      "surface": 637.14,
      "radius": 1.42
    },
    {
      "nom": "Bully-les-Mines",
      "code": "62186",
      "codesPostaux": ["62160"],
      "centre": {
        "type": "Point",
        "coordinates": [2.7209, 50.4466]
      },
      "mairie": {
        "type": "Point",
        "coordinates": [2.7168, 50.4436]
      },
      "population": 12172,
      "surface": 781.33,
      "radius": 1.58
    },
    {
      "nom": "Buneville",
      "code": "62187",
      "codesPostaux": ["62130"],
      "centre": {
        "type": "Point",
        "coordinates": [2.3503, 50.324]
      },
      "mairie": {
        "type": "Point",
        "coordinates": [2.3577, 50.3245]
      },
      "population": 177,
      "surface": 380.72,
      "radius": 1.1
    },
    {
      "nom": "Burbure",
      "code": "62188",
      "codesPostaux": ["62151"],
      "centre": {
        "type": "Point",
        "coordinates": [2.4626, 50.5332]
      },
      "mairie": {
        "type": "Point",
        "coordinates": [2.4646, 50.5387]
      },
      "population": 2827,
      "surface": 552.46,
      "radius": 1.33
    },
    {
      "nom": "Bus",
      "code": "62189",
      "codesPostaux": ["62124"],
      "centre": {
        "type": "Point",
        "coordinates": [2.9666, 50.0628]
      },
      "mairie": {
        "type": "Point",
        "coordinates": [2.9657, 50.0663]
      },
      "population": 134,
      "surface": 324.3,
      "radius": 1.02
    },
    {
      "nom": "Busnes",
      "code": "62190",
      "codesPostaux": ["62350"],
      "centre": {
        "type": "Point",
        "coordinates": [2.5119, 50.5897]
      },
      "mairie": {
        "type": "Point",
        "coordinates": [2.5183, 50.5874]
      },
      "population": 1242,
      "surface": 952,
      "radius": 1.74
    },
    {
      "nom": "Caffiers",
      "code": "62191",
      "codesPostaux": ["62132"],
      "centre": {
        "type": "Point",
        "coordinates": [1.8117, 50.8453]
      },
      "mairie": {
        "type": "Point",
        "coordinates": [1.8117, 50.8393]
      },
      "population": 726,
      "surface": 480.29,
      "radius": 1.24
    },
    {
      "nom": "Cagnicourt",
      "code": "62192",
      "codesPostaux": ["62182"],
      "centre": {
        "type": "Point",
        "coordinates": [2.9975, 50.2087]
      },
      "mairie": {
        "type": "Point",
        "coordinates": [2.9993, 50.2117]
      },
      "population": 422,
      "surface": 952.64,
      "radius": 1.74
    },
    {
      "nom": "Calais",
      "code": "62193",
      "codesPostaux": ["62100"],
      "centre": {
        "type": "Point",
        "coordinates": [1.869, 50.9523]
      },
      "mairie": {
        "type": "Point",
        "coordinates": [1.8546, 50.9526]
      },
      "population": 67585,
      "surface": 3679.96,
      "radius": 3.42
    },
    {
      "nom": "Calonne-Ricouart",
      "code": "62194",
      "codesPostaux": ["62470"],
      "centre": {
        "type": "Point",
        "coordinates": [2.4861, 50.4888]
      },
      "mairie": {
        "type": "Point",
        "coordinates": [2.482, 50.4871]
      },
      "population": 5416,
      "surface": 461.36,
      "radius": 1.21
    },
    {
      "nom": "Calonne-sur-la-Lys",
      "code": "62195",
      "codesPostaux": ["62350"],
      "centre": {
        "type": "Point",
        "coordinates": [2.6059, 50.6157]
      },
      "mairie": {
        "type": "Point",
        "coordinates": [2.618, 50.6216]
      },
      "population": 1578,
      "surface": 1090.98,
      "radius": 1.86
    },
    {
      "nom": "Camblain-Châtelain",
      "code": "62197",
      "codesPostaux": ["62470"],
      "centre": {
        "type": "Point",
        "coordinates": [2.4515, 50.4771]
      },
      "mairie": {
        "type": "Point",
        "coordinates": [2.4641, 50.4839]
      },
      "population": 1766,
      "surface": 991.11,
      "radius": 1.78
    },
    {
      "nom": "Camblain-l'Abbé",
      "code": "62199",
      "codesPostaux": ["62690"],
      "centre": {
        "type": "Point",
        "coordinates": [2.6369, 50.3759]
      },
      "mairie": {
        "type": "Point",
        "coordinates": [2.6329, 50.3712]
      },
      "population": 681,
      "surface": 561.85,
      "radius": 1.34
    },
    {
      "nom": "Cambligneul",
      "code": "62198",
      "codesPostaux": ["62690"],
      "centre": {
        "type": "Point",
        "coordinates": [2.6108, 50.3788]
      },
      "mairie": {
        "type": "Point",
        "coordinates": [2.6157, 50.38]
      },
      "population": 347,
      "surface": 473.29,
      "radius": 1.23
    },
    {
      "nom": "Cambrin",
      "code": "62200",
      "codesPostaux": ["62149"],
      "centre": {
        "type": "Point",
        "coordinates": [2.738, 50.5104]
      },
      "mairie": {
        "type": "Point",
        "coordinates": [2.7418, 50.5115]
      },
      "population": 1250,
      "surface": 178.21,
      "radius": 0.75
    },
    {
      "nom": "Camiers",
      "code": "62201",
      "codesPostaux": ["62176"],
      "centre": {
        "type": "Point",
        "coordinates": [1.6129, 50.5606]
      },
      "mairie": {
        "type": "Point",
        "coordinates": [1.613, 50.5689]
      },
      "population": 2633,
      "surface": 1605.56,
      "radius": 2.26
    },
    {
      "nom": "Campagne-lès-Boulonnais",
      "code": "62202",
      "codesPostaux": ["62650"],
      "centre": {
        "type": "Point",
        "coordinates": [1.9974, 50.6202]
      },
      "mairie": {
        "type": "Point",
        "coordinates": [1.997, 50.611]
      },
      "population": 675,
      "surface": 1331.76,
      "radius": 2.06
    },
    {
      "nom": "Campagne-lès-Guines",
      "code": "62203",
      "codesPostaux": ["62340"],
      "centre": {
        "type": "Point",
        "coordinates": [1.8997, 50.8371]
      },
      "mairie": {
        "type": "Point",
        "coordinates": [1.9032, 50.8408]
      },
      "population": 414,
      "surface": 572.42,
      "radius": 1.35
    },
    {
      "nom": "Campagne-lès-Hesdin",
      "code": "62204",
      "codesPostaux": ["62870"],
      "centre": {
        "type": "Point",
        "coordinates": [1.8601, 50.4009]
      },
      "mairie": {
        "type": "Point",
        "coordinates": [1.8769, 50.3976]
      },
      "population": 1944,
      "surface": 1567.22,
      "radius": 2.23
    },
    {
      "nom": "Campagne-lès-Wardrecques",
      "code": "62205",
      "codesPostaux": ["62120"],
      "centre": {
        "type": "Point",
        "coordinates": [2.3339, 50.7127]
      },
      "mairie": {
        "type": "Point",
        "coordinates": [2.3327, 50.7171]
      },
      "population": 1300,
      "surface": 465.73,
      "radius": 1.22
    },
    {
      "nom": "Campigneulles-les-Grandes",
      "code": "62206",
      "codesPostaux": ["62170"],
      "centre": {
        "type": "Point",
        "coordinates": [1.7069, 50.4323]
      },
      "mairie": {
        "type": "Point",
        "coordinates": [1.7161, 50.4344]
      },
      "population": 289,
      "surface": 536.31,
      "radius": 1.31
    },
    {
      "nom": "Campigneulles-les-Petites",
      "code": "62207",
      "codesPostaux": ["62170"],
      "centre": {
        "type": "Point",
        "coordinates": [1.7353, 50.4399]
      },
      "mairie": {
        "type": "Point",
        "coordinates": [1.7342, 50.4445]
      },
      "population": 529,
      "surface": 620.66,
      "radius": 1.41
    },
    {
      "nom": "Canettemont",
      "code": "62208",
      "codesPostaux": ["62270"],
      "centre": {
        "type": "Point",
        "coordinates": [2.363, 50.2792]
      },
      "mairie": {
        "type": "Point",
        "coordinates": [2.3649, 50.2791]
      },
      "population": 68,
      "surface": 177.48,
      "radius": 0.75
    },
    {
      "nom": "Canlers",
      "code": "62209",
      "codesPostaux": ["62310"],
      "centre": {
        "type": "Point",
        "coordinates": [2.1462, 50.4861]
      },
      "mairie": {
        "type": "Point",
        "coordinates": [2.1469, 50.4823]
      },
      "population": 163,
      "surface": 362.45,
      "radius": 1.07
    },
    {
      "nom": "Capelle-Fermont",
      "code": "62211",
      "codesPostaux": ["62690"],
      "centre": {
        "type": "Point",
        "coordinates": [2.6182, 50.3457]
      },
      "mairie": {
        "type": "Point",
        "coordinates": [2.6128, 50.3537]
      },
      "population": 221,
      "surface": 297.96,
      "radius": 0.97
    },
    {
      "nom": "Capelle-lès-Hesdin",
      "code": "62212",
      "codesPostaux": ["62140"],
      "centre": {
        "type": "Point",
        "coordinates": [1.99, 50.3453]
      },
      "mairie": {
        "type": "Point",
        "coordinates": [1.9999, 50.3421]
      },
      "population": 491,
      "surface": 560.56,
      "radius": 1.34
    },
    {
      "nom": "Carency",
      "code": "62213",
      "codesPostaux": ["62144"],
      "centre": {
        "type": "Point",
        "coordinates": [2.6959, 50.3809]
      },
      "mairie": {
        "type": "Point",
        "coordinates": [2.7068, 50.3797]
      },
      "population": 820,
      "surface": 851.75,
      "radius": 1.65
    },
    {
      "nom": "Carly",
      "code": "62214",
      "codesPostaux": ["62830"],
      "centre": {
        "type": "Point",
        "coordinates": [1.7116, 50.6577]
      },
      "mairie": {
        "type": "Point",
        "coordinates": [1.7023, 50.6524]
      },
      "population": 633,
      "surface": 632.01,
      "radius": 1.42
    },
    {
      "nom": "Carvin",
      "code": "62215",
      "codesPostaux": ["62220"],
      "centre": {
        "type": "Point",
        "coordinates": [2.9516, 50.4903]
      },
      "mairie": {
        "type": "Point",
        "coordinates": [2.9582, 50.4914]
      },
      "population": 17966,
      "surface": 2095.15,
      "radius": 2.58
    },
    {
      "nom": "Cauchy-à-la-Tour",
      "code": "62217",
      "codesPostaux": ["62260"],
      "centre": {
        "type": "Point",
        "coordinates": [2.4505, 50.5057]
      },
      "mairie": {
        "type": "Point",
        "coordinates": [2.4472, 50.5021]
      },
      "population": 2645,
      "surface": 313.52,
      "radius": 1
    },
    {
      "nom": "Caucourt",
      "code": "62218",
      "codesPostaux": ["62150"],
      "centre": {
        "type": "Point",
        "coordinates": [2.5712, 50.396]
      },
      "mairie": {
        "type": "Point",
        "coordinates": [2.5716, 50.3994]
      },
      "population": 332,
      "surface": 554.54,
      "radius": 1.33
    },
    {
      "nom": "Caumont",
      "code": "62219",
      "codesPostaux": ["62140"],
      "centre": {
        "type": "Point",
        "coordinates": [2.0305, 50.2939]
      },
      "mairie": {
        "type": "Point",
        "coordinates": [2.0309, 50.2891]
      },
      "population": 153,
      "surface": 954.23,
      "radius": 1.74
    },
    {
      "nom": "Cavron-Saint-Martin",
      "code": "62220",
      "codesPostaux": ["62140"],
      "centre": {
        "type": "Point",
        "coordinates": [2.0145, 50.4235]
      },
      "mairie": {
        "type": "Point",
        "coordinates": [2, 50.4181]
      },
      "population": 432,
      "surface": 1185.79,
      "radius": 1.94
    },
    {
      "nom": "Chelers",
      "code": "62221",
      "codesPostaux": ["62127"],
      "centre": {
        "type": "Point",
        "coordinates": [2.4911, 50.38]
      },
      "mairie": {
        "type": "Point",
        "coordinates": [2.4841, 50.376]
      },
      "population": 244,
      "surface": 827.05,
      "radius": 1.62
    },
    {
      "nom": "Chériennes",
      "code": "62222",
      "codesPostaux": ["62140"],
      "centre": {
        "type": "Point",
        "coordinates": [2.0347, 50.3117]
      },
      "mairie": {
        "type": "Point",
        "coordinates": [2.0379, 50.313]
      },
      "population": 169,
      "surface": 475.06,
      "radius": 1.23
    },
    {
      "nom": "Chérisy",
      "code": "62223",
      "codesPostaux": ["62128"],
      "centre": {
        "type": "Point",
        "coordinates": [2.9121, 50.2346]
      },
      "mairie": {
        "type": "Point",
        "coordinates": [2.9138, 50.2354]
      },
      "population": 291,
      "surface": 621.86,
      "radius": 1.41
    },
    {
      "nom": "Chocques",
      "code": "62224",
      "codesPostaux": ["62920"],
      "centre": {
        "type": "Point",
        "coordinates": [2.5616, 50.54]
      },
      "mairie": {
        "type": "Point",
        "coordinates": [2.5716, 50.5393]
      },
      "population": 2808,
      "surface": 793.64,
      "radius": 1.59
    },
    {
      "nom": "Clairmarais",
      "code": "62225",
      "codesPostaux": ["62500"],
      "centre": {
        "type": "Point",
        "coordinates": [2.3453, 50.7703]
      },
      "mairie": {
        "type": "Point",
        "coordinates": [2.3038, 50.7695]
      },
      "population": 579,
      "surface": 1804.89,
      "radius": 2.4
    },
    {
      "nom": "Clenleu",
      "code": "62227",
      "codesPostaux": ["62650"],
      "centre": {
        "type": "Point",
        "coordinates": [1.8851, 50.5314]
      },
      "mairie": {
        "type": "Point",
        "coordinates": [1.8746, 50.5235]
      },
      "population": 185,
      "surface": 730.01,
      "radius": 1.52
    },
    {
      "nom": "Clerques",
      "code": "62228",
      "codesPostaux": ["62890"],
      "centre": {
        "type": "Point",
        "coordinates": [1.9858, 50.7909]
      },
      "mairie": {
        "type": "Point",
        "coordinates": [1.9936, 50.7928]
      },
      "population": 314,
      "surface": 640.62,
      "radius": 1.43
    },
    {
      "nom": "Cléty",
      "code": "62229",
      "codesPostaux": ["62380"],
      "centre": {
        "type": "Point",
        "coordinates": [2.1791, 50.6536]
      },
      "mairie": {
        "type": "Point",
        "coordinates": [2.1854, 50.6541]
      },
      "population": 809,
      "surface": 617.99,
      "radius": 1.4
    },
    {
      "nom": "Colembert",
      "code": "62230",
      "codesPostaux": ["62142"],
      "centre": {
        "type": "Point",
        "coordinates": [1.8231, 50.748]
      },
      "mairie": {
        "type": "Point",
        "coordinates": [1.8398, 50.7476]
      },
      "population": 907,
      "surface": 999.51,
      "radius": 1.78
    },
    {
      "nom": "Colline-Beaumont",
      "code": "62231",
      "codesPostaux": ["62180"],
      "centre": {
        "type": "Point",
        "coordinates": [1.6725, 50.3426]
      },
      "mairie": {
        "type": "Point",
        "coordinates": [1.6807, 50.3398]
      },
      "population": 129,
      "surface": 465.32,
      "radius": 1.22
    },
    {
      "nom": "Conchil-le-Temple",
      "code": "62233",
      "codesPostaux": ["62180"],
      "centre": {
        "type": "Point",
        "coordinates": [1.6753, 50.3685]
      },
      "mairie": {
        "type": "Point",
        "coordinates": [1.6645, 50.3665]
      },
      "population": 1087,
      "surface": 1642.23,
      "radius": 2.29
    },
    {
      "nom": "Conchy-sur-Canche",
      "code": "62234",
      "codesPostaux": ["62270"],
      "centre": {
        "type": "Point",
        "coordinates": [2.1898, 50.2951]
      },
      "mairie": {
        "type": "Point",
        "coordinates": [2.1984, 50.3019]
      },
      "population": 222,
      "surface": 984.52,
      "radius": 1.77
    },
    {
      "nom": "Condette",
      "code": "62235",
      "codesPostaux": ["62360"],
      "centre": {
        "type": "Point",
        "coordinates": [1.6454, 50.6517]
      },
      "mairie": {
        "type": "Point",
        "coordinates": [1.6335, 50.6544]
      },
      "population": 2456,
      "surface": 1644.09,
      "radius": 2.29
    },
    {
      "nom": "Contes",
      "code": "62236",
      "codesPostaux": ["62990"],
      "centre": {
        "type": "Point",
        "coordinates": [1.9616, 50.4184]
      },
      "mairie": {
        "type": "Point",
        "coordinates": [1.9648, 50.4074]
      },
      "population": 349,
      "surface": 716.67,
      "radius": 1.51
    },
    {
      "nom": "Conteville-en-Ternois",
      "code": "62238",
      "codesPostaux": ["62130"],
      "centre": {
        "type": "Point",
        "coordinates": [2.3273, 50.4323]
      },
      "mairie": {
        "type": "Point",
        "coordinates": [2.3273, 50.4351]
      },
      "population": 81,
      "surface": 233.02,
      "radius": 0.86
    },
    {
      "nom": "Conteville-lès-Boulogne",
      "code": "62237",
      "codesPostaux": ["62126"],
      "centre": {
        "type": "Point",
        "coordinates": [1.7277, 50.744]
      },
      "mairie": {
        "type": "Point",
        "coordinates": [1.7332, 50.7445]
      },
      "population": 531,
      "surface": 212.1,
      "radius": 0.82
    },
    {
      "nom": "Coquelles",
      "code": "62239",
      "codesPostaux": ["62231"],
      "centre": {
        "type": "Point",
        "coordinates": [1.8226, 50.9279]
      },
      "mairie": {
        "type": "Point",
        "coordinates": [1.7998, 50.9365]
      },
      "population": 2625,
      "surface": 877.15,
      "radius": 1.67
    },
    {
      "nom": "Corbehem",
      "code": "62240",
      "codesPostaux": ["62112"],
      "centre": {
        "type": "Point",
        "coordinates": [3.0481, 50.3356]
      },
      "mairie": {
        "type": "Point",
        "coordinates": [3.0493, 50.3356]
      },
      "population": 2268,
      "surface": 260.3,
      "radius": 0.91
    },
    {
      "nom": "Cormont",
      "code": "62241",
      "codesPostaux": ["62630"],
      "centre": {
        "type": "Point",
        "coordinates": [1.7433, 50.5632]
      },
      "mairie": {
        "type": "Point",
        "coordinates": [1.7358, 50.5602]
      },
      "population": 309,
      "surface": 980.18,
      "radius": 1.77
    },
    {
      "nom": "Couin",
      "code": "62242",
      "codesPostaux": ["62760"],
      "centre": {
        "type": "Point",
        "coordinates": [2.5334, 50.1309]
      },
      "mairie": {
        "type": "Point",
        "coordinates": [2.5313, 50.1345]
      },
      "population": 79,
      "surface": 579.38,
      "radius": 1.36
    },
    {
      "nom": "Coullemont",
      "code": "62243",
      "codesPostaux": ["62158"],
      "centre": {
        "type": "Point",
        "coordinates": [2.4787, 50.2207]
      },
      "mairie": {
        "type": "Point",
        "coordinates": [2.4711, 50.2145]
      },
      "population": 116,
      "surface": 406.15,
      "radius": 1.14
    },
    {
      "nom": "Coulogne",
      "code": "62244",
      "codesPostaux": ["62137"],
      "centre": {
        "type": "Point",
        "coordinates": [1.8906, 50.9127]
      },
      "mairie": {
        "type": "Point",
        "coordinates": [1.8882, 50.925]
      },
      "population": 5403,
      "surface": 917.6,
      "radius": 1.71
    },
    {
      "nom": "Coulomby",
      "code": "62245",
      "codesPostaux": ["62380"],
      "centre": {
        "type": "Point",
        "coordinates": [1.9969, 50.7111]
      },
      "mairie": {
        "type": "Point",
        "coordinates": [2.0112, 50.7068]
      },
      "population": 771,
      "surface": 1023,
      "radius": 1.8
    },
    {
      "nom": "Coupelle-Neuve",
      "code": "62246",
      "codesPostaux": ["62310"],
      "centre": {
        "type": "Point",
        "coordinates": [2.1058, 50.5001]
      },
      "mairie": {
        "type": "Point",
        "coordinates": [2.1215, 50.5001]
      },
      "population": 146,
      "surface": 455.36,
      "radius": 1.2
    },
    {
      "nom": "Coupelle-Vieille",
      "code": "62247",
      "codesPostaux": ["62310"],
      "centre": {
        "type": "Point",
        "coordinates": [2.0785, 50.535]
      },
      "mairie": {
        "type": "Point",
        "coordinates": [2.0999, 50.5243]
      },
      "population": 567,
      "surface": 1474.8,
      "radius": 2.17
    },
    {
      "nom": "Courcelles-le-Comte",
      "code": "62248",
      "codesPostaux": ["62121"],
      "centre": {
        "type": "Point",
        "coordinates": [2.779, 50.1577]
      },
      "mairie": {
        "type": "Point",
        "coordinates": [2.7741, 50.1636]
      },
      "population": 479,
      "surface": 793.56,
      "radius": 1.59
    },
    {
      "nom": "Courcelles-lès-Lens",
      "code": "62249",
      "codesPostaux": ["62970"],
      "centre": {
        "type": "Point",
        "coordinates": [3.0151, 50.4149]
      },
      "mairie": {
        "type": "Point",
        "coordinates": [3.0187, 50.4182]
      },
      "population": 8015,
      "surface": 559.54,
      "radius": 1.33
    },
    {
      "nom": "Courrières",
      "code": "62250",
      "codesPostaux": ["62710"],
      "centre": {
        "type": "Point",
        "coordinates": [2.9442, 50.4538]
      },
      "mairie": {
        "type": "Point",
        "coordinates": [2.9463, 50.4584]
      },
      "population": 10160,
      "surface": 872.01,
      "radius": 1.67
    },
    {
      "nom": "Courset",
      "code": "62251",
      "codesPostaux": ["62240"],
      "centre": {
        "type": "Point",
        "coordinates": [1.8477, 50.6449]
      },
      "mairie": {
        "type": "Point",
        "coordinates": [1.8428, 50.6466]
      },
      "population": 509,
      "surface": 1022.55,
      "radius": 1.8
    },
    {
      "nom": "Couturelle",
      "code": "62253",
      "codesPostaux": ["62158"],
      "centre": {
        "type": "Point",
        "coordinates": [2.5, 50.2069]
      },
      "mairie": {
        "type": "Point",
        "coordinates": [2.4993, 50.2074]
      },
      "population": 76,
      "surface": 212.79,
      "radius": 0.82
    },
    {
      "nom": "Coyecques",
      "code": "62254",
      "codesPostaux": ["62560"],
      "centre": {
        "type": "Point",
        "coordinates": [2.183, 50.601]
      },
      "mairie": {
        "type": "Point",
        "coordinates": [2.1842, 50.6043]
      },
      "population": 598,
      "surface": 1385.11,
      "radius": 2.1
    },
    {
      "nom": "Crémarest",
      "code": "62255",
      "codesPostaux": ["62240"],
      "centre": {
        "type": "Point",
        "coordinates": [1.7868, 50.7]
      },
      "mairie": {
        "type": "Point",
        "coordinates": [1.7863, 50.6994]
      },
      "population": 802,
      "surface": 1180.84,
      "radius": 1.94
    },
    {
      "nom": "Crépy",
      "code": "62256",
      "codesPostaux": ["62310"],
      "centre": {
        "type": "Point",
        "coordinates": [2.2036, 50.4731]
      },
      "mairie": {
        "type": "Point",
        "coordinates": [2.1998, 50.4722]
      },
      "population": 158,
      "surface": 692.47,
      "radius": 1.48
    },
    {
      "nom": "Créquy",
      "code": "62257",
      "codesPostaux": ["62310"],
      "centre": {
        "type": "Point",
        "coordinates": [2.0379, 50.5035]
      },
      "mairie": {
        "type": "Point",
        "coordinates": [2.0454, 50.4936]
      },
      "population": 463,
      "surface": 2043.28,
      "radius": 2.55
    },
    {
      "nom": "Croisette",
      "code": "62258",
      "codesPostaux": ["62130"],
      "centre": {
        "type": "Point",
        "coordinates": [2.2627, 50.3499]
      },
      "mairie": {
        "type": "Point",
        "coordinates": [2.2603, 50.3528]
      },
      "population": 300,
      "surface": 757.86,
      "radius": 1.55
    },
    {
      "nom": "Croisilles",
      "code": "62259",
      "codesPostaux": ["62128"],
      "centre": {
        "type": "Point",
        "coordinates": [2.8809, 50.1961]
      },
      "mairie": {
        "type": "Point",
        "coordinates": [2.8784, 50.1999]
      },
      "population": 1929,
      "surface": 1141.53,
      "radius": 1.91
    },
    {
      "nom": "Croix-en-Ternois",
      "code": "62260",
      "codesPostaux": ["62130"],
      "centre": {
        "type": "Point",
        "coordinates": [2.2687, 50.3845]
      },
      "mairie": {
        "type": "Point",
        "coordinates": [2.2792, 50.3827]
      },
      "population": 332,
      "surface": 661.04,
      "radius": 1.45
    },
    {
      "nom": "Cucq",
      "code": "62261",
      "codesPostaux": ["62780"],
      "centre": {
        "type": "Point",
        "coordinates": [1.6116, 50.4907]
      },
      "mairie": {
        "type": "Point",
        "coordinates": [1.6244, 50.487]
      },
      "population": 5165,
      "surface": 1010.12,
      "radius": 1.79
    },
    {
      "nom": "Cuinchy",
      "code": "62262",
      "codesPostaux": ["62149"],
      "centre": {
        "type": "Point",
        "coordinates": [2.7455, 50.5202]
      },
      "mairie": {
        "type": "Point",
        "coordinates": [2.7467, 50.5217]
      },
      "population": 1784,
      "surface": 416.69,
      "radius": 1.15
    },
    {
      "nom": "Dainville",
      "code": "62263",
      "codesPostaux": ["62000"],
      "centre": {
        "type": "Point",
        "coordinates": [2.7129, 50.2765]
      },
      "mairie": {
        "type": "Point",
        "coordinates": [2.7228, 50.2806]
      },
      "population": 5718,
      "surface": 1123.13,
      "radius": 1.89
    },
    {
      "nom": "Dannes",
      "code": "62264",
      "codesPostaux": ["62187"],
      "centre": {
        "type": "Point",
        "coordinates": [1.6101, 50.5939]
      },
      "mairie": {
        "type": "Point",
        "coordinates": [1.6145, 50.5898]
      },
      "population": 1317,
      "surface": 1051.76,
      "radius": 1.83
    },
    {
      "nom": "Delettes",
      "code": "62265",
      "codesPostaux": ["62129"],
      "centre": {
        "type": "Point",
        "coordinates": [2.2188, 50.6196]
      },
      "mairie": {
        "type": "Point",
        "coordinates": [2.2077, 50.6207]
      },
      "population": 1146,
      "surface": 1472.29,
      "radius": 2.16
    },
    {
      "nom": "Denier",
      "code": "62266",
      "codesPostaux": ["62810"],
      "centre": {
        "type": "Point",
        "coordinates": [2.4458, 50.2927]
      },
      "mairie": {
        "type": "Point",
        "coordinates": [2.4433, 50.2874]
      },
      "population": 93,
      "surface": 310.06,
      "radius": 0.99
    },
    {
      "nom": "Dennebrœucq",
      "code": "62267",
      "codesPostaux": ["62560"],
      "centre": {
        "type": "Point",
        "coordinates": [2.1564, 50.5825]
      },
      "mairie": {
        "type": "Point",
        "coordinates": [2.153, 50.5748]
      },
      "population": 394,
      "surface": 372.25,
      "radius": 1.09
    },
    {
      "nom": "Desvres",
      "code": "62268",
      "codesPostaux": ["62240"],
      "centre": {
        "type": "Point",
        "coordinates": [1.8323, 50.6765]
      },
      "mairie": {
        "type": "Point",
        "coordinates": [1.8341, 50.668]
      },
      "population": 4827,
      "surface": 941.25,
      "radius": 1.73
    },
    {
      "nom": "Diéval",
      "code": "62269",
      "codesPostaux": ["62460"],
      "centre": {
        "type": "Point",
        "coordinates": [2.4524, 50.4387]
      },
      "mairie": {
        "type": "Point",
        "coordinates": [2.4481, 50.4349]
      },
      "population": 715,
      "surface": 1207.17,
      "radius": 1.96
    },
    {
      "nom": "Divion",
      "code": "62270",
      "codesPostaux": ["62460"],
      "centre": {
        "type": "Point",
        "coordinates": [2.5083, 50.4696]
      },
      "mairie": {
        "type": "Point",
        "coordinates": [2.5041, 50.4724]
      },
      "population": 6830,
      "surface": 1104.41,
      "radius": 1.87
    },
    {
      "nom": "Dohem",
      "code": "62271",
      "codesPostaux": ["62380"],
      "centre": {
        "type": "Point",
        "coordinates": [2.167, 50.6277]
      },
      "mairie": {
        "type": "Point",
        "coordinates": [2.1866, 50.6386]
      },
      "population": 830,
      "surface": 918.79,
      "radius": 1.71
    },
    {
      "nom": "Douchy-lès-Ayette",
      "code": "62272",
      "codesPostaux": ["62116"],
      "centre": {
        "type": "Point",
        "coordinates": [2.7067, 50.1745]
      },
      "mairie": {
        "type": "Point",
        "coordinates": [2.7171, 50.1765]
      },
      "population": 295,
      "surface": 553.33,
      "radius": 1.33
    },
    {
      "nom": "Doudeauville",
      "code": "62273",
      "codesPostaux": ["62830"],
      "centre": {
        "type": "Point",
        "coordinates": [1.8384, 50.6198]
      },
      "mairie": {
        "type": "Point",
        "coordinates": [1.8307, 50.6094]
      },
      "population": 605,
      "surface": 1381.51,
      "radius": 2.1
    },
    {
      "nom": "Dourges",
      "code": "62274",
      "codesPostaux": ["62119"],
      "centre": {
        "type": "Point",
        "coordinates": [2.9851, 50.4378]
      },
      "mairie": {
        "type": "Point",
        "coordinates": [2.9842, 50.4343]
      },
      "population": 6068,
      "surface": 1044.75,
      "radius": 1.82
    },
    {
      "nom": "Douriez",
      "code": "62275",
      "codesPostaux": ["62870"],
      "centre": {
        "type": "Point",
        "coordinates": [1.8806, 50.3372]
      },
      "mairie": {
        "type": "Point",
        "coordinates": [1.8772, 50.3335]
      },
      "population": 291,
      "surface": 880.38,
      "radius": 1.67
    },
    {
      "nom": "Douvrin",
      "code": "62276",
      "codesPostaux": ["62138"],
      "centre": {
        "type": "Point",
        "coordinates": [2.8321, 50.5103]
      },
      "mairie": {
        "type": "Point",
        "coordinates": [2.8301, 50.5085]
      },
      "population": 5799,
      "surface": 959.8,
      "radius": 1.75
    },
    {
      "nom": "Drocourt",
      "code": "62277",
      "codesPostaux": ["62320"],
      "centre": {
        "type": "Point",
        "coordinates": [2.9328, 50.3901]
      },
      "mairie": {
        "type": "Point",
        "coordinates": [2.9247, 50.3923]
      },
      "population": 2952,
      "surface": 342.7,
      "radius": 1.04
    },
    {
      "nom": "Drouvin-le-Marais",
      "code": "62278",
      "codesPostaux": ["62131"],
      "centre": {
        "type": "Point",
        "coordinates": [2.6335, 50.49]
      },
      "mairie": {
        "type": "Point",
        "coordinates": [2.6279, 50.4938]
      },
      "population": 610,
      "surface": 211.44,
      "radius": 0.82
    },
    {
      "nom": "Duisans",
      "code": "62279",
      "codesPostaux": ["62161"],
      "centre": {
        "type": "Point",
        "coordinates": [2.6981, 50.3008]
      },
      "mairie": {
        "type": "Point",
        "coordinates": [2.688, 50.3059]
      },
      "population": 1393,
      "surface": 1074.86,
      "radius": 1.85
    },
    {
      "nom": "Dury",
      "code": "62280",
      "codesPostaux": ["62156"],
      "centre": {
        "type": "Point",
        "coordinates": [3.0026, 50.2498]
      },
      "mairie": {
        "type": "Point",
        "coordinates": [3.0059, 50.2483]
      },
      "population": 306,
      "surface": 536.54,
      "radius": 1.31
    },
    {
      "nom": "Echinghen",
      "code": "62281",
      "codesPostaux": ["62360"],
      "centre": {
        "type": "Point",
        "coordinates": [1.6554, 50.7014]
      },
      "mairie": {
        "type": "Point",
        "coordinates": [1.6484, 50.7033]
      },
      "population": 377,
      "surface": 588.14,
      "radius": 1.37
    },
    {
      "nom": "Éclimeux",
      "code": "62282",
      "codesPostaux": ["62770"],
      "centre": {
        "type": "Point",
        "coordinates": [2.1827, 50.3953]
      },
      "mairie": {
        "type": "Point",
        "coordinates": [2.1777, 50.3986]
      },
      "population": 180,
      "surface": 608.59,
      "radius": 1.39
    },
    {
      "nom": "Écoivres",
      "code": "62283",
      "codesPostaux": ["62270"],
      "centre": {
        "type": "Point",
        "coordinates": [2.2853, 50.3238]
      },
      "mairie": {
        "type": "Point",
        "coordinates": [2.2878, 50.323]
      },
      "population": 126,
      "surface": 222.34,
      "radius": 0.84
    },
    {
      "nom": "Écourt-Saint-Quentin",
      "code": "62284",
      "codesPostaux": ["62860"],
      "centre": {
        "type": "Point",
        "coordinates": [3.0647, 50.2605]
      },
      "mairie": {
        "type": "Point",
        "coordinates": [3.0681, 50.2493]
      },
      "population": 1692,
      "surface": 945.49,
      "radius": 1.73
    },
    {
      "nom": "Écoust-Saint-Mein",
      "code": "62285",
      "codesPostaux": ["62128"],
      "centre": {
        "type": "Point",
        "coordinates": [2.9023, 50.1759]
      },
      "mairie": {
        "type": "Point",
        "coordinates": [2.9105, 50.1823]
      },
      "population": 484,
      "surface": 850.15,
      "radius": 1.65
    },
    {
      "nom": "Ecquedecques",
      "code": "62286",
      "codesPostaux": ["62190"],
      "centre": {
        "type": "Point",
        "coordinates": [2.4414, 50.5595]
      },
      "mairie": {
        "type": "Point",
        "coordinates": [2.4475, 50.5606]
      },
      "population": 510,
      "surface": 261.33,
      "radius": 0.91
    },
    {
      "nom": "Ecques",
      "code": "62288",
      "codesPostaux": ["62129"],
      "centre": {
        "type": "Point",
        "coordinates": [2.2885, 50.6762]
      },
      "mairie": {
        "type": "Point",
        "coordinates": [2.2873, 50.6694]
      },
      "population": 2176,
      "surface": 1280.02,
      "radius": 2.02
    },
    {
      "nom": "Écuires",
      "code": "62289",
      "codesPostaux": ["62170"],
      "centre": {
        "type": "Point",
        "coordinates": [1.7703, 50.4372]
      },
      "mairie": {
        "type": "Point",
        "coordinates": [1.7614, 50.4436]
      },
      "population": 686,
      "surface": 915.07,
      "radius": 1.71
    },
    {
      "nom": "Écurie",
      "code": "62290",
      "codesPostaux": ["62223"],
      "centre": {
        "type": "Point",
        "coordinates": [2.7676, 50.3321]
      },
      "mairie": {
        "type": "Point",
        "coordinates": [2.7707, 50.3302]
      },
      "population": 374,
      "surface": 300.3,
      "radius": 0.98
    },
    {
      "nom": "Éleu-dit-Leauwette",
      "code": "62291",
      "codesPostaux": ["62300"],
      "centre": {
        "type": "Point",
        "coordinates": [2.8123, 50.4188]
      },
      "mairie": {
        "type": "Point",
        "coordinates": [2.8175, 50.4158]
      },