{
  "departmentCode": "24",
  "departmentName": "Dordogne",
  "stats": {
    "communeCount": 503,
    "totalPopulation": 416325,
    "totalSurface": 922246
  },
  "communes": [
    {
      "nom": "Abjat-sur-Bandiat",
      "code": "24001",
      "codesPostaux": ["24300"],
      "centre": {
        "type": "Point",
        "coordinates": [0.7655, 45.5825]
      },
      "mairie": {
        "type": "Point",
        "coordinates": [0.7579, 45.5848]
      },
      "population": 635,
      "surface": 2876.83,
      "radius": 3.03
    },
    {
      "nom": "Agonac",
      "code": "24002",
      "codesPostaux": ["24460"],
      "centre": {
        "type": "Point",
        "coordinates": [0.7415, 45.2785]
      },
      "mairie": {
        "type": "Point",
        "coordinates": [0.7526, 45.2944]
      },
      "population": 1809,
      "surface": 3813.92,
      "radius": 3.48
    },
    {
      "nom": "Ajat",
      "code": "24004",
      "codesPostaux": ["24210"],
      "centre": {
        "type": "Point",
        "coordinates": [1.0289, 45.1603]
      },
      "mairie": {
        "type": "Point",
        "coordinates": [1.016, 45.1564]
      },
      "population": 300,
      "surface": 2246.66,
      "radius": 2.67
    },
    {
      "nom": "Allas-les-Mines",
      "code": "24006",
      "codesPostaux": ["24220"],
      "centre": {
        "type": "Point",
        "coordinates": [1.0748, 44.8276]
      },
      "mairie": {
        "type": "Point",
        "coordinates": [1.0737, 44.8332]
      },
      "population": 195,
      "surface": 719.65,
      "radius": 1.51
    },
    {
      "nom": "Allemans",
      "code": "24007",
      "codesPostaux": ["24600"],
      "centre": {
        "type": "Point",
        "coordinates": [0.2951, 45.2886]
      },
      "mairie": {
        "type": "Point",
        "coordinates": [0.3088, 45.2877]
      },
      "population": 543,
      "surface": 1884.8,
      "radius": 2.45
    },
    {
      "nom": "Alles-sur-Dordogne",
      "code": "24005",
      "codesPostaux": ["24480"],
      "centre": {
        "type": "Point",
        "coordinates": [0.8724, 44.8618]
      },
      "mairie": {
        "type": "Point",
        "coordinates": [0.8681, 44.8608]
      },
      "population": 384,
      "surface": 946.54,
      "radius": 1.74
    },
    {
      "nom": "Angoisse",
      "code": "24008",
      "codesPostaux": ["24270"],
      "centre": {
        "type": "Point",
        "coordinates": [1.1528, 45.4323]
      },
      "mairie": {
        "type": "Point",
        "coordinates": [1.1386, 45.4274]
      },
      "population": 595,
      "surface": 2380.06,
      "radius": 2.75
    },
    {
      "nom": "Anlhiac",
      "code": "24009",
      "codesPostaux": ["24160"],
      "centre": {
        "type": "Point",
        "coordinates": [1.1194, 45.3241]
      },
      "mairie": {
        "type": "Point",
        "coordinates": [1.1263, 45.3207]
      },
      "population": 266,
      "surface": 1240.13,
      "radius": 1.99
    },
    {
      "nom": "Annesse-et-Beaulieu",
      "code": "24010",
      "codesPostaux": ["24430"],
      "centre": {
        "type": "Point",
        "coordinates": [0.5927, 45.1813]
      },
      "mairie": {
        "type": "Point",
        "coordinates": [0.591, 45.1738]
      },
      "population": 1478,
      "surface": 1290.01,
      "radius": 2.03
    },
    {
      "nom": "Antonne-et-Trigonant",
      "code": "24011",
      "codesPostaux": ["24420"],
      "centre": {
        "type": "Point",
        "coordinates": [0.8289, 45.2275]
      },
      "mairie": {
        "type": "Point",
        "coordinates": [0.831, 45.2129]
      },
      "population": 1221,
      "surface": 2103.08,
      "radius": 2.59
    },
    {
      "nom": "Archignac",
      "code": "24012",
      "codesPostaux": ["24590"],
      "centre": {
        "type": "Point",
        "coordinates": [1.2922, 45.0162]
      },
      "mairie": {
        "type": "Point",
        "coordinates": [1.3122, 45.011]
      },
      "population": 403,
      "surface": 2336.53,
      "radius": 2.73
    },
    {
      "nom": "Aubas",
      "code": "24014",
      "codesPostaux": ["24290"],
      "centre": {
        "type": "Point",
        "coordinates": [1.1992, 45.0804]
      },
      "mairie": {
        "type": "Point",
        "coordinates": [1.1914, 45.0831]
      },
      "population": 615,
      "surface": 1717.61,
      "radius": 2.34
    },
    {
      "nom": "Audrix",
      "code": "24015",
      "codesPostaux": ["24260"],
      "centre": {
        "type": "Point",
        "coordinates": [0.9497, 44.8841]
      },
      "mairie": {
        "type": "Point",
        "coordinates": [0.9473, 44.8798]
      },
      "population": 272,
      "surface": 641.02,
      "radius": 1.43
    },
    {
      "nom": "Augignac",
      "code": "24016",
      "codesPostaux": ["24300"],
      "centre": {
        "type": "Point",
        "coordinates": [0.7031, 45.5832]
      },
      "mairie": {
        "type": "Point",
        "coordinates": [0.7015, 45.592]
      },
      "population": 825,
      "surface": 2334.94,
      "radius": 2.73
    },
    {
      "nom": "Auriac-du-Périgord",
      "code": "24018",
      "codesPostaux": ["24290"],
      "centre": {
        "type": "Point",
        "coordinates": [1.1286, 45.1116]
      },
      "mairie": {
        "type": "Point",
        "coordinates": [1.1343, 45.1067]
      },
      "population": 400,
      "surface": 1836.51,
      "radius": 2.42
    },
    {
      "nom": "Azerat",
      "code": "24019",
      "codesPostaux": ["24210"],
      "centre": {
        "type": "Point",
        "coordinates": [1.1008, 45.1585]
      },
      "mairie": {
        "type": "Point",
        "coordinates": [1.1244, 45.1499]
      },
      "population": 449,
      "surface": 2068.14,
      "radius": 2.57
    },
    {
      "nom": "Badefols-d'Ans",
      "code": "24021",
      "codesPostaux": ["24390"],
      "centre": {
        "type": "Point",
        "coordinates": [1.2047, 45.2306]
      },
      "mairie": {
        "type": "Point",
        "coordinates": [1.1969, 45.2298]
      },
      "population": 410,
      "surface": 1877.57,
      "radius": 2.44
    },
    {
      "nom": "Badefols-sur-Dordogne",
      "code": "24022",
      "codesPostaux": ["24150"],
      "centre": {
        "type": "Point",
        "coordinates": [0.7991, 44.8393]
      },
      "mairie": {
        "type": "Point",
        "coordinates": [0.7906, 44.843]
      },
      "population": 205,
      "surface": 609.51,
      "radius": 1.39
    },
    {
      "nom": "Baneuil",
      "code": "24023",
      "codesPostaux": ["24150"],
      "centre": {
        "type": "Point",
        "coordinates": [0.6924, 44.854]
      },
      "mairie": {
        "type": "Point",
        "coordinates": [0.6888, 44.8507]
      },
      "population": 316,
      "surface": 902.56,
      "radius": 1.69
    },
    {
      "nom": "Bardou",
      "code": "24024",
      "codesPostaux": ["24560"],
      "centre": {
        "type": "Point",
        "coordinates": [0.6849, 44.7418]
      },
      "mairie": {
        "type": "Point",
        "coordinates": [0.6856, 44.7362]
      },
      "population": 43,
      "surface": 483.16,
      "radius": 1.24
    },
    {
      "nom": "Bars",
      "code": "24025",
      "codesPostaux": ["24210"],
      "centre": {
        "type": "Point",
        "coordinates": [1.0492, 45.0949]
      },
      "mairie": {
        "type": "Point",
        "coordinates": [1.0629, 45.1001]
      },
      "population": 243,
      "surface": 2343.56,
      "radius": 2.73
    },
    {
      "nom": "Bassillac et Auberoche",
      "code": "24026",
      "codesPostaux": ["24330", "24640"],
      "centre": {
        "type": "Point",
        "coordinates": [0.88, 45.1577]
      },
      "mairie": {
        "type": "Point",
        "coordinates": [0.8138, 45.1914]
      },
      "population": 4365,
      "surface": 10531.6,
      "radius": 5.79
    },
    {
      "nom": "Bayac",
      "code": "24027",
      "codesPostaux": ["24150"],
      "centre": {
        "type": "Point",
        "coordinates": [0.7232, 44.8016]
      },
      "mairie": {
        "type": "Point",
        "coordinates": [0.7268, 44.804]
      },
      "population": 356,
      "surface": 1025.85,
      "radius": 1.81
    },
    {
      "nom": "Beaumontois en Périgord",
      "code": "24028",
      "codesPostaux": ["24440"],
      "centre": {
        "type": "Point",
        "coordinates": [0.7552, 44.7387]
      },
      "mairie": {
        "type": "Point",
        "coordinates": [0.7674, 44.7698]
      },
      "population": 1730,
      "surface": 7304.28,
      "radius": 4.82
    },
    {
      "nom": "Beaupouyet",
      "code": "24029",
      "codesPostaux": ["24400"],
      "centre": {
        "type": "Point",
        "coordinates": [0.2837, 44.9963]
      },
      "mairie": {
        "type": "Point",
        "coordinates": [0.273, 44.9977]
      },
      "population": 558,
      "surface": 2304.16,
      "radius": 2.71
    },
    {
      "nom": "Beauregard-de-Terrasson",
      "code": "24030",
      "codesPostaux": ["24120"],
      "centre": {
        "type": "Point",
        "coordinates": [1.2293, 45.1557]
      },
      "mairie": {
        "type": "Point",
        "coordinates": [1.2285, 45.1481]
      },
      "population": 706,
      "surface": 833.72,
      "radius": 1.63
    },
    {
      "nom": "Beauregard-et-Bassac",
      "code": "24031",
      "codesPostaux": ["24140"],
      "centre": {
        "type": "Point",
        "coordinates": [0.6331, 44.9952]
      },
      "mairie": {
        "type": "Point",
        "coordinates": [0.6439, 44.9884]
      },
      "population": 308,
      "surface": 1217.78,
      "radius": 1.97
    },
    {
      "nom": "Beauronne",
      "code": "24032",
      "codesPostaux": ["24400"],
      "centre": {
        "type": "Point",
        "coordinates": [0.3583, 45.101]
      },
      "mairie": {
        "type": "Point",
        "coordinates": [0.3807, 45.0947]
      },
      "population": 372,
      "surface": 1938.98,
      "radius": 2.48
    },
    {
      "nom": "Beleymas",
      "code": "24034",
      "codesPostaux": ["24140"],
      "centre": {
        "type": "Point",
        "coordinates": [0.4959, 44.9863]
      },
      "mairie": {
        "type": "Point",
        "coordinates": [0.504, 44.9927]
      },
      "population": 281,
      "surface": 1613.61,
      "radius": 2.27
    },
    {
      "nom": "Berbiguières",
      "code": "24036",
      "codesPostaux": ["24220"],
      "centre": {
        "type": "Point",
        "coordinates": [1.0411, 44.8352]
      },
      "mairie": {
        "type": "Point",
        "coordinates": [1.0439, 44.8345]
      },
      "population": 178,
      "surface": 545.19,
      "radius": 1.32
    },
    {
      "nom": "Bergerac",
      "code": "24037",
      "codesPostaux": ["24100"],
      "centre": {
        "type": "Point",
        "coordinates": [0.4883, 44.8519]
      },
      "mairie": {
        "type": "Point",
        "coordinates": [0.485, 44.8499]
      },
      "population": 26852,
      "surface": 5664.99,
      "radius": 4.25
    },
    {
      "nom": "Bertric-Burée",
      "code": "24038",
      "codesPostaux": ["24320"],
      "centre": {
        "type": "Point",
        "coordinates": [0.354, 45.3086]
      },
      "mairie": {
        "type": "Point",
        "coordinates": [0.3595, 45.3053]
      },
      "population": 435,
      "surface": 1671.04,
      "radius": 2.31
    },
    {
      "nom": "Besse",
      "code": "24039",
      "codesPostaux": ["24550"],
      "centre": {
        "type": "Point",
        "coordinates": [1.112, 44.6652]
      },
      "mairie": {
        "type": "Point",
        "coordinates": [1.1067, 44.6691]
      },
      "population": 153,
      "surface": 1665.52,
      "radius": 2.3
    },
    {
      "nom": "Beynac-et-Cazenac",
      "code": "24040",
      "codesPostaux": ["24220"],
      "centre": {
        "type": "Point",
        "coordinates": [1.1289, 44.8556]
      },
      "mairie": {
        "type": "Point",
        "coordinates": [1.142, 44.8402]
      },
      "population": 447,
      "surface": 1310.83,
      "radius": 2.04
    },
    {
      "nom": "Biras",
      "code": "24042",
      "codesPostaux": ["24310"],
      "centre": {
        "type": "Point",
        "coordinates": [0.6393, 45.2825]
      },
      "mairie": {
        "type": "Point",
        "coordinates": [0.6385, 45.2876]
      },
      "population": 715,
      "surface": 1988.38,
      "radius": 2.52
    },
    {
      "nom": "Biron",
      "code": "24043",
      "codesPostaux": ["24540"],
      "centre": {
        "type": "Point",
        "coordinates": [0.8755, 44.6232]
      },
      "mairie": {
        "type": "Point",
        "coordinates": [0.871, 44.6313]
      },
      "population": 146,
      "surface": 1309.58,
      "radius": 2.04
    },
    {
      "nom": "Boisse",
      "code": "24045",
      "codesPostaux": ["24560"],
      "centre": {
        "type": "Point",
        "coordinates": [0.6558, 44.713]
      },
      "mairie": {
        "type": "Point",
        "coordinates": [0.654, 44.7158]
      },
      "population": 249,
      "surface": 1680.47,
      "radius": 2.31
    },
    {
      "nom": "Boisseuilh",
      "code": "24046",
      "codesPostaux": ["24390"],
      "centre": {
        "type": "Point",
        "coordinates": [1.176, 45.2821]
      },
      "mairie": {
        "type": "Point",
        "coordinates": [1.1763, 45.2884]
      },
      "population": 110,
      "surface": 1219.7,
      "radius": 1.97
    },
    {
      "nom": "Bonneville-et-Saint-Avit-de-Fumadières",
      "code": "24048",
      "codesPostaux": ["24230"],
      "centre": {
        "type": "Point",
        "coordinates": [0.0805, 44.885]
      },
      "mairie": {
        "type": "Point",
        "coordinates": [0.0799, 44.8827]
      },
      "population": 302,
      "surface": 709.63,
      "radius": 1.5
    },
    {
      "nom": "Borrèze",
      "code": "24050",
      "codesPostaux": ["24590"],
      "centre": {
        "type": "Point",
        "coordinates": [1.3906, 44.972]
      },
      "mairie": {
        "type": "Point",
        "coordinates": [1.3875, 44.9542]
      },
      "population": 352,
      "surface": 2803.51,
      "radius": 2.99
    },
    {
      "nom": "Bosset",
      "code": "24051",
      "codesPostaux": ["24130"],
      "centre": {
        "type": "Point",
        "coordinates": [0.362, 44.9535]
      },
      "mairie": {
        "type": "Point",
        "coordinates": [0.3545, 44.9511]
      },
      "population": 233,
      "surface": 1467.52,
      "radius": 2.16
    },
    {
      "nom": "Bouillac",
      "code": "24052",
      "codesPostaux": ["24480"],
      "centre": {
        "type": "Point",
        "coordinates": [0.921, 44.7664]
      },
      "mairie": {
        "type": "Point",
        "coordinates": [0.9172, 44.7594]
      },
      "population": 123,
      "surface": 1238.97,
      "radius": 1.99
    },
    {
      "nom": "Boulazac Isle Manoire",
      "code": "24053",
      "codesPostaux": ["24330", "24750"],
      "centre": {
        "type": "Point",
        "coordinates": [0.7878, 45.1385]
      },
      "mairie": {
        "type": "Point",
        "coordinates": [0.7627, 45.1822]
      },
      "population": 10628,
      "surface": 5754.92,
      "radius": 4.28
    },
    {
      "nom": "Bouniagues",
      "code": "24054",
      "codesPostaux": ["24560"],
      "centre": {
        "type": "Point",
        "coordinates": [0.528, 44.756]
      },
      "mairie": {
        "type": "Point",
        "coordinates": [0.5262, 44.7599]
      },
      "population": 589,
      "surface": 870.37,
      "radius": 1.66
    },
    {
      "nom": "Bourdeilles",
      "code": "24055",
      "codesPostaux": ["24310"],
      "centre": {
        "type": "Point",
        "coordinates": [0.5742, 45.3239]
      },
      "mairie": {
        "type": "Point",
        "coordinates": [0.5853, 45.3238]
      },
      "population": 793,
      "surface": 2280.86,
      "radius": 2.69
    },
    {
      "nom": "Bourg-des-Maisons",
      "code": "24057",
      "codesPostaux": ["24320"],
      "centre": {
        "type": "Point",
        "coordinates": [0.4356, 45.3369]
      },
      "mairie": {
        "type": "Point",
        "coordinates": [0.4366, 45.3402]
      },
      "population": 72,
      "surface": 909.81,
      "radius": 1.7
    },
    {
      "nom": "Bourg-du-Bost",
      "code": "24058",
      "codesPostaux": ["24600"],
      "centre": {
        "type": "Point",
        "coordinates": [0.2615, 45.2667]
      },
      "mairie": {
        "type": "Point",
        "coordinates": [0.2554, 45.2716]
      },
      "population": 237,
      "surface": 729.6,
      "radius": 1.52
    },
    {
      "nom": "Bourgnac",
      "code": "24059",
      "codesPostaux": ["24400"],
      "centre": {
        "type": "Point",
        "coordinates": [0.397, 45.0148]
      },
      "mairie": {
        "type": "Point",
        "coordinates": [0.4026, 45.0163]
      },
      "population": 352,
      "surface": 911.14,
      "radius": 1.7
    },
    {
      "nom": "Bourniquel",
      "code": "24060",
      "codesPostaux": ["24150"],
      "centre": {
        "type": "Point",
        "coordinates": [0.7704, 44.8102]
      },
      "mairie": {
        "type": "Point",
        "coordinates": [0.7704, 44.8073]
      },
      "population": 67,
      "surface": 895.89,
      "radius": 1.69
    },
    {
      "nom": "Bourrou",
      "code": "24061",
      "codesPostaux": ["24110"],
      "centre": {
        "type": "Point",
        "coordinates": [0.6028, 45.0475]
      },
      "mairie": {
        "type": "Point",
        "coordinates": [0.5981, 45.045]
      },
      "population": 132,
      "surface": 951.61,
      "radius": 1.74
    },
    {
      "nom": "Bouteilles-Saint-Sébastien",
      "code": "24062",
      "codesPostaux": ["24320"],
      "centre": {
        "type": "Point",
        "coordinates": [0.2908, 45.3505]
      },
      "mairie": {
        "type": "Point",
        "coordinates": [0.3044, 45.3455]
      },
      "population": 175,
      "surface": 1405.64,
      "radius": 2.12
    },
    {
      "nom": "Bouzic",
      "code": "24063",
      "codesPostaux": ["24250"],
      "centre": {
        "type": "Point",
        "coordinates": [1.2255, 44.7221]
      },
      "mairie": {
        "type": "Point",
        "coordinates": [1.2195, 44.7265]
      },
      "population": 154,
      "surface": 1226.3,
      "radius": 1.98
    },
    {
      "nom": "Brantôme en Périgord",
      "code": "24064",
      "codesPostaux": ["24310", "24460", "24530"],
      "centre": {
        "type": "Point",
        "coordinates": [0.6596, 45.3756]
      },
      "mairie": {
        "type": "Point",
        "coordinates": [0.6468, 45.3641]
      },
      "population": 3748,
      "surface": 13791.81,
      "radius": 6.63
    },
    {
      "nom": "Brouchaud",
      "code": "24066",
      "codesPostaux": ["24210"],
      "centre": {
        "type": "Point",
        "coordinates": [0.9919, 45.2048]
      },
      "mairie": {
        "type": "Point",
        "coordinates": [0.9971, 45.2066]
      },
      "population": 217,
      "surface": 1234.26,
      "radius": 1.98
    },
    {
      "nom": "Bussac",
      "code": "24069",
      "codesPostaux": ["24350"],
      "centre": {
        "type": "Point",
        "coordinates": [0.606, 45.2699]
      },
      "mairie": {
        "type": "Point",
        "coordinates": [0.6078, 45.2727]
      },
      "population": 385,
      "surface": 1744.08,
      "radius": 2.36
    },
    {
      "nom": "Busserolles",
      "code": "24070",
      "codesPostaux": ["24360"],
      "centre": {
        "type": "Point",
        "coordinates": [0.645, 45.6751]
      },
      "mairie": {
        "type": "Point",
        "coordinates": [0.6415, 45.6763]
      },
      "population": 505,
      "surface": 3359.18,
      "radius": 3.27
    },
    {
      "nom": "Bussière-Badil",
      "code": "24071",
      "codesPostaux": ["24360"],
      "centre": {
        "type": "Point",
        "coordinates": [0.5984, 45.6415]
      },
      "mairie": {
        "type": "Point",
        "coordinates": [0.6053, 45.6514]
      },
      "population": 372,
      "surface": 2059.09,
      "radius": 2.56
    },
    {
      "nom": "Calès",
      "code": "24073",
      "codesPostaux": ["24150"],
      "centre": {
        "type": "Point",
        "coordinates": [0.8156, 44.86]
      },
      "mairie": {
        "type": "Point",
        "coordinates": [0.812, 44.856]
      },
      "population": 373,
      "surface": 805.64,
      "radius": 1.6
    },
    {
      "nom": "Calviac-en-Périgord",
      "code": "24074",
      "codesPostaux": ["24370"],
      "centre": {
        "type": "Point",
        "coordinates": [1.3232, 44.8612]
      },
      "mairie": {
        "type": "Point",
        "coordinates": [1.3343, 44.8546]
      },
      "population": 541,
      "surface": 1442.78,
      "radius": 2.14
    },
    {
      "nom": "Campagnac-lès-Quercy",
      "code": "24075",
      "codesPostaux": ["24550"],
      "centre": {
        "type": "Point",
        "coordinates": [1.1809, 44.6979]
      },
      "mairie": {
        "type": "Point",
        "coordinates": [1.1731, 44.6941]
      },
      "population": 324,
      "surface": 2014.43,
      "radius": 2.53
    },
    {
      "nom": "Campagne",
      "code": "24076",
      "codesPostaux": ["24260"],
      "centre": {
        "type": "Point",
        "coordinates": [0.9706, 44.8999]
      },
      "mairie": {
        "type": "Point",
        "coordinates": [0.9655, 44.9053]
      },
      "population": 418,
      "surface": 1516.75,
      "radius": 2.2
    },
    {
      "nom": "Campsegret",
      "code": "24077",
      "codesPostaux": ["24140"],
      "centre": {
        "type": "Point",
        "coordinates": [0.5631, 44.9432]
      },
      "mairie": {
        "type": "Point",
        "coordinates": [0.5634, 44.936]
      },
      "population": 398,
      "surface": 1390.41,
      "radius": 2.1
    },
    {
      "nom": "Capdrot",
      "code": "24080",
      "codesPostaux": ["24540"],
      "centre": {
        "type": "Point",
        "coordinates": [0.9427, 44.6802]
      },
      "mairie": {
        "type": "Point",
        "coordinates": [0.923, 44.6813]
      },
      "population": 461,
      "surface": 4403.49,
      "radius": 3.74
    },
    {
      "nom": "Carlux",
      "code": "24081",
      "codesPostaux": ["24370"],
      "centre": {
        "type": "Point",
        "coordinates": [1.3614, 44.8867]
      },
      "mairie": {
        "type": "Point",
        "coordinates": [1.3531, 44.8829]
      },
      "population": 655,
      "surface": 1324.87,
      "radius": 2.05
    },
    {
      "nom": "Carsac-Aillac",
      "code": "24082",
      "codesPostaux": ["24200"],
      "centre": {
        "type": "Point",
        "coordinates": [1.2798, 44.8544]
      },
      "mairie": {
        "type": "Point",
        "coordinates": [1.2757, 44.8409]
      },
      "population": 1549,
      "surface": 1729.08,
      "radius": 2.35
    },
    {
      "nom": "Carsac-de-Gurson",
      "code": "24083",
      "codesPostaux": ["24610"],
      "centre": {
        "type": "Point",
        "coordinates": [0.0982, 44.9451]
      },
      "mairie": {
        "type": "Point",
        "coordinates": [0.0909, 44.9465]
      },
      "population": 212,
      "surface": 711.68,
      "radius": 1.51
    },
    {
      "nom": "Carves",
      "code": "24084",
      "codesPostaux": ["24170"],
      "centre": {
        "type": "Point",
        "coordinates": [1.0609, 44.783]
      },
      "mairie": {
        "type": "Point",
        "coordinates": [1.067, 44.7864]
      },
      "population": 101,
      "surface": 1045.4,
      "radius": 1.82
    },
    {
      "nom": "Castelnaud-la-Chapelle",
      "code": "24086",
      "codesPostaux": ["24250"],
      "centre": {
        "type": "Point",
        "coordinates": [1.1292, 44.802]
      },
      "mairie": {
        "type": "Point",
        "coordinates": [1.1476, 44.8154]
      },
      "population": 449,
      "surface": 2101.54,
      "radius": 2.59
    },
    {
      "nom": "Castels et Bézenac",
      "code": "24087",
      "codesPostaux": ["24220"],
      "centre": {
        "type": "Point",
        "coordinates": [1.0841, 44.8647]
      },
      "mairie": {
        "type": "Point",
        "coordinates": [1.0494, 44.8664]
      },
      "population": 805,
      "surface": 2462.06,
      "radius": 2.8
    },
    {
      "nom": "Cause-de-Clérans",
      "code": "24088",
      "codesPostaux": ["24150"],
      "centre": {
        "type": "Point",
        "coordinates": [0.6699, 44.8766]
      },
      "mairie": {
        "type": "Point",
        "coordinates": [0.6673, 44.8626]
      },
      "population": 336,
      "surface": 1450.32,
      "radius": 2.15
    },
    {
      "nom": "Celles",
      "code": "24090",
      "codesPostaux": ["24600"],
      "centre": {
        "type": "Point",
        "coordinates": [0.4129, 45.2896]
      },
      "mairie": {
        "type": "Point",
        "coordinates": [0.4106, 45.2953]
      },
      "population": 611,
      "surface": 2798.08,
      "radius": 2.98
    },
    {
      "nom": "Cénac-et-Saint-Julien",
      "code": "24091",
      "codesPostaux": ["24250"],
      "centre": {
        "type": "Point",
        "coordinates": [1.2121, 44.7904]
      },
      "mairie": {
        "type": "Point",
        "coordinates": [1.203, 44.801]
      },
      "population": 1189,
      "surface": 2060.87,
      "radius": 2.56
    },
    {
      "nom": "Chalagnac",
      "code": "24094",
      "codesPostaux": ["24380"],
      "centre": {
        "type": "Point",
        "coordinates": [0.682, 45.092]
      },
      "mairie": {
        "type": "Point",
        "coordinates": [0.6773, 45.0922]
      },
      "population": 442,
      "surface": 1458.66,
      "radius": 2.15
    },
    {
      "nom": "Chalais",
      "code": "24095",
      "codesPostaux": ["24800"],
      "centre": {
        "type": "Point",
        "coordinates": [0.9379, 45.5044]
      },
      "mairie": {
        "type": "Point",
        "coordinates": [0.9273, 45.5085]
      },
      "population": 404,
      "surface": 1913.79,
      "radius": 2.47
    },
    {
      "nom": "Champagnac-de-Belair",
      "code": "24096",
      "codesPostaux": ["24530"],
      "centre": {
        "type": "Point",
        "coordinates": [0.6987, 45.3982]
      },
      "mairie": {
        "type": "Point",
        "coordinates": [0.699, 45.3936]
      },
      "population": 783,
      "surface": 1923.49,
      "radius": 2.47
    },
    {
      "nom": "Champagne-et-Fontaine",
      "code": "24097",
      "codesPostaux": ["24320"],
      "centre": {
        "type": "Point",
        "coordinates": [0.3376, 45.4279]
      },
      "mairie": {
        "type": "Point",
        "coordinates": [0.3184, 45.4219]
      },
      "population": 343,
      "surface": 2493.61,
      "radius": 2.82
    },
    {
      "nom": "Champcevinel",
      "code": "24098",
      "codesPostaux": ["24750"],
      "centre": {
        "type": "Point",
        "coordinates": [0.7227, 45.2198]
      },
      "mairie": {
        "type": "Point",
        "coordinates": [0.726, 45.2151]
      },
      "population": 3077,
      "surface": 1834.92,
      "radius": 2.42
    },
    {
      "nom": "Champniers-et-Reilhac",
      "code": "24100",
      "codesPostaux": ["24360"],
      "centre": {
        "type": "Point",
        "coordinates": [0.7275, 45.6703]
      },
      "mairie": {
        "type": "Point",
        "coordinates": [0.7305, 45.6726]
      },
      "population": 511,
      "surface": 2117.83,
      "radius": 2.6
    },
    {
      "nom": "Champs-Romain",
      "code": "24101",
      "codesPostaux": ["24470"],
      "centre": {
        "type": "Point",
        "coordinates": [0.7633, 45.5434]
      },
      "mairie": {
        "type": "Point",
        "coordinates": [0.7741, 45.5325]
      },
      "population": 287,
      "surface": 2090.46,
      "radius": 2.58
    },
    {
      "nom": "Chancelade",
      "code": "24102",
      "codesPostaux": ["24650"],
      "centre": {
        "type": "Point",
        "coordinates": [0.6539, 45.2107]
      },
      "mairie": {
        "type": "Point",
        "coordinates": [0.6663, 45.2053]
      },
      "population": 4442,
      "surface": 1697.35,
      "radius": 2.32
    },
    {
      "nom": "Chantérac",
      "code": "24104",
      "codesPostaux": ["24190"],
      "centre": {
        "type": "Point",
        "coordinates": [0.4349, 45.1711]
      },
      "mairie": {
        "type": "Point",
        "coordinates": [0.4468, 45.1727]
      },
      "population": 647,
      "surface": 1903.73,
      "radius": 2.46
    },
    {
      "nom": "Chapdeuil",
      "code": "24105",
      "codesPostaux": ["24320"],
      "centre": {
        "type": "Point",
        "coordinates": [0.4638, 45.3406]
      },
      "mairie": {
        "type": "Point",
        "coordinates": [0.4765, 45.3421]
      },
      "population": 140,
      "surface": 757.57,
      "radius": 1.55
    },
    {
      "nom": "Chassaignes",
      "code": "24114",
      "codesPostaux": ["24600"],
      "centre": {
        "type": "Point",
        "coordinates": [0.253, 45.2569]
      },
      "mairie": {
        "type": "Point",
        "coordinates": [0.2528, 45.2529]
      },
      "population": 73,
      "surface": 588.2,
      "radius": 1.37
    },
    {
      "nom": "Château-l'Évêque",
      "code": "24115",
      "codesPostaux": ["24460"],
      "centre": {
        "type": "Point",
        "coordinates": [0.6868, 45.2555]
      },
      "mairie": {
        "type": "Point",
        "coordinates": [0.6855, 45.2477]
      },
      "population": 2162,
      "surface": 3723.47,
      "radius": 3.44
    },
    {
      "nom": "Châtres",
      "code": "24116",
      "codesPostaux": ["24120"],
      "centre": {
        "type": "Point",
        "coordinates": [1.1959, 45.1859]
      },
      "mairie": {
        "type": "Point",
        "coordinates": [1.2039, 45.1868]
      },
      "population": 181,
      "surface": 1257.41,
      "radius": 2
    },
    {
      "nom": "Cherval",
      "code": "24119",
      "codesPostaux": ["24320"],
      "centre": {
        "type": "Point",
        "coordinates": [0.3896, 45.3903]
      },
      "mairie": {
        "type": "Point",
        "coordinates": [0.375, 45.3949]
      },
      "population": 226,
      "surface": 1889.99,
      "radius": 2.45
    },
    {
      "nom": "Cherveix-Cubas",
      "code": "24120",
      "codesPostaux": ["24390"],
      "centre": {
        "type": "Point",
        "coordinates": [1.1163, 45.2891]
      },
      "mairie": {
        "type": "Point",
        "coordinates": [1.12, 45.2901]
      },
      "population": 555,
      "surface": 1486.01,
      "radius": 2.17
    },
    {
      "nom": "Chourgnac",
      "code": "24121",
      "codesPostaux": ["24640"],
      "centre": {
        "type": "Point",
        "coordinates": [1.0542, 45.2336]
      },
      "mairie": {
        "type": "Point",
        "coordinates": [1.0598, 45.2349]
      },
      "population": 69,
      "surface": 713.64,
      "radius": 1.51
    },
    {
      "nom": "Cladech",
      "code": "24122",
      "codesPostaux": ["24170"],
      "centre": {
        "type": "Point",
        "coordinates": [1.0755, 44.8094]
      },
      "mairie": {
        "type": "Point",
        "coordinates": [1.0711, 44.8134]
      },
      "population": 87,
      "surface": 563.33,
      "radius": 1.34
    },
    {
      "nom": "Clermont-d'Excideuil",
      "code": "24124",
      "codesPostaux": ["24160"],
      "centre": {
        "type": "Point",
        "coordinates": [1.0475, 45.3631]
      },
      "mairie": {
        "type": "Point",
        "coordinates": [1.0523, 45.3645]
      },
      "population": 248,
      "surface": 1043.89,
      "radius": 1.82
    },
    {
      "nom": "Clermont-de-Beauregard",
      "code": "24123",
      "codesPostaux": ["24140"],
      "centre": {
        "type": "Point",
        "coordinates": [0.6461, 44.9484]
      },
      "mairie": {
        "type": "Point",
        "coordinates": [0.6394, 44.9515]
      },
      "population": 123,
      "surface": 627.29,
      "radius": 1.41
    },
    {
      "nom": "Colombier",
      "code": "24126",
      "codesPostaux": ["24560"],
      "centre": {
        "type": "Point",
        "coordinates": [0.5174, 44.7866]
      },
      "mairie": {
        "type": "Point",
        "coordinates": [0.518, 44.7824]
      },
      "population": 279,
      "surface": 709.65,
      "radius": 1.5
    },
    {
      "nom": "Coly-Saint-Amand",
      "code": "24364",
      "codesPostaux": ["24120", "24290"],
      "centre": {
        "type": "Point",
        "coordinates": [1.2456, 45.0634]
      },
      "mairie": {
        "type": "Point",
        "coordinates": [1.2473, 45.0635]
      },
      "population": 629,
      "surface": 3543.72,
      "radius": 3.36
    },
    {
      "nom": "Comberanche-et-Épeluche",
      "code": "24128",
      "codesPostaux": ["24600"],
      "centre": {
        "type": "Point",
        "coordinates": [0.281, 45.278]
      },
      "mairie": {
        "type": "Point",
        "coordinates": [0.282, 45.2732]
      },
      "population": 165,
      "surface": 393.14,
      "radius": 1.12
    },
    {
      "nom": "Condat-sur-Trincou",
      "code": "24129",
      "codesPostaux": ["24530"],
      "centre": {
        "type": "Point",
        "coordinates": [0.7144, 45.3653]
      },
      "mairie": {
        "type": "Point",
        "coordinates": [0.7075, 45.3814]
      },
      "population": 495,
      "surface": 1725.83,
      "radius": 2.34
    },
    {
      "nom": "Condat-sur-Vézère",
      "code": "24130",
      "codesPostaux": ["24570"],
      "centre": {
        "type": "Point",
        "coordinates": [1.2278, 45.1067]
      },
      "mairie": {
        "type": "Point",
        "coordinates": [1.2312, 45.1185]
      },
      "population": 865,
      "surface": 1649.91,
      "radius": 2.29
    },
    {
      "nom": "Conne-de-Labarde",
      "code": "24132",
      "codesPostaux": ["24560"],
      "centre": {
        "type": "Point",
        "coordinates": [0.5585, 44.7812]
      },
      "mairie": {
        "type": "Point",
        "coordinates": [0.5517, 44.7799]
      },
      "population": 255,
      "surface": 1022.6,
      "radius": 1.8
    },
    {
      "nom": "Connezac",
      "code": "24131",
      "codesPostaux": ["24300"],
      "centre": {
        "type": "Point",
        "coordinates": [0.5312, 45.5135]
      },
      "mairie": {
        "type": "Point",
        "coordinates": [0.5291, 45.512]
      },
      "population": 76,
      "surface": 603.71,
      "radius": 1.39
    },
    {
      "nom": "Corgnac-sur-l'Isle",
      "code": "24134",
      "codesPostaux": ["24800"],
      "centre": {
        "type": "Point",
        "coordinates": [0.9468, 45.3737]
      },
      "mairie": {
        "type": "Point",
        "coordinates": [0.9488, 45.3761]
      },
      "population": 862,
      "surface": 2159.37,
      "radius": 2.62
    },
    {
      "nom": "Cornille",
      "code": "24135",
      "codesPostaux": ["24750"],
      "centre": {
        "type": "Point",
        "coordinates": [0.7818, 45.2443]
      },
      "mairie": {
        "type": "Point",
        "coordinates": [0.784, 45.2508]
      },
      "population": 688,
      "surface": 1341.03,
      "radius": 2.07
    },
    {
      "nom": "Coubjours",
      "code": "24136",
      "codesPostaux": ["24390"],
      "centre": {
        "type": "Point",
        "coordinates": [1.2548, 45.2414]
      },
      "mairie": {
        "type": "Point",
        "coordinates": [1.2566, 45.247]
      },
      "population": 108,
      "surface": 985.28,
      "radius": 1.77
    },
    {
      "nom": "Coulaures",
      "code": "24137",
      "codesPostaux": ["24420"],
      "centre": {
        "type": "Point",
        "coordinates": [0.9743, 45.2989]
      },
      "mairie": {
        "type": "Point",
        "coordinates": [0.9795, 45.3068]
      },
      "population": 758,
      "surface": 3013.51,
      "radius": 3.1
    },
    {
      "nom": "Coulounieix-Chamiers",
      "code": "24138",
      "codesPostaux": ["24660"],
      "centre": {
        "type": "Point",
        "coordinates": [0.6861, 45.1712]
      },
      "mairie": {
        "type": "Point",
        "coordinates": [0.6899, 45.1918]
      },
      "population": 7537,
      "surface": 2161.69,
      "radius": 2.62
    },
    {
      "nom": "Cours-de-Pile",
      "code": "24140",
      "codesPostaux": ["24520"],
      "centre": {
        "type": "Point",
        "coordinates": [0.5512, 44.835]
      },
      "mairie": {
        "type": "Point",
        "coordinates": [0.5462, 44.841]
      },
      "population": 1563,
      "surface": 1092.86,
      "radius": 1.87
    },
    {
      "nom": "Coursac",
      "code": "24139",
      "codesPostaux": ["24430"],
      "centre": {
        "type": "Point",
        "coordinates": [0.645, 45.131]
      },
      "mairie": {
        "type": "Point",
        "coordinates": [0.6384, 45.1287]
      },
      "population": 2326,
      "surface": 2529.91,
      "radius": 2.84
    },
    {
      "nom": "Coutures",
      "code": "24141",
      "codesPostaux": ["24320"],
      "centre": {
        "type": "Point",
        "coordinates": [0.3979, 45.3269]
      },
      "mairie": {
        "type": "Point",
        "coordinates": [0.3931, 45.3306]
      },
      "population": 198,
      "surface": 857.9,
      "radius": 1.65
    },
    {
      "nom": "Coux et Bigaroque-Mouzens",
      "code": "24142",
      "codesPostaux": ["24220"],
      "centre": {
        "type": "Point",
        "coordinates": [0.9695, 44.8501]
      },
      "mairie": {
        "type": "Point",
        "coordinates": [0.9727, 44.8346]
      },
      "population": 1234,
      "surface": 2769.49,
      "radius": 2.97
    },
    {
      "nom": "Couze-et-Saint-Front",
      "code": "24143",
      "codesPostaux": ["24150"],
      "centre": {
        "type": "Point",
        "coordinates": [0.725, 44.8234]
      },
      "mairie": {
        "type": "Point",
        "coordinates": [0.7042, 44.8293]
      },
      "population": 715,
      "surface": 825.97,
      "radius": 1.62
    },
    {
      "nom": "Creyssac",
      "code": "24144",
      "codesPostaux": ["24350"],
      "centre": {
        "type": "Point",
        "coordinates": [0.5515, 45.3127]
      },
      "mairie": {
        "type": "Point",
        "coordinates": [0.552, 45.3072]
      },
      "population": 104,
      "surface": 463.02,
      "radius": 1.21
    },
    {
      "nom": "Creysse",
      "code": "24145",
      "codesPostaux": ["24100"],
      "centre": {
        "type": "Point",
        "coordinates": [0.5555, 44.8651]
      },
      "mairie": {
        "type": "Point",
        "coordinates": [0.5629, 44.8543]
      },
      "population": 1738,
      "surface": 1109.33,
      "radius": 1.88
    },
    {
      "nom": "Creyssensac-et-Pissot",
      "code": "24146",
      "codesPostaux": ["24380"],
      "centre": {
        "type": "Point",
        "coordinates": [0.6688, 45.0718]
      },
      "mairie": {
        "type": "Point",
        "coordinates": [0.6622, 45.0794]
      },
      "population": 266,
      "surface": 887.39,
      "radius": 1.68
    },
    {
      "nom": "Cubjac-Auvézère-Val d'Ans",
      "code": "24147",
      "codesPostaux": ["24640"],
      "centre": {
        "type": "Point",
        "coordinates": [0.9623, 45.2325]
      },
      "mairie": {
        "type": "Point",
        "coordinates": [0.9381, 45.2214]
      },
      "population": 1116,
      "surface": 4084.31,
      "radius": 3.61
    },
    {
      "nom": "Cunèges",
      "code": "24148",
      "codesPostaux": ["24240"],
      "centre": {
        "type": "Point",
        "coordinates": [0.3773, 44.7818]
      },
      "mairie": {
        "type": "Point",
        "coordinates": [0.3735, 44.7794]
      },
      "population": 315,
      "surface": 605.87,
      "radius": 1.39
    },
    {
      "nom": "Daglan",
      "code": "24150",
      "codesPostaux": ["24250"],
      "centre": {
        "type": "Point",
        "coordinates": [1.1896, 44.7453]
      },
      "mairie": {
        "type": "Point",
        "coordinates": [1.1927, 44.7419]
      },
      "population": 556,
      "surface": 2070.52,
      "radius": 2.57
    },
    {
      "nom": "Doissat",
      "code": "24151",
      "codesPostaux": ["24170"],
      "centre": {
        "type": "Point",
        "coordinates": [1.0794, 44.7196]
      },
      "mairie": {
        "type": "Point",
        "coordinates": [1.0691, 44.7316]
      },
      "population": 101,
      "surface": 1571.72,
      "radius": 2.24
    },
    {
      "nom": "Domme",
      "code": "24152",
      "codesPostaux": ["24250"],
      "centre": {
        "type": "Point",
        "coordinates": [1.2424, 44.8091]
      },
      "mairie": {
        "type": "Point",
        "coordinates": [1.2146, 44.803]
      },
      "population": 901,
      "surface": 2485.34,
      "radius": 2.81
    },
    {
      "nom": "Douchapt",
      "code": "24154",
      "codesPostaux": ["24350"],
      "centre": {
        "type": "Point",
        "coordinates": [0.4451, 45.2296]
      },
      "mairie": {
        "type": "Point",
        "coordinates": [0.4423, 45.2422]
      },
      "population": 349,
      "surface": 849.42,
      "radius": 1.64
    },
    {
      "nom": "Douville",
      "code": "24155",
      "codesPostaux": ["24140"],
      "centre": {
        "type": "Point",
        "coordinates": [0.594, 44.9982]
      },
      "mairie": {
        "type": "Point",
        "coordinates": [0.5936, 44.9876]
      },
      "population": 456,
      "surface": 1987.95,
      "radius": 2.52
    },
    {
      "nom": "Douzillac",
      "code": "24157",
      "codesPostaux": ["24190"],
      "centre": {
        "type": "Point",
        "coordinates": [0.4104, 45.0936]
      },
      "mairie": {
        "type": "Point",
        "coordinates": [0.4154, 45.0854]
      },
      "population": 846,
      "surface": 1713.92,
      "radius": 2.34
    },
    {
      "nom": "Dussac",
      "code": "24158",
      "codesPostaux": ["24270"],
      "centre": {
        "type": "Point",
        "coordinates": [1.0727, 45.3905]
      },
      "mairie": {
        "type": "Point",
        "coordinates": [1.0839, 45.3947]
      },
      "population": 426,
      "surface": 2064.33,
      "radius": 2.56
    },
    {
      "nom": "Échourgnac",
      "code": "24159",
      "codesPostaux": ["24410"],
      "centre": {
        "type": "Point",
        "coordinates": [0.2271, 45.1336]
      },
      "mairie": {
        "type": "Point",
        "coordinates": [0.2301, 45.1259]
      },
      "population": 395,
      "surface": 3479.67,
      "radius": 3.33
    },
    {
      "nom": "Église-Neuve-d'Issac",
      "code": "24161",
      "codesPostaux": ["24400"],
      "centre": {
        "type": "Point",
        "coordinates": [0.432, 44.9794]
      },
      "mairie": {
        "type": "Point",
        "coordinates": [0.4267, 44.9819]
      },
      "population": 122,
      "surface": 1675.89,
      "radius": 2.31
    },
    {
      "nom": "Église-Neuve-de-Vergt",
      "code": "24160",
      "codesPostaux": ["24380"],
      "centre": {
        "type": "Point",
        "coordinates": [0.732, 45.0945]
      },
      "mairie": {
        "type": "Point",
        "coordinates": [0.7327, 45.0825]
      },
      "population": 583,
      "surface": 770.25,
      "radius": 1.57
    },
    {
      "nom": "Escoire",
      "code": "24162",
      "codesPostaux": ["24420"],
      "centre": {
        "type": "Point",
        "coordinates": [0.8542, 45.2067]
      },
      "mairie": {
        "type": "Point",
        "coordinates": [0.8483, 45.2109]
      },
      "population": 399,
      "surface": 393.09,
      "radius": 1.12
    },
    {
      "nom": "Étouars",
      "code": "24163",
      "codesPostaux": ["24360"],
      "centre": {
        "type": "Point",
        "coordinates": [0.6148, 45.6087]
      },
      "mairie": {
        "type": "Point",
        "coordinates": [0.6273, 45.6025]
      },
      "population": 165,
      "surface": 811.9,
      "radius": 1.61
    },
    {
      "nom": "Excideuil",
      "code": "24164",
      "codesPostaux": ["24160"],
      "centre": {
        "type": "Point",
        "coordinates": [1.0602, 45.3296]
      },
      "mairie": {
        "type": "Point",
        "coordinates": [1.0484, 45.3394]
      },
      "population": 1195,
      "surface": 522.68,
      "radius": 1.29
    },
    {
      "nom": "Eygurande-et-Gardedeuil",
      "code": "24165",
      "codesPostaux": ["24700"],
      "centre": {
        "type": "Point",
        "coordinates": [0.1167, 45.0788]
      },
      "mairie": {
        "type": "Point",
        "coordinates": [0.1213, 45.0684]
      },
      "population": 407,
      "surface": 3614.54,
      "radius": 3.39
    },
    {
      "nom": "Eymet",
      "code": "24167",
      "codesPostaux": ["24500"],
      "centre": {
        "type": "Point",
        "coordinates": [0.4001, 44.6762]
      },
      "mairie": {
        "type": "Point",
        "coordinates": [0.3976, 44.6685]
      },
      "population": 2553,
      "surface": 3135.21,
      "radius": 3.16
    },
    {
      "nom": "Eyraud-Crempse-Maurens",
      "code": "24259",
      "codesPostaux": ["24130", "24140"],
      "centre": {
        "type": "Point",
        "coordinates": [0.4836, 44.9355]
      },
      "mairie": {
        "type": "Point",
        "coordinates": [0.485, 44.9348]
      },
      "population": 1666,
      "surface": 5061.23,
      "radius": 4.01
    },
    {
      "nom": "Eyzerac",
      "code": "24171",
      "codesPostaux": ["24800"],
      "centre": {
        "type": "Point",
        "coordinates": [0.9026, 45.3885]
      },
      "mairie": {
        "type": "Point",
        "coordinates": [0.9195, 45.3885]
      },
      "population": 547,
      "surface": 1155.53,
      "radius": 1.92
    },
    {
      "nom": "Fanlac",
      "code": "24174",
      "codesPostaux": ["24290"],
      "centre": {
        "type": "Point",
        "coordinates": [1.0944, 45.0731]
      },
      "mairie": {
        "type": "Point",
        "coordinates": [1.096, 45.0659]
      },
      "population": 137,
      "surface": 1464.82,
      "radius": 2.16
    },
    {
      "nom": "Faurilles",
      "code": "24176",
      "codesPostaux": ["24560"],
      "centre": {
        "type": "Point",
        "coordinates": [0.6866, 44.7024]
      },
      "mairie": {
        "type": "Point",
        "coordinates": [0.692, 44.7031]
      },
      "population": 36,
      "surface": 436.83,
      "radius": 1.18
    },
    {
      "nom": "Faux-en-Périgord",
      "code": "24177",
      "codesPostaux": ["24560"],
      "centre": {
        "type": "Point",
        "coordinates": [0.6463, 44.7853]
      },
      "mairie": {
        "type": "Point",
        "coordinates": [0.642, 44.7905]
      },
      "population": 669,
      "surface": 1612.11,
      "radius": 2.27
    },
    {
      "nom": "Firbeix",
      "code": "24180",
      "codesPostaux": ["24450"],
      "centre": {
        "type": "Point",
        "coordinates": [0.9438, 45.5915]
      },
      "mairie": {
        "type": "Point",
        "coordinates": [0.9754, 45.6017]
      },
      "population": 298,
      "surface": 2316.42,
      "radius": 2.72
    },
    {
      "nom": "Fleurac",
      "code": "24183",
      "codesPostaux": ["24580"],
      "centre": {
        "type": "Point",
        "coordinates": [1.0086, 44.9981]
      },
      "mairie": {
        "type": "Point",
        "coordinates": [1.0029, 45.0085]
      },
      "population": 320,
      "surface": 2279.91,
      "radius": 2.69
    },
    {
      "nom": "Florimont-Gaumier",
      "code": "24184",
      "codesPostaux": ["24250"],
      "centre": {
        "type": "Point",
        "coordinates": [1.241, 44.7084]
      },
      "mairie": {
        "type": "Point",
        "coordinates": [1.2397, 44.6991]
      },
      "population": 163,
      "surface": 938.32,
      "radius": 1.73
    },
    {
      "nom": "Fonroque",
      "code": "24186",
      "codesPostaux": ["24500"],
      "centre": {
        "type": "Point",
        "coordinates": [0.4077, 44.7019]
      },
      "mairie": {
        "type": "Point",
        "coordinates": [0.4175, 44.701]
      },
      "population": 333,
      "surface": 904.86,
      "radius": 1.7
    },
    {
      "nom": "Fossemagne",
      "code": "24188",
      "codesPostaux": ["24210"],
      "centre": {
        "type": "Point",
        "coordinates": [0.9868, 45.1172]
      },
      "mairie": {
        "type": "Point",
        "coordinates": [0.9841, 45.1268]
      },
      "population": 553,
      "surface": 2253.67,
      "radius": 2.68
    },
    {
      "nom": "Fougueyrolles",
      "code": "24189",
      "codesPostaux": ["33220"],
      "centre": {
        "type": "Point",
        "coordinates": [0.1892, 44.8691]
      },
      "mairie": {
        "type": "Point",
        "coordinates": [0.1852, 44.8651]
      },
      "population": 454,
      "surface": 1161.1,
      "radius": 1.92
    },
    {
      "nom": "Fouleix",
      "code": "24190",
      "codesPostaux": ["24380"],
      "centre": {
        "type": "Point",
        "coordinates": [0.6738, 44.9762]
      },
      "mairie": {
        "type": "Point",
        "coordinates": [0.6805, 44.9843]
      },
      "population": 273,
      "surface": 1127.67,
      "radius": 1.89
    },
    {
      "nom": "Fraisse",
      "code": "24191",
      "codesPostaux": ["24130"],
      "centre": {
        "type": "Point",
        "coordinates": [0.3028, 44.9337]
      },
      "mairie": {
        "type": "Point",
        "coordinates": [0.3073, 44.9305]
      },
      "population": 173,
      "surface": 2149.65,
      "radius": 2.62
    },
    {
      "nom": "Gabillou",
      "code": "24192",
      "codesPostaux": ["24210"],
      "centre": {
        "type": "Point",
        "coordinates": [1.0315, 45.2048]
      },
      "mairie": {
        "type": "Point",
        "coordinates": [1.0339, 45.2059]
      },
      "population": 97,
      "surface": 813.32,
      "radius": 1.61
    },
    {
      "nom": "Gageac-et-Rouillac",
      "code": "24193",
      "codesPostaux": ["24240"],
      "centre": {
        "type": "Point",
        "coordinates": [0.3624, 44.8015]
      },
      "mairie": {
        "type": "Point",
        "coordinates": [0.3487, 44.7985]
      },
      "population": 441,
      "surface": 1412.4,
      "radius": 2.12
    },
    {
      "nom": "Gardonne",
      "code": "24194",
      "codesPostaux": ["24680"],
      "centre": {
        "type": "Point",
        "coordinates": [0.3296, 44.8293]
      },
      "mairie": {
        "type": "Point",
        "coordinates": [0.3319, 44.8364]
      },
      "population": 1607,
      "surface": 833.3,
      "radius": 1.63
    },
    {
      "nom": "Gaugeac",
      "code": "24195",
      "codesPostaux": ["24540"],
      "centre": {
        "type": "Point",
        "coordinates": [0.8755, 44.6651]
      },
      "mairie": {
        "type": "Point",
        "coordinates": [0.8799, 44.6595]
      },
      "population": 107,
      "surface": 1025.13,
      "radius": 1.81
    },
    {
      "nom": "Génis",
      "code": "24196",
      "codesPostaux": ["24160"],
      "centre": {
        "type": "Point",
        "coordinates": [1.165, 45.331]
      },
      "mairie": {
        "type": "Point",
        "coordinates": [1.1624, 45.326]
      },
      "population": 508,
      "surface": 2701.33,
      "radius": 2.93
    },
    {
      "nom": "Ginestet",
      "code": "24197",
      "codesPostaux": ["24130"],
      "centre": {
        "type": "Point",
        "coordinates": [0.4467, 44.9064]
      },
      "mairie": {
        "type": "Point",
        "coordinates": [0.4289, 44.9099]
      },
      "population": 758,
      "surface": 1298.69,
      "radius": 2.03
    },
    {
      "nom": "Gout-Rossignol",
      "code": "24199",
      "codesPostaux": ["24320"],
      "centre": {
        "type": "Point",
        "coordinates": [0.4114, 45.4154]
      },
      "mairie": {
        "type": "Point",
        "coordinates": [0.3841, 45.4133]
      },
      "population": 362,
      "surface": 2496.28,
      "radius": 2.82
    },
    {
      "nom": "Grand-Brassac",
      "code": "24200",
      "codesPostaux": ["24350"],
      "centre": {
        "type": "Point",
        "coordinates": [0.4841, 45.298]
      },
      "mairie": {
        "type": "Point",
        "coordinates": [0.4793, 45.2933]
      },
      "population": 538,
      "surface": 3179.91,
      "radius": 3.18
    },
    {
      "nom": "Granges-d'Ans",
      "code": "24202",
      "codesPostaux": ["24390"],
      "centre": {
        "type": "Point",
        "coordinates": [1.1164, 45.2134]
      },
      "mairie": {
        "type": "Point",
        "coordinates": [1.1213, 45.2115]
      },
      "population": 148,
      "surface": 1216.02,
      "radius": 1.97
    },
    {
      "nom": "Grignols",
      "code": "24205",
      "codesPostaux": ["24110"],
      "centre": {
        "type": "Point",
        "coordinates": [0.5359, 45.0827]
      },
      "mairie": {
        "type": "Point",
        "coordinates": [0.5394, 45.0833]
      },
      "population": 668,
      "surface": 2107.64,
      "radius": 2.59
    },
    {
      "nom": "Grives",
      "code": "24206",
      "codesPostaux": ["24170"],
      "centre": {
        "type": "Point",
        "coordinates": [1.0745, 44.7632]
      },
      "mairie": {
        "type": "Point",
        "coordinates": [1.0784, 44.765]
      },
      "population": 106,
      "surface": 830.09,
      "radius": 1.63
    },
    {
      "nom": "Groléjac",
      "code": "24207",
      "codesPostaux": ["24250"],
      "centre": {
        "type": "Point",
        "coordinates": [1.2947, 44.8111]
      },
      "mairie": {
        "type": "Point",
        "coordinates": [1.2944, 44.8164]
      },
      "population": 675,
      "surface": 1234.56,
      "radius": 1.98
    },
    {
      "nom": "Grun-Bordas",
      "code": "24208",
      "codesPostaux": ["24380"],
      "centre": {
        "type": "Point",
        "coordinates": [0.6468, 45.0461]
      },
      "mairie": {
        "type": "Point",
        "coordinates": [0.653, 45.0467]
      },
      "population": 247,
      "surface": 1278.13,
      "radius": 2.02
    },
    {
      "nom": "Hautefaye",
      "code": "24209",
      "codesPostaux": ["24300"],
      "centre": {
        "type": "Point",
        "coordinates": [0.5063, 45.5381]
      },
      "mairie": {
        "type": "Point",
        "coordinates": [0.4938, 45.5373]
      },
      "population": 128,
      "surface": 1244.58,
      "radius": 1.99
    },
    {
      "nom": "Hautefort",
      "code": "24210",
      "codesPostaux": ["24390"],
      "centre": {
        "type": "Point",
        "coordinates": [1.1368, 45.2598]
      },
      "mairie": {
        "type": "Point",
        "coordinates": [1.147, 45.2608]
      },
      "population": 814,
      "surface": 2663.84,
      "radius": 2.91
    },
    {
      "nom": "Issac",
      "code": "24211",
      "codesPostaux": ["24400"],
      "centre": {
        "type": "Point",
        "coordinates": [0.4506, 45.0143]
      },
      "mairie": {
        "type": "Point",
        "coordinates": [0.4498, 45.0157]
      },
      "population": 437,
      "surface": 2331.93,
      "radius": 2.72
    },
    {
      "nom": "Issigeac",
      "code": "24212",
      "codesPostaux": ["24560"],
      "centre": {
        "type": "Point",
        "coordinates": [0.6062, 44.7297]
      },
      "mairie": {
        "type": "Point",
        "coordinates": [0.6076, 44.7306]
      },
      "population": 748,
      "surface": 924.21,
      "radius": 1.72
    },
    {
      "nom": "Jaure",
      "code": "24213",
      "codesPostaux": ["24140"],
      "centre": {
        "type": "Point",
        "coordinates": [0.5555, 45.0548]
      },
      "mairie": {
        "type": "Point",
        "coordinates": [0.5524, 45.0553]
      },
      "population": 178,
      "surface": 775.3,
      "radius": 1.57
    },
    {
      "nom": "Javerlhac-et-la-Chapelle-Saint-Robert",
      "code": "24214",
      "codesPostaux": ["24300"],
      "centre": {
        "type": "Point",
        "coordinates": [0.5533, 45.5587]
      },
      "mairie": {
        "type": "Point",
        "coordinates": [0.5607, 45.5695]
      },
      "population": 818,
      "surface": 2914.58,
      "radius": 3.05
    },
    {
      "nom": "Jayac",
      "code": "24215",
      "codesPostaux": ["24590"],
      "centre": {
        "type": "Point",
        "coordinates": [1.3518, 45.0293]
      },
      "mairie": {
        "type": "Point",
        "coordinates": [1.3451, 45.0314]
      },
      "population": 188,
      "surface": 1822.02,
      "radius": 2.41
    },
    {
      "nom": "Journiac",
      "code": "24217",
      "codesPostaux": ["24260"],
      "centre": {
        "type": "Point",
        "coordinates": [0.8877, 44.9676]
      },
      "mairie": {
        "type": "Point",
        "coordinates": [0.8851, 44.966]
      },
      "population": 481,
      "surface": 1951.95,
      "radius": 2.49
    },
    {
      "nom": "Jumilhac-le-Grand",
      "code": "24218",
      "codesPostaux": ["24630"],
      "centre": {
        "type": "Point",
        "coordinates": [1.0874, 45.5032]
      },
      "mairie": {
        "type": "Point",
        "coordinates": [1.064, 45.4944]
      },
      "population": 1140,
      "surface": 6817.39,
      "radius": 4.66
    },
    {
      "nom": "La Bachellerie",
      "code": "24020",
      "codesPostaux": ["24210"],
      "centre": {
        "type": "Point",
        "coordinates": [1.1612, 45.1313]
      },
      "mairie": {
        "type": "Point",
        "coordinates": [1.1546, 45.145]
      },
      "population": 895,
      "surface": 1775.54,
      "radius": 2.38
    },
    {
      "nom": "La Cassagne",
      "code": "24085",
      "codesPostaux": ["24120"],
      "centre": {
        "type": "Point",
        "coordinates": [1.3065, 45.0562]
      },
      "mairie": {
        "type": "Point",
        "coordinates": [1.3144, 45.0444]
      },
      "population": 151,
      "surface": 1518.7,
      "radius": 2.2
    },
    {
      "nom": "La Chapelle-Aubareil",
      "code": "24106",
      "codesPostaux": ["24290"],
      "centre": {
        "type": "Point",
        "coordinates": [1.1897, 45.0042]
      },
      "mairie": {
        "type": "Point",
        "coordinates": [1.1825, 45.0127]
      },
      "population": 542,
      "surface": 2034.45,
      "radius": 2.54
    },
    {
      "nom": "La Chapelle-Faucher",
      "code": "24107",
      "codesPostaux": ["24530"],
      "centre": {
        "type": "Point",
        "coordinates": [0.7622, 45.3759]
      },
      "mairie": {
        "type": "Point",
        "coordinates": [0.7501, 45.3704]
      },
      "population": 386,
      "surface": 1925.8,
      "radius": 2.48
    },
    {
      "nom": "La Chapelle-Gonaguet",
      "code": "24108",
      "codesPostaux": ["24350"],
      "centre": {
        "type": "Point",
        "coordinates": [0.6187, 45.2297]
      },
      "mairie": {
        "type": "Point",
        "coordinates": [0.6127, 45.2303]
      },
      "population": 1058,
      "surface": 1970.66,
      "radius": 2.5
    },
    {
      "nom": "La Chapelle-Grésignac",
      "code": "24109",
      "codesPostaux": ["24320"],
      "centre": {
        "type": "Point",
        "coordinates": [0.3387, 45.392]
      },
      "mairie": {
        "type": "Point",
        "coordinates": [0.3376, 45.3941]
      },
      "population": 102,
      "surface": 702.52,
      "radius": 1.5
    },
    {
      "nom": "La Chapelle-Montabourlet",
      "code": "24110",
      "codesPostaux": ["24320"],
      "centre": {
        "type": "Point",
        "coordinates": [0.4587, 45.3931]
      },
      "mairie": {
        "type": "Point",
        "coordinates": [0.4627, 45.3946]
      },
      "population": 57,
      "surface": 580.2,
      "radius": 1.36
    },
    {
      "nom": "La Chapelle-Montmoreau",
      "code": "24111",
      "codesPostaux": ["24300"],
      "centre": {
        "type": "Point",
        "coordinates": [0.6411, 45.4487]
      },
      "mairie": {
        "type": "Point",
        "coordinates": [0.6423, 45.4485]
      },
      "population": 75,
      "surface": 833.34,
      "radius": 1.63
    },
    {
      "nom": "La Chapelle-Saint-Jean",
      "code": "24113",
      "codesPostaux": ["24390"],
      "centre": {
        "type": "Point",
        "coordinates": [1.1661, 45.1943]
      },
      "mairie": {
        "type": "Point",
        "coordinates": [1.1618, 45.1951]
      },
      "population": 84,
      "surface": 386.74,
      "radius": 1.11
    },
    {
      "nom": "La Coquille",
      "code": "24133",
      "codesPostaux": ["24450"],
      "centre": {
        "type": "Point",
        "coordinates": [0.963, 45.5452]
      },
      "mairie": {
        "type": "Point",
        "coordinates": [0.976, 45.5408]
      },
      "population": 1259,
      "surface": 2297.75,
      "radius": 2.7
    },
    {
      "nom": "La Dornac",
      "code": "24153",
      "codesPostaux": ["24120"],
      "centre": {
        "type": "Point",
        "coordinates": [1.3421, 45.0717]
      },
      "mairie": {
        "type": "Point",
        "coordinates": [1.3574, 45.0821]
      },
      "population": 404,
      "surface": 1623.07,
      "radius": 2.27
    },
    {
      "nom": "La Douze",
      "code": "24156",
      "codesPostaux": ["24330"],
      "centre": {
        "type": "Point",
        "coordinates": [0.8554, 45.0707]
      },
      "mairie": {
        "type": "Point",
        "coordinates": [0.8632, 45.0618]
      },
      "population": 1147,
      "surface": 2392.17,
      "radius": 2.76
    },
    {
      "nom": "La Feuillade",
      "code": "24179",
      "codesPostaux": ["24120"],
      "centre": {
        "type": "Point",
        "coordinates": [1.3956, 45.1168]
      },
      "mairie": {
        "type": "Point",
        "coordinates": [1.4012, 45.1161]
      },
      "population": 797,
      "surface": 401.6,
      "radius": 1.13
    },
    {
      "nom": "La Force",
      "code": "24222",
      "codesPostaux": ["24130"],
      "centre": {
        "type": "Point",
        "coordinates": [0.358, 44.8799]
      },
      "mairie": {
        "type": "Point",
        "coordinates": [0.3754, 44.8671]
      },
      "population": 2687,
      "surface": 1557.86,
      "radius": 2.23
    },
    {
      "nom": "La Jemaye-Ponteyraud",
      "code": "24216",
      "codesPostaux": ["24410"],
      "centre": {
        "type": "Point",
        "coordinates": [0.2602, 45.1666]
      },
      "mairie": {
        "type": "Point",
        "coordinates": [0.2567, 45.17]
      },
      "population": 148,
      "surface": 3349.93,
      "radius": 3.27
    },
    {
      "nom": "La Roche-Chalais",
      "code": "24354",
      "codesPostaux": ["24490"],
      "centre": {
        "type": "Point",
        "coordinates": [0.0494, 45.1292]
      },
      "mairie": {
        "type": "Point",
        "coordinates": [0.0067, 45.1529]
      },
      "population": 3023,
      "surface": 8977.51,
      "radius": 5.35
    },
    {
      "nom": "La Rochebeaucourt-et-Argentine",
      "code": "24353",
      "codesPostaux": ["24340"],
      "centre": {
        "type": "Point",
        "coordinates": [0.3787, 45.4667]
      },
      "mairie": {
        "type": "Point",
        "coordinates": [0.3796, 45.4839]
      },
      "population": 331,
      "surface": 1733.95,
      "radius": 2.35
    },
    {
      "nom": "La Roque-Gageac",
      "code": "24355",
      "codesPostaux": ["24250"],
      "centre": {
        "type": "Point",
        "coordinates": [1.1999, 44.82]
      },
      "mairie": {
        "type": "Point",
        "coordinates": [1.1842, 44.8255]
      },
      "population": 439,
      "surface": 718.99,
      "radius": 1.51
    },
    {
      "nom": "La Tour-Blanche-Cercles",
      "code": "24554",
      "codesPostaux": ["24320"],
      "centre": {
        "type": "Point",
        "coordinates": [0.4508, 45.369]
      },
      "mairie": {
        "type": "Point",
        "coordinates": [0.4462, 45.3657]
      },
      "population": 549,
      "surface": 2335.55,
      "radius": 2.73
    },
    {
      "nom": "Lacropte",
      "code": "24220",
      "codesPostaux": ["24380"],
      "centre": {
        "type": "Point",
        "coordinates": [0.8383, 45.0515]
      },
      "mairie": {
        "type": "Point",
        "coordinates": [0.8313, 45.0365]
      },
      "population": 691,
      "surface": 2706.43,
      "radius": 2.94
    },
    {
      "nom": "Lalinde",
      "code": "24223",
      "codesPostaux": ["24150"],
      "centre": {
        "type": "Point",
        "coordinates": [0.7442, 44.858]
      },
      "mairie": {
        "type": "Point",
        "coordinates": [0.7386, 44.8379]
      },
      "population": 2936,
      "surface": 2771.41,
      "radius": 2.97
    },
    {
      "nom": "Lamonzie-Montastruc",
      "code": "24224",
      "codesPostaux": ["24520"],
      "centre": {
        "type": "Point",
        "coordinates": [0.5884, 44.9004]
      },
      "mairie": {
        "type": "Point",
        "coordinates": [0.5905, 44.8936]
      },
      "population": 692,
      "surface": 2072.34,
      "radius": 2.57
    },
    {
      "nom": "Lamonzie-Saint-Martin",
      "code": "24225",
      "codesPostaux": ["24680"],
      "centre": {
        "type": "Point",
        "coordinates": [0.3856, 44.8336]
      },
      "mairie": {
        "type": "Point",
        "coordinates": [0.3818, 44.8422]
      },
      "population": 2745,
      "surface": 2065.53,
      "radius": 2.56
    },
    {
      "nom": "Lamothe-Montravel",
      "code": "24226",
      "codesPostaux": ["24230"],
      "centre": {
        "type": "Point",
        "coordinates": [0.0094, 44.8466]
      },
      "mairie": {
        "type": "Point",
        "coordinates": [0.0265, 44.8503]
      },
      "population": 1430,
      "surface": 1272.16,
      "radius": 2.01
    },
    {
      "nom": "Lanouaille",
      "code": "24227",
      "codesPostaux": ["24270"],
      "centre": {
        "type": "Point",
        "coordinates": [1.1318, 45.3789]
      },
      "mairie": {
        "type": "Point",
        "coordinates": [1.1382, 45.3916]
      },
      "population": 938,
      "surface": 2447.09,
      "radius": 2.79
    },
    {
      "nom": "Lanquais",
      "code": "24228",
      "codesPostaux": ["24150"],
      "centre": {
        "type": "Point",
        "coordinates": [0.6709, 44.816]
      },
      "mairie": {
        "type": "Point",
        "coordinates": [0.6698, 44.8234]
      },
      "population": 501,
      "surface": 1470,
      "radius": 2.16
    },
    {
      "nom": "Larzac",
      "code": "24230",
      "codesPostaux": ["24170"],
      "centre": {
        "type": "Point",
        "coordinates": [0.9993, 44.7392]
      },
      "mairie": {
        "type": "Point",
        "coordinates": [1.0086, 44.7491]
      },
      "population": 148,
      "surface": 696.92,
      "radius": 1.49
    },
    {
      "nom": "Lavalade",
      "code": "24231",
      "codesPostaux": ["24540"],
      "centre": {
        "type": "Point",
        "coordinates": [0.8578, 44.6952]
      },
      "mairie": {
        "type": "Point",
        "coordinates": [0.8632, 44.695]
      },
      "population": 105,
      "surface": 399.31,
      "radius": 1.13
    },
    {
      "nom": "Lavaur",
      "code": "24232",
      "codesPostaux": ["24550"],
      "centre": {
        "type": "Point",
        "coordinates": [1.0223, 44.6263]
      },
      "mairie": {
        "type": "Point",
        "coordinates": [1.0228, 44.6138]
      },
      "population": 81,
      "surface": 928.8,
      "radius": 1.72
    },
    {
      "nom": "Le Bourdeix",
      "code": "24056",
      "codesPostaux": ["24300"],
      "centre": {
        "type": "Point",
        "coordinates": [0.6362, 45.5813]
      },
      "mairie": {
        "type": "Point",
        "coordinates": [0.6318, 45.5889]
      },
      "population": 240,
      "surface": 1161.31,
      "radius": 1.92
    },
    {
      "nom": "Le Bugue",
      "code": "24067",
      "codesPostaux": ["24260"],
      "centre": {
        "type": "Point",
        "coordinates": [0.9198, 44.9249]
      },
      "mairie": {
        "type": "Point",
        "coordinates": [0.9276, 44.918]
      },
      "population": 2638,
      "surface": 3031.27,
      "radius": 3.11
    },
    {
      "nom": "Le Buisson-de-Cadouin",
      "code": "24068",
      "codesPostaux": ["24480"],
      "centre": {
        "type": "Point",
        "coordinates": [0.8885, 44.8144]
      },
      "mairie": {
        "type": "Point",
        "coordinates": [0.9076, 44.8435]
      },
      "population": 1954,
      "surface": 5027.05,
      "radius": 4
    },
    {
      "nom": "Le Fleix",
      "code": "24182",
      "codesPostaux": ["24130"],
      "centre": {
        "type": "Point",
        "coordinates": [0.2643, 44.8789]
      },
      "mairie": {
        "type": "Point",
        "coordinates": [0.2438, 44.8755]
      },
      "population": 1498,
      "surface": 1797.47,
      "radius": 2.39
    },
    {
      "nom": "Le Lardin-Saint-Lazare",
      "code": "24229",
      "codesPostaux": ["24570"],
      "centre": {
        "type": "Point",
        "coordinates": [1.2282, 45.1365]
      },
      "mairie": {
        "type": "Point",
        "coordinates": [1.226, 45.1288]
      },
      "population": 1666,
      "surface": 1088.99,
      "radius": 1.86
    },
    {
      "nom": "Le Pizou",
      "code": "24329",
      "codesPostaux": ["24700"],
      "centre": {
        "type": "Point",
        "coordinates": [0.073, 45.041]
      },
      "mairie": {
        "type": "Point",
        "coordinates": [0.0628, 45.0239]
      },
      "population": 1416,
      "surface": 1713.97,
      "radius": 2.34
    },
    {
      "nom": "Léguillac-de-l'Auche",
      "code": "24236",
      "codesPostaux": ["24110"],
      "centre": {
        "type": "Point",
        "coordinates": [0.5546, 45.1887]
      },
      "mairie": {
        "type": "Point",
        "coordinates": [0.5552, 45.1844]
      },
      "population": 974,
      "surface": 1468.82,
      "radius": 2.16
    },
    {
      "nom": "Lembras",
      "code": "24237",
      "codesPostaux": ["24100"],
      "centre": {
        "type": "Point",
        "coordinates": [0.5295, 44.8923]
      },
      "mairie": {
        "type": "Point",
        "coordinates": [0.523, 44.8846]
      },
      "population": 1255,
      "surface": 1075.42,
      "radius": 1.85
    },
    {
      "nom": "Lempzours",
      "code": "24238",
      "codesPostaux": ["24800"],
      "centre": {
        "type": "Point",
        "coordinates": [0.8279, 45.3556]
      },
      "mairie": {
        "type": "Point",
        "coordinates": [0.8185, 45.3614]
      },
      "population": 133,
      "surface": 1129.03,
      "radius": 1.9
    },
    {
      "nom": "Les Coteaux Périgourdins",
      "code": "24117",
      "codesPostaux": ["24120"],
      "centre": {
        "type": "Point",
        "coordinates": [1.3646, 45.092]
      },
      "mairie": {
        "type": "Point",
        "coordinates": [1.373, 45.0898]
      },
      "population": 551,
      "surface": 2006.76,
      "radius": 2.53
    },
    {
      "nom": "Les Eyzies",
      "code": "24172",
      "codesPostaux": ["24260", "24620"],
      "centre": {
        "type": "Point",
        "coordinates": [1.0352, 44.9396]
      },
      "mairie": {
        "type": "Point",
        "coordinates": [1.0121, 44.9362]
      },
      "population": 1133,
      "surface": 5567.4,
      "radius": 4.21
    },
    {
      "nom": "Les Farges",
      "code": "24175",
      "codesPostaux": ["24290"],
      "centre": {
        "type": "Point",
        "coordinates": [1.1954, 45.1144]
      },
      "mairie": {
        "type": "Point",
        "coordinates": [1.1895, 45.1148]
      },
      "population": 308,
      "surface": 796.68,
      "radius": 1.59
    },
    {
      "nom": "Les Lèches",
      "code": "24234",
      "codesPostaux": ["24400"],
      "centre": {
        "type": "Point",
        "coordinates": [0.388, 44.9798]
      },
      "mairie": {
        "type": "Point",
        "coordinates": [0.3848, 44.9899]
      },
      "population": 383,
      "surface": 2141.62,
      "radius": 2.61
    },
    {
      "nom": "Limeuil",
      "code": "24240",
      "codesPostaux": ["24510"],
      "centre": {
        "type": "Point",
        "coordinates": [0.8967, 44.8924]
      },
      "mairie": {
        "type": "Point",
        "coordinates": [0.8883, 44.8831]
      },
      "population": 339,
      "surface": 1045.39,
      "radius": 1.82
    },
    {
      "nom": "Limeyrat",
      "code": "24241",
      "codesPostaux": ["24210"],
      "centre": {
        "type": "Point",
        "coordinates": [0.9753, 45.1659]
      },
      "mairie": {
        "type": "Point",
        "coordinates": [0.9795, 45.1601]
      },
      "population": 430,
      "surface": 2012.65,
      "radius": 2.53
    },
    {
      "nom": "Liorac-sur-Louyre",
      "code": "24242",
      "codesPostaux": ["24520"],
      "centre": {
        "type": "Point",
        "coordinates": [0.641, 44.8959]
      },
      "mairie": {
        "type": "Point",
        "coordinates": [0.6432, 44.8974]
      },
      "population": 260,
      "surface": 2071.27,
      "radius": 2.57
    },
    {
      "nom": "Lisle",
      "code": "24243",
      "codesPostaux": ["24350"],
      "centre": {
        "type": "Point",
        "coordinates": [0.5571, 45.2708]
      },
      "mairie": {
        "type": "Point",
        "coordinates": [0.548, 45.2783]
      },
      "population": 873,
      "surface": 1866.97,
      "radius": 2.44
    },
    {
      "nom": "Lolme",
      "code": "24244",
      "codesPostaux": ["24540"],
      "centre": {
        "type": "Point",
        "coordinates": [0.8444, 44.7106]
      },
      "mairie": {
        "type": "Point",
        "coordinates": [0.8415, 44.7105]
      },
      "population": 191,
      "surface": 702.11,
      "radius": 1.49
    },
    {
      "nom": "Loubejac",
      "code": "24245",
      "codesPostaux": ["24550"],
      "centre": {
        "type": "Point",
        "coordinates": [1.0705, 44.6042]
      },
      "mairie": {
        "type": "Point",
        "coordinates": [1.0875, 44.5933]
      },
      "population": 256,
      "surface": 1907.39,
      "radius": 2.46
    },
    {
      "nom": "Lunas",
      "code": "24246",
      "codesPostaux": ["24130"],
      "centre": {
        "type": "Point",
        "coordinates": [0.3997, 44.9271]
      },
      "mairie": {
        "type": "Point",
        "coordinates": [0.4037, 44.9174]
      },
      "population": 445,
      "surface": 1693.09,
      "radius": 2.32
    },
    {
      "nom": "Lusignac",
      "code": "24247",
      "codesPostaux": ["24320"],
      "centre": {
        "type": "Point",
        "coordinates": [0.3147, 45.3245]
      },
      "mairie": {
        "type": "Point",
        "coordinates": [0.3123, 45.3276]
      },
      "population": 163,
      "surface": 787.71,
      "radius": 1.58
    },
    {
      "nom": "Lussas-et-Nontronneau",
      "code": "24248",
      "codesPostaux": ["24300"],
      "centre": {
        "type": "Point",
        "coordinates": [0.5792, 45.522]
      },
      "mairie": {
        "type": "Point",
        "coordinates": [0.587, 45.506]
      },
      "population": 285,
      "surface": 2298.52,
      "radius": 2.7
    },
    {
      "nom": "Manzac-sur-Vern",
      "code": "24251",
      "codesPostaux": ["24110"],
      "centre": {
        "type": "Point",
        "coordinates": [0.5914, 45.084]
      },
      "mairie": {
        "type": "Point",
        "coordinates": [0.586, 45.0882]
      },
      "population": 541,
      "surface": 2049.51,
      "radius": 2.55
    },
    {
      "nom": "Marcillac-Saint-Quentin",
      "code": "24252",
      "codesPostaux": ["24200"],
      "centre": {
        "type": "Point",
        "coordinates": [1.2024, 44.9532]
      },
      "mairie": {
        "type": "Point",
        "coordinates": [1.2142, 44.9498]
      },
      "population": 839,
      "surface": 1709.42,
      "radius": 2.33
    },
    {
      "nom": "Mareuil en Périgord",
      "code": "24253",
      "codesPostaux": ["24340"],
      "centre": {
        "type": "Point",
        "coordinates": [0.5107, 45.4476]
      },
      "mairie": {
        "type": "Point",
        "coordinates": [0.4525, 45.4516]
      },
      "population": 2316,
      "surface": 15570.94,
      "radius": 7.04
    },
    {
      "nom": "Marnac",
      "code": "24254",
      "codesPostaux": ["24220"],
      "centre": {
        "type": "Point",
        "coordinates": [1.029, 44.8328]
      },
      "mairie": {
        "type": "Point",
        "coordinates": [1.0277, 44.839]
      },
      "population": 179,
      "surface": 799.99,
      "radius": 1.6
    },
    {
      "nom": "Marquay",
      "code": "24255",
      "codesPostaux": ["24620"],
      "centre": {
        "type": "Point",
        "coordinates": [1.1284, 44.9417]
      },
      "mairie": {
        "type": "Point",
        "coordinates": [1.1349, 44.9442]
      },
      "population": 587,
      "surface": 2501.5,
      "radius": 2.82
    },
    {
      "nom": "Marsac-sur-l'Isle",
      "code": "24256",
      "codesPostaux": ["24430"],
      "centre": {
        "type": "Point",
        "coordinates": [0.6475, 45.1816]
      },
      "mairie": {
        "type": "Point",
        "coordinates": [0.6562, 45.1831]
      },
      "population": 3165,
      "surface": 1012.67,
      "radius": 1.8
    },
    {
      "nom": "Marsalès",
      "code": "24257",
      "codesPostaux": ["24540"],
      "centre": {
        "type": "Point",
        "coordinates": [0.8933, 44.6997]
      },
      "mairie": {
        "type": "Point",
        "coordinates": [0.8846, 44.6887]
      },
      "population": 225,
      "surface": 948.61,
      "radius": 1.74
    },
    {
      "nom": "Mauzac-et-Grand-Castang",
      "code": "24260",
      "codesPostaux": ["24150"],
      "centre": {
        "type": "Point",
        "coordinates": [0.7755, 44.8782]
      },
      "mairie": {
        "type": "Point",
        "coordinates": [0.7979, 44.8645]
      },
      "population": 876,
      "surface": 1587.93,
      "radius": 2.25
    },
    {
      "nom": "Mauzens-et-Miremont",
      "code": "24261",
      "codesPostaux": ["24260"],
      "centre": {
        "type": "Point",
        "coordinates": [0.9287, 44.9901]
      },
      "mairie": {
        "type": "Point",
        "coordinates": [0.9186, 44.9934]
      },
      "population": 290,
      "surface": 2040.09,
      "radius": 2.55
    },
    {
      "nom": "Mayac",
      "code": "24262",
      "codesPostaux": ["24420"],
      "centre": {
        "type": "Point",
        "coordinates": [0.9503, 45.2788]
      },
      "mairie": {
        "type": "Point",
        "coordinates": [0.9436, 45.2803]
      },
      "population": 322,
      "surface": 1171.01,
      "radius": 1.93
    },
    {
      "nom": "Mazeyrolles",
      "code": "24263",
      "codesPostaux": ["24550"],
      "centre": {
        "type": "Point",
        "coordinates": [0.996, 44.6721]
      },
      "mairie": {
        "type": "Point",
        "coordinates": [1.0191, 44.6863]
      },
      "population": 305,
      "surface": 3049.86,
      "radius": 3.12
    },
    {
      "nom": "Ménesplet",
      "code": "24264",
      "codesPostaux": ["24700"],
      "centre": {
        "type": "Point",
        "coordinates": [0.1047, 45.0029]
      },
      "mairie": {
        "type": "Point",
        "coordinates": [0.1074, 45.0166]
      },
      "population": 1911,
      "surface": 1916.11,
      "radius": 2.47
    },
    {
      "nom": "Mensignac",
      "code": "24266",
      "codesPostaux": ["24350"],
      "centre": {
        "type": "Point",
        "coordinates": [0.5569, 45.2197]
      },
      "mairie": {
        "type": "Point",
        "coordinates": [0.5598, 45.2259]
      },
      "population": 1520,
      "surface": 2556.75,
      "radius": 2.85
    },
    {
      "nom": "Mescoules",
      "code": "24267",
      "codesPostaux": ["24240"],
      "centre": {
        "type": "Point",
        "coordinates": [0.4246, 44.7424]
      },
      "mairie": {
        "type": "Point",
        "coordinates": [0.4314, 44.7445]
      },
      "population": 178,
      "surface": 485.66,
      "radius": 1.24
    },
    {
      "nom": "Meyrals",
      "code": "24268",
      "codesPostaux": ["24220"],
      "centre": {
        "type": "Point",
        "coordinates": [1.0665, 44.9057]
      },
      "mairie": {
        "type": "Point",
        "coordinates": [1.0643, 44.899]
      },
      "population": 710,
      "surface": 1872.99,
      "radius": 2.44
    },
    {
      "nom": "Mialet",
      "code": "24269",
      "codesPostaux": ["24450"],
      "centre": {
        "type": "Point",
        "coordinates": [0.9007, 45.5725]
      },
      "mairie": {
        "type": "Point",
        "coordinates": [0.9048, 45.5503]
      },
      "population": 629,
      "surface": 3847.04,
      "radius": 3.5
    },
    {
      "nom": "Milhac-de-Nontron",
      "code": "24271",
      "codesPostaux": ["24470"],
      "centre": {
        "type": "Point",
        "coordinates": [0.7902, 45.476]
      },
      "mairie": {
        "type": "Point",
        "coordinates": [0.7796, 45.4684]
      },
      "population": 512,
      "surface": 3589.48,
      "radius": 3.38
    },
    {
      "nom": "Minzac",
      "code": "24272",
      "codesPostaux": ["24610"],
      "centre": {
        "type": "Point",
        "coordinates": [0.033, 44.9609]
      },
      "mairie": {
        "type": "Point",
        "coordinates": [0.0381, 44.9729]
      },
      "population": 495,
      "surface": 1611.49,
      "radius": 2.26
    },
    {
      "nom": "Molières",
      "code": "24273",
      "codesPostaux": ["24480"],
      "centre": {
        "type": "Point",
        "coordinates": [0.824, 44.816]
      },
      "mairie": {
        "type": "Point",
        "coordinates": [0.8243, 44.8104]
      },
      "population": 352,
      "surface": 2108.01,
      "radius": 2.59
    },
    {
      "nom": "Monbazillac",
      "code": "24274",
      "codesPostaux": ["24240"],
      "centre": {
        "type": "Point",
        "coordinates": [0.4791, 44.7946]
      },
      "mairie": {
        "type": "Point",
        "coordinates": [0.4913, 44.794]
      },
      "population": 819,
      "surface": 1961.64,
      "radius": 2.5
    },
    {
      "nom": "Monestier",
      "code": "24276",
      "codesPostaux": ["24240"],
      "centre": {
        "type": "Point",
        "coordinates": [0.3194, 44.7774]
      },
      "mairie": {
        "type": "Point",
        "coordinates": [0.3268, 44.7735]
      },
      "population": 396,
      "surface": 1770.92,
      "radius": 2.37
    },
    {
      "nom": "Monfaucon",
      "code": "24277",
      "codesPostaux": ["24130"],
      "centre": {
        "type": "Point",
        "coordinates": [0.2588, 44.9193]
      },
      "mairie": {
        "type": "Point",
        "coordinates": [0.2366, 44.9114]
      },
      "population": 290,
      "surface": 2482.1,
      "radius": 2.81
    },
    {
      "nom": "Monmadalès",
      "code": "24278",
      "codesPostaux": ["24560"],
      "centre": {
        "type": "Point",
        "coordinates": [0.6164, 44.7681]
      },
      "mairie": {
        "type": "Point",
        "coordinates": [0.6212, 44.7664]
      },
      "population": 80,
      "surface": 507.51,
      "radius": 1.27
    },
    {
      "nom": "Monmarvès",
      "code": "24279",
      "codesPostaux": ["24560"],
      "centre": {
        "type": "Point",
        "coordinates": [0.6108, 44.7049]
      },
      "mairie": {
        "type": "Point",
        "coordinates": [0.6122, 44.7091]
      },
      "population": 61,
      "surface": 570.15,
      "radius": 1.35
    },
    {
      "nom": "Monpazier",
      "code": "24280",
      "codesPostaux": ["24540"],
      "centre": {
        "type": "Point",
        "coordinates": [0.8938, 44.6811]
      },
      "mairie": {
        "type": "Point",
        "coordinates": [0.8948, 44.6797]
      },
      "population": 442,
      "surface": 54.41,
      "radius": 0.42
    },
    {
      "nom": "Monplaisant",
      "code": "24293",
      "codesPostaux": ["24170"],
      "centre": {
        "type": "Point",
        "coordinates": [0.9932, 44.7896]
      },
      "mairie": {
        "type": "Point",
        "coordinates": [0.9988, 44.789]
      },
      "population": 268,
      "surface": 557.44,
      "radius": 1.33
    },
    {
      "nom": "Monsac",
      "code": "24281",
      "codesPostaux": ["24440"],
      "centre": {
        "type": "Point",
        "coordinates": [0.6963, 44.778]
      },
      "mairie": {
        "type": "Point",
        "coordinates": [0.6982, 44.7817]
      },
      "population": 178,
      "surface": 1087.18,
      "radius": 1.86
    },
    {
      "nom": "Monsaguel",
      "code": "24282",
      "codesPostaux": ["24560"],
      "centre": {
        "type": "Point",
        "coordinates": [0.573, 44.7397]
      },
      "mairie": {
        "type": "Point",
        "coordinates": [0.5805, 44.7378]
      },
      "population": 135,
      "surface": 1156.92,
      "radius": 1.92
    },
    {
      "nom": "Montagnac-d'Auberoche",
      "code": "24284",
      "codesPostaux": ["24210"],
      "centre": {
        "type": "Point",
        "coordinates": [0.9566, 45.1875]
      },
      "mairie": {
        "type": "Point",
        "coordinates": [0.9557, 45.1869]
      },
      "population": 137,
      "surface": 1025.96,
      "radius": 1.81
    },
    {
      "nom": "Montagnac-la-Crempse",
      "code": "24285",
      "codesPostaux": ["24140"],
      "centre": {
        "type": "Point",
        "coordinates": [0.5382, 44.9797]
      },
      "mairie": {
        "type": "Point",
        "coordinates": [0.5459, 44.9799]
      },
      "population": 391,
      "surface": 2555.33,
      "radius": 2.85
    },
    {
      "nom": "Montagrier",
      "code": "24286",
      "codesPostaux": ["24350"],
      "centre": {
        "type": "Point",
        "coordinates": [0.4857, 45.2731]
      },
      "mairie": {
        "type": "Point",
        "coordinates": [0.4776, 45.2697]
      },
      "population": 507,
      "surface": 1434.61,
      "radius": 2.14
    },
    {
      "nom": "Montaut",
      "code": "24287",
      "codesPostaux": ["24560"],
      "centre": {
        "type": "Point",
        "coordinates": [0.647, 44.7505]
      },
      "mairie": {
        "type": "Point",
        "coordinates": [0.6267, 44.748]
      },
      "population": 127,
      "surface": 1639.13,
      "radius": 2.28
    },
    {
      "nom": "Montazeau",
      "code": "24288",
      "codesPostaux": ["24230"],
      "centre": {
        "type": "Point",
        "coordinates": [0.1299, 44.9015]
      },
      "mairie": {
        "type": "Point",
        "coordinates": [0.1301, 44.894]
      },
      "population": 280,
      "surface": 1399.54,
      "radius": 2.11
    },
    {
      "nom": "Montcaret",
      "code": "24289",
      "codesPostaux": ["24230"],
      "centre": {
        "type": "Point",
        "coordinates": [0.0686, 44.8656]
      },
      "mairie": {
        "type": "Point",
        "coordinates": [0.0656, 44.8555]
      },
      "population": 1405,
      "surface": 1772.95,
      "radius": 2.38
    },
    {
      "nom": "Montferrand-du-Périgord",
      "code": "24290",
      "codesPostaux": ["24440"],
      "centre": {
        "type": "Point",
        "coordinates": [0.8738, 44.7563]
      },
      "mairie": {
        "type": "Point",
        "coordinates": [0.8661, 44.7506]
      },
      "population": 155,
      "surface": 1318.6,
      "radius": 2.05
    },
    {
      "nom": "Montignac-Lascaux",
      "code": "24291",
      "codesPostaux": ["24290"],
      "centre": {
        "type": "Point",
        "coordinates": [1.1589, 45.0644]
      },
      "mairie": {
        "type": "Point",
        "coordinates": [1.1612, 45.0648]
      },
      "population": 2760,
      "surface": 3628.4,
      "radius": 3.4
    },
    {
      "nom": "Montpeyroux",
      "code": "24292",
      "codesPostaux": ["24610"],
      "centre": {
        "type": "Point",
        "coordinates": [0.0651, 44.9155]
      },
      "mairie": {
        "type": "Point",
        "coordinates": [0.0568, 44.92]
      },
      "population": 502,
      "surface": 2380.74,
      "radius": 2.75
    },
    {
      "nom": "Montpon-Ménestérol",
      "code": "24294",
      "codesPostaux": ["24700"],
      "centre": {
        "type": "Point",
        "coordinates": [0.147, 45.0163]
      },
      "mairie": {
        "type": "Point",
        "coordinates": [0.1623, 45.009]
      },
      "population": 5845,
      "surface": 4664.38,
      "radius": 3.85
    },
    {
      "nom": "Montrem",
      "code": "24295",
      "codesPostaux": ["24110"],
      "centre": {
        "type": "Point",
        "coordinates": [0.5818, 45.1348]
      },
      "mairie": {
        "type": "Point",
        "coordinates": [0.5757, 45.1502]
      },
      "population": 1203,
      "surface": 2078.85,
      "radius": 2.57
    },
    {
      "nom": "Mouleydier",
      "code": "24296",
      "codesPostaux": ["24520"],
      "centre": {
        "type": "Point",
        "coordinates": [0.6129, 44.8612]
      },
      "mairie": {
        "type": "Point",
        "coordinates": [0.5952, 44.8547]
      },
      "population": 1155,
      "surface": 857.21,
      "radius": 1.65
    },
    {
      "nom": "Moulin-Neuf",
      "code": "24297",
      "codesPostaux": ["24700"],
      "centre": {
        "type": "Point",
        "coordinates": [0.06, 45.0011]
      },
      "mairie": {
        "type": "Point",
        "coordinates": [0.0517, 45.0109]
      },
      "population": 973,
      "surface": 878.5,
      "radius": 1.67
    },
    {
      "nom": "Mussidan",
      "code": "24299",
      "codesPostaux": ["24400"],
      "centre": {
        "type": "Point",
        "coordinates": [0.3641, 45.0298]
      },
      "mairie": {
        "type": "Point",
        "coordinates": [0.3644, 45.0371]
      },
      "population": 2778,
      "surface": 384.01,
      "radius": 1.11
    },
    {
      "nom": "Nabirat",
      "code": "24300",
      "codesPostaux": ["24250"],
      "centre": {
        "type": "Point",
        "coordinates": [1.291, 44.7667]
      },
      "mairie": {
        "type": "Point",
        "coordinates": [1.2978, 44.7529]
      },
      "population": 350,
      "surface": 1687.2,
      "radius": 2.32
    },
    {
      "nom": "Nadaillac",
      "code": "24301",
      "codesPostaux": ["24590"],
      "centre": {
        "type": "Point",
        "coordinates": [1.4029, 45.032]
      },
      "mairie": {
        "type": "Point",
        "coordinates": [1.3966, 45.0395]
      },
      "population": 376,
      "surface": 2765.86,
      "radius": 2.97
    },
    {
      "nom": "Nailhac",
      "code": "24302",
      "codesPostaux": ["24390"],
      "centre": {
        "type": "Point",
        "coordinates": [1.1564, 45.225]
      },
      "mairie": {
        "type": "Point",
        "coordinates": [1.153, 45.2265]
      },
      "population": 292,
      "surface": 1997.01,
      "radius": 2.52
    },
    {
      "nom": "Nanteuil-Auriac-de-Bourzac",
      "code": "24303",
      "codesPostaux": ["24320"],
      "centre": {
        "type": "Point",
        "coordinates": [0.2862, 45.3795]
      },
      "mairie": {
        "type": "Point",
        "coordinates": [0.2915, 45.3843]
      },
      "population": 233,
      "surface": 2080.02,
      "radius": 2.57
    },
    {
      "nom": "Nantheuil",
      "code": "24304",
      "codesPostaux": ["24800"],
      "centre": {
        "type": "Point",
        "coordinates": [0.9614, 45.4237]
      },
      "mairie": {
        "type": "Point",
        "coordinates": [0.9441, 45.4135]
      },
      "population": 984,
      "surface": 1762.2,
      "radius": 2.37
    },
    {
      "nom": "Nanthiat",
      "code": "24305",
      "codesPostaux": ["24800"],
      "centre": {
        "type": "Point",
        "coordinates": [0.9822, 45.4101]
      },
      "mairie": {
        "type": "Point",
        "coordinates": [0.9851, 45.4086]
      },
      "population": 239,
      "surface": 1120.18,
      "radius": 1.89
    },
    {
      "nom": "Nastringues",
      "code": "24306",
      "codesPostaux": ["24230"],
      "centre": {
        "type": "Point",
        "coordinates": [0.1512, 44.8719]
      },
      "mairie": {
        "type": "Point",
        "coordinates": [0.1535, 44.8748]
      },
      "population": 135,
      "surface": 620.93,
      "radius": 1.41
    },
    {
      "nom": "Naussannes",
      "code": "24307",
      "codesPostaux": ["24440"],
      "centre": {
        "type": "Point",
        "coordinates": [0.7175, 44.7474]
      },
      "mairie": {
        "type": "Point",
        "coordinates": [0.7248, 44.7575]
      },
      "population": 236,
      "surface": 1499.38,
      "radius": 2.18
    },
    {
      "nom": "Négrondes",
      "code": "24308",
      "codesPostaux": ["24460"],
      "centre": {
        "type": "Point",
        "coordinates": [0.8769, 45.3396]
      },
      "mairie": {
        "type": "Point",
        "coordinates": [0.8676, 45.3465]
      },
      "population": 782,
      "surface": 2086.58,
      "radius": 2.58
    },
    {
      "nom": "Neuvic",
      "code": "24309",
      "codesPostaux": ["24190"],
      "centre": {
        "type": "Point",
        "coordinates": [0.4728, 45.0889]
      },
      "mairie": {
        "type": "Point",
        "coordinates": [0.4696, 45.0998]
      },
      "population": 3663,
      "surface": 2588.29,
      "radius": 2.87
    },
    {
      "nom": "Nontron",
      "code": "24311",
      "codesPostaux": ["24300"],
      "centre": {
        "type": "Point",
        "coordinates": [0.6823, 45.5337]
      },
      "mairie": {
        "type": "Point",
        "coordinates": [0.6626, 45.5295]
      },
      "population": 3049,
      "surface": 2563.46,
      "radius": 2.86
    },
    {
      "nom": "Orliac",
      "code": "24313",
      "codesPostaux": ["24170"],
      "centre": {
        "type": "Point",
        "coordinates": [1.0613, 44.7121]
      },
      "mairie": {
        "type": "Point",
        "coordinates": [1.0684, 44.7167]
      },
      "population": 45,
      "surface": 1078.21,
      "radius": 1.85
    },
    {
      "nom": "Parcoul-Chenaud",
      "code": "24316",
      "codesPostaux": ["24410"],
      "centre": {
        "type": "Point",
        "coordinates": [0.0579, 45.1981]
      },
      "mairie": {
        "type": "Point",
        "coordinates": [0.0348, 45.2052]
      },
      "population": 809,
      "surface": 2680.91,
      "radius": 2.92
    },
    {
      "nom": "Paulin",
      "code": "24317",
      "codesPostaux": ["24590"],
      "centre": {
        "type": "Point",
        "coordinates": [1.3314, 44.9969]
      },
      "mairie": {
        "type": "Point",
        "coordinates": [1.3478, 45.0026]
      },
      "population": 245,
      "surface": 1174.88,
      "radius": 1.93
    },
    {
      "nom": "Paunat",
      "code": "24318",
      "codesPostaux": ["24510"],
      "centre": {
        "type": "Point",
        "coordinates": [0.8532, 44.9029]
      },
      "mairie": {
        "type": "Point",
        "coordinates": [0.8592, 44.9056]
      },
      "population": 318,
      "surface": 1779.1,
      "radius": 2.38
    },
    {
      "nom": "Paussac-et-Saint-Vivien",
      "code": "24319",
      "codesPostaux": ["24310"],
      "centre": {
        "type": "Point",
        "coordinates": [0.5427, 45.3394]
      },
      "mairie": {
        "type": "Point",
        "coordinates": [0.5393, 45.3485]
      },
      "population": 455,
      "surface": 2232.02,
      "radius": 2.67
    },
    {
      "nom": "Pays de Belvès",
      "code": "24035",
      "codesPostaux": ["24170"],
      "centre": {
        "type": "Point",
        "coordinates": [1.005, 44.7492]
      },
      "mairie": {
        "type": "Point",
        "coordinates": [1.0055, 44.777]
      },
      "population": 1310,
      "surface": 3166.48,
      "radius": 3.17
    },
    {
      "nom": "Payzac",
      "code": "24320",
      "codesPostaux": ["24270"],
      "centre": {
        "type": "Point",
        "coordinates": [1.229, 45.42]
      },
      "mairie": {
        "type": "Point",
        "coordinates": [1.2194, 45.4004]
      },
      "population": 977,
      "surface": 4900.98,
      "radius": 3.95
    },
    {
      "nom": "Pazayac",
      "code": "24321",
      "codesPostaux": ["24120"],
      "centre": {
        "type": "Point",
        "coordinates": [1.375, 45.1243]
      },
      "mairie": {
        "type": "Point",
        "coordinates": [1.3788, 45.1215]
      },
      "population": 803,
      "surface": 685.98,
      "radius": 1.48
    },
    {
      "nom": "Pechs-de-l'Espérance",
      "code": "24325",
      "codesPostaux": ["24370"],
      "centre": {
        "type": "Point",
        "coordinates": [1.4006, 44.9]
      },
      "mairie": {
        "type": "Point",
        "coordinates": [1.4093, 44.8857]
      },
      "population": 784,
      "surface": 1995.93,
      "radius": 2.52
    },
    {
      "nom": "Périgueux",
      "code": "24322",
      "codesPostaux": ["24000"],
      "centre": {
        "type": "Point",
        "coordinates": [0.7105, 45.1939]
      },
      "mairie": {
        "type": "Point",
        "coordinates": [0.7157, 45.1837]
      },
      "population": 29876,
      "surface": 1012.08,
      "radius": 1.79
    },
    {
      "nom": "Petit-Bersac",
      "code": "24323",
      "codesPostaux": ["24600"],
      "centre": {
        "type": "Point",
        "coordinates": [0.2263, 45.2664]
      },
      "mairie": {
        "type": "Point",
        "coordinates": [0.2329, 45.2879]
      },
      "population": 187,
      "surface": 1080.34,
      "radius": 1.85
    },
    {
      "nom": "Peyrignac",
      "code": "24324",
      "codesPostaux": ["24210"],
      "centre": {
        "type": "Point",
        "coordinates": [1.1934, 45.1611]
      },
      "mairie": {
        "type": "Point",
        "coordinates": [1.1917, 45.1567]
      },
      "population": 594,
      "surface": 656.34,
      "radius": 1.45
    },
    {
      "nom": "Peyzac-le-Moustier",
      "code": "24326",
      "codesPostaux": ["24620"],
      "centre": {
        "type": "Point",
        "coordinates": [1.0795, 44.983]
      },
      "mairie": {
        "type": "Point",
        "coordinates": [1.0788, 44.9911]
      },
      "population": 198,
      "surface": 1007.98,
      "radius": 1.79
    },
    {
      "nom": "Pezuls",
      "code": "24327",
      "codesPostaux": ["24510"],
      "centre": {
        "type": "Point",
        "coordinates": [0.8052, 44.9118]
      },
      "mairie": {
        "type": "Point",
        "coordinates": [0.8082, 44.9132]
      },