{
  "departmentCode": "30",
  "departmentName": "Gard",
  "stats": {
    "communeCount": 350,
    "totalPopulation": 763854,
    "totalSurface": 587628
  },
  "communes": [
    {
      "nom": "Aigaliers",
      "code": "30001",
      "codesPostaux": ["30700"],
      "centre": {
        "type": "Point",
        "coordinates": [4.3092, 44.0703]
      },
      "mairie": {
        "type": "Point",
        "coordinates": [4.3217, 44.0585]
      },
      "population": 534,
      "surface": 2791.46,
      "radius": 2.98
    },
    {
      "nom": "Aigremont",
      "code": "30002",
      "codesPostaux": ["30350"],
      "centre": {
        "type": "Point",
        "coordinates": [4.1155, 43.9594]
      },
      "mairie": {
        "type": "Point",
        "coordinates": [4.1215, 43.9661]
      },
      "population": 777,
      "surface": 1257.55,
      "radius": 2
    },
    {
      "nom": "Aigues-Mortes",
      "code": "30003",
      "codesPostaux": ["30220"],
      "centre": {
        "type": "Point",
        "coordinates": [4.1606, 43.5482]
      },
      "mairie": {
        "type": "Point",
        "coordinates": [4.1904, 43.5665]
      },
      "population": 8707,
      "surface": 5765.96,
      "radius": 4.28
    },
    {
      "nom": "Aigues-Vives",
      "code": "30004",
      "codesPostaux": ["30670"],
      "centre": {
        "type": "Point",
        "coordinates": [4.193, 43.7343]
      },
      "mairie": {
        "type": "Point",
        "coordinates": [4.1801, 43.7398]
      },
      "population": 3340,
      "surface": 1205.68,
      "radius": 1.96
    },
    {
      "nom": "Aiguèze",
      "code": "30005",
      "codesPostaux": ["30760"],
      "centre": {
        "type": "Point",
        "coordinates": [4.5184, 44.3124]
      },
      "mairie": {
        "type": "Point",
        "coordinates": [4.5565, 44.3026]
      },
      "population": 212,
      "surface": 2009.74,
      "radius": 2.53
    },
    {
      "nom": "Aimargues",
      "code": "30006",
      "codesPostaux": ["30470"],
      "centre": {
        "type": "Point",
        "coordinates": [4.201, 43.6667]
      },
      "mairie": {
        "type": "Point",
        "coordinates": [4.2093, 43.6847]
      },
      "population": 5806,
      "surface": 2661.24,
      "radius": 2.91
    },
    {
      "nom": "Alès",
      "code": "30007",
      "codesPostaux": ["30100"],
      "centre": {
        "type": "Point",
        "coordinates": [4.0905, 44.125]
      },
      "mairie": {
        "type": "Point",
        "coordinates": [4.0775, 44.1251]
      },
      "population": 45025,
      "surface": 2328.26,
      "radius": 2.72
    },
    {
      "nom": "Allègre-les-Fumades",
      "code": "30008",
      "codesPostaux": ["30500"],
      "centre": {
        "type": "Point",
        "coordinates": [4.2536, 44.2016]
      },
      "mairie": {
        "type": "Point",
        "coordinates": [4.234, 44.1847]
      },
      "population": 1013,
      "surface": 2511.78,
      "radius": 2.83
    },
    {
      "nom": "Alzon",
      "code": "30009",
      "codesPostaux": ["30770"],
      "centre": {
        "type": "Point",
        "coordinates": [3.4466, 43.974]
      },
      "mairie": {
        "type": "Point",
        "coordinates": [3.4393, 43.9668]
      },
      "population": 184,
      "surface": 2764.63,
      "radius": 2.97
    },
    {
      "nom": "Anduze",
      "code": "30010",
      "codesPostaux": ["30140"],
      "centre": {
        "type": "Point",
        "coordinates": [3.9766, 44.054]
      },
      "mairie": {
        "type": "Point",
        "coordinates": [3.9866, 44.0534]
      },
      "population": 3322,
      "surface": 1461.26,
      "radius": 2.16
    },
    {
      "nom": "Aramon",
      "code": "30012",
      "codesPostaux": ["30390"],
      "centre": {
        "type": "Point",
        "coordinates": [4.6869, 43.8997]
      },
      "mairie": {
        "type": "Point",
        "coordinates": [4.6798, 43.8895]
      },
      "population": 4082,
      "surface": 3112.51,
      "radius": 3.15
    },
    {
      "nom": "Argilliers",
      "code": "30013",
      "codesPostaux": ["30210"],
      "centre": {
        "type": "Point",
        "coordinates": [4.49, 43.9819]
      },
      "mairie": {
        "type": "Point",
        "coordinates": [4.495, 43.9795]
      },
      "population": 441,
      "surface": 673.91,
      "radius": 1.46
    },
    {
      "nom": "Arpaillargues-et-Aureillac",
      "code": "30014",
      "codesPostaux": ["30700"],
      "centre": {
        "type": "Point",
        "coordinates": [4.3687, 43.9985]
      },
      "mairie": {
        "type": "Point",
        "coordinates": [4.3721, 44.0006]
      },
      "population": 1048,
      "surface": 1372.19,
      "radius": 2.09
    },
    {
      "nom": "Arphy",
      "code": "30015",
      "codesPostaux": ["30120"],
      "centre": {
        "type": "Point",
        "coordinates": [3.5875, 44.0414]
      },
      "mairie": {
        "type": "Point",
        "coordinates": [3.5967, 44.0182]
      },
      "population": 138,
      "surface": 2097.07,
      "radius": 2.58
    },
    {
      "nom": "Arre",
      "code": "30016",
      "codesPostaux": ["30120"],
      "centre": {
        "type": "Point",
        "coordinates": [3.5258, 43.9584]
      },
      "mairie": {
        "type": "Point",
        "coordinates": [3.5204, 43.9672]
      },
      "population": 258,
      "surface": 724.01,
      "radius": 1.52
    },
    {
      "nom": "Arrigas",
      "code": "30017",
      "codesPostaux": ["30770"],
      "centre": {
        "type": "Point",
        "coordinates": [3.4806, 43.9927]
      },
      "mairie": {
        "type": "Point",
        "coordinates": [3.4803, 43.9891]
      },
      "population": 214,
      "surface": 2022.28,
      "radius": 2.54
    },
    {
      "nom": "Aspères",
      "code": "30018",
      "codesPostaux": ["30250"],
      "centre": {
        "type": "Point",
        "coordinates": [4.0325, 43.8066]
      },
      "mairie": {
        "type": "Point",
        "coordinates": [4.0404, 43.8088]
      },
      "population": 553,
      "surface": 1001.76,
      "radius": 1.79
    },
    {
      "nom": "Aubais",
      "code": "30019",
      "codesPostaux": ["30250"],
      "centre": {
        "type": "Point",
        "coordinates": [4.1422, 43.7498]
      },
      "mairie": {
        "type": "Point",
        "coordinates": [4.1479, 43.7534]
      },
      "population": 2938,
      "surface": 1187.89,
      "radius": 1.94
    },
    {
      "nom": "Aubord",
      "code": "30020",
      "codesPostaux": ["30620"],
      "centre": {
        "type": "Point",
        "coordinates": [4.3162, 43.7533]
      },
      "mairie": {
        "type": "Point",
        "coordinates": [4.3131, 43.7576]
      },
      "population": 2296,
      "surface": 950.1,
      "radius": 1.74
    },
    {
      "nom": "Aubussargues",
      "code": "30021",
      "codesPostaux": ["30190"],
      "centre": {
        "type": "Point",
        "coordinates": [4.3256, 44.011]
      },
      "mairie": {
        "type": "Point",
        "coordinates": [4.3252, 44.0072]
      },
      "population": 326,
      "surface": 824.57,
      "radius": 1.62
    },
    {
      "nom": "Aujac",
      "code": "30022",
      "codesPostaux": ["30450"],
      "centre": {
        "type": "Point",
        "coordinates": [4.0169, 44.3559]
      },
      "mairie": {
        "type": "Point",
        "coordinates": [4.0144, 44.3481]
      },
      "population": 157,
      "surface": 1646.78,
      "radius": 2.29
    },
    {
      "nom": "Aujargues",
      "code": "30023",
      "codesPostaux": ["30250"],
      "centre": {
        "type": "Point",
        "coordinates": [4.1253, 43.7918]
      },
      "mairie": {
        "type": "Point",
        "coordinates": [4.1223, 43.7889]
      },
      "population": 769,
      "surface": 690.27,
      "radius": 1.48
    },
    {
      "nom": "Aulas",
      "code": "30024",
      "codesPostaux": ["30120"],
      "centre": {
        "type": "Point",
        "coordinates": [3.5896, 43.9955]
      },
      "mairie": {
        "type": "Point",
        "coordinates": [3.5862, 44.0013]
      },
      "population": 445,
      "surface": 293.37,
      "radius": 0.97
    },
    {
      "nom": "Aumessas",
      "code": "30025",
      "codesPostaux": ["30770"],
      "centre": {
        "type": "Point",
        "coordinates": [3.5126, 44.0074]
      },
      "mairie": {
        "type": "Point",
        "coordinates": [3.5031, 43.9906]
      },
      "population": 252,
      "surface": 2128.81,
      "radius": 2.6
    },
    {
      "nom": "Avèze",
      "code": "30026",
      "codesPostaux": ["30120"],
      "centre": {
        "type": "Point",
        "coordinates": [3.5992, 43.9748]
      },
      "mairie": {
        "type": "Point",
        "coordinates": [3.6008, 43.9704]
      },
      "population": 1059,
      "surface": 411.75,
      "radius": 1.14
    },
    {
      "nom": "Bagard",
      "code": "30027",
      "codesPostaux": ["30140"],
      "centre": {
        "type": "Point",
        "coordinates": [4.0422, 44.0684]
      },
      "mairie": {
        "type": "Point",
        "coordinates": [4.0531, 44.0735]
      },
      "population": 2595,
      "surface": 1448.02,
      "radius": 2.15
    },
    {
      "nom": "Bagnols-sur-Cèze",
      "code": "30028",
      "codesPostaux": ["30200"],
      "centre": {
        "type": "Point",
        "coordinates": [4.6244, 44.1622]
      },
      "mairie": {
        "type": "Point",
        "coordinates": [4.6204, 44.1619]
      },
      "population": 18124,
      "surface": 3123.04,
      "radius": 3.15
    },
    {
      "nom": "Barjac",
      "code": "30029",
      "codesPostaux": ["30430"],
      "centre": {
        "type": "Point",
        "coordinates": [4.3456, 44.3137]
      },
      "mairie": {
        "type": "Point",
        "coordinates": [4.3462, 44.3079]
      },
      "population": 1606,
      "surface": 4296.18,
      "radius": 3.7
    },
    {
      "nom": "Baron",
      "code": "30030",
      "codesPostaux": ["30700"],
      "centre": {
        "type": "Point",
        "coordinates": [4.2722, 44.0552]
      },
      "mairie": {
        "type": "Point",
        "coordinates": [4.283, 44.0493]
      },
      "population": 338,
      "surface": 1009.94,
      "radius": 1.79
    },
    {
      "nom": "Beaucaire",
      "code": "30032",
      "codesPostaux": ["30300"],
      "centre": {
        "type": "Point",
        "coordinates": [4.5912, 43.7815]
      },
      "mairie": {
        "type": "Point",
        "coordinates": [4.6443, 43.8073]
      },
      "population": 15695,
      "surface": 8649.72,
      "radius": 5.25
    },
    {
      "nom": "Beauvoisin",
      "code": "30033",
      "codesPostaux": ["30640"],
      "centre": {
        "type": "Point",
        "coordinates": [4.3222, 43.6896]
      },
      "mairie": {
        "type": "Point",
        "coordinates": [4.3232, 43.7183]
      },
      "population": 5823,
      "surface": 2802.8,
      "radius": 2.99
    },
    {
      "nom": "Bellegarde",
      "code": "30034",
      "codesPostaux": ["30127"],
      "centre": {
        "type": "Point",
        "coordinates": [4.4967, 43.7483]
      },
      "mairie": {
        "type": "Point",
        "coordinates": [4.5141, 43.7539]
      },
      "population": 7929,
      "surface": 4514.64,
      "radius": 3.79
    },
    {
      "nom": "Belvézet",
      "code": "30035",
      "codesPostaux": ["30580"],
      "centre": {
        "type": "Point",
        "coordinates": [4.3545, 44.0904]
      },
      "mairie": {
        "type": "Point",
        "coordinates": [4.3649, 44.0846]
      },
      "population": 235,
      "surface": 2245.26,
      "radius": 2.67
    },
    {
      "nom": "Bernis",
      "code": "30036",
      "codesPostaux": ["30620"],
      "centre": {
        "type": "Point",
        "coordinates": [4.2824, 43.7673]
      },
      "mairie": {
        "type": "Point",
        "coordinates": [4.2854, 43.7657]
      },
      "population": 3341,
      "surface": 1281.98,
      "radius": 2.02
    },
    {
      "nom": "Bessèges",
      "code": "30037",
      "codesPostaux": ["30160"],
      "centre": {
        "type": "Point",
        "coordinates": [4.107, 44.2889]
      },
      "mairie": {
        "type": "Point",
        "coordinates": [4.0919, 44.2935]
      },
      "population": 2624,
      "surface": 1035.86,
      "radius": 1.82
    },
    {
      "nom": "Bez-et-Esparon",
      "code": "30038",
      "codesPostaux": ["30120"],
      "centre": {
        "type": "Point",
        "coordinates": [3.5356, 43.9792]
      },
      "mairie": {
        "type": "Point",
        "coordinates": [3.53, 43.9724]
      },
      "population": 330,
      "surface": 837.63,
      "radius": 1.63
    },
    {
      "nom": "Bezouce",
      "code": "30039",
      "codesPostaux": ["30320"],
      "centre": {
        "type": "Point",
        "coordinates": [4.5019, 43.8767]
      },
      "mairie": {
        "type": "Point",
        "coordinates": [4.4905, 43.8819]
      },
      "population": 2341,
      "surface": 1249.97,
      "radius": 1.99
    },
    {
      "nom": "Blandas",
      "code": "30040",
      "codesPostaux": ["30770"],
      "centre": {
        "type": "Point",
        "coordinates": [3.5074, 43.921]
      },
      "mairie": {
        "type": "Point",
        "coordinates": [3.5133, 43.9131]
      },
      "population": 133,
      "surface": 3766.28,
      "radius": 3.46
    },
    {
      "nom": "Blauzac",
      "code": "30041",
      "codesPostaux": ["30700"],
      "centre": {
        "type": "Point",
        "coordinates": [4.3727, 43.9667]
      },
      "mairie": {
        "type": "Point",
        "coordinates": [4.37, 43.9641]
      },
      "population": 1228,
      "surface": 1588.49,
      "radius": 2.25
    },
    {
      "nom": "Boisset-et-Gaujac",
      "code": "30042",
      "codesPostaux": ["30140"],
      "centre": {
        "type": "Point",
        "coordinates": [4.0282, 44.0508]
      },
      "mairie": {
        "type": "Point",
        "coordinates": [4.0196, 44.0493]
      },
      "population": 2621,
      "surface": 1437.31,
      "radius": 2.14
    },
    {
      "nom": "Boissières",
      "code": "30043",
      "codesPostaux": ["30114"],
      "centre": {
        "type": "Point",
        "coordinates": [4.2277, 43.7695]
      },
      "mairie": {
        "type": "Point",
        "coordinates": [4.234, 43.7745]
      },
      "population": 595,
      "surface": 336.21,
      "radius": 1.03
    },
    {
      "nom": "Bonnevaux",
      "code": "30044",
      "codesPostaux": ["30450"],
      "centre": {
        "type": "Point",
        "coordinates": [4.0374, 44.3724]
      },
      "mairie": {
        "type": "Point",
        "coordinates": [4.031, 44.3682]
      },
      "population": 77,
      "surface": 890.08,
      "radius": 1.68
    },
    {
      "nom": "Bordezac",
      "code": "30045",
      "codesPostaux": ["30160"],
      "centre": {
        "type": "Point",
        "coordinates": [4.0843, 44.3161]
      },
      "mairie": {
        "type": "Point",
        "coordinates": [4.0771, 44.3139]
      },
      "population": 392,
      "surface": 937.13,
      "radius": 1.73
    },
    {
      "nom": "Boucoiran-et-Nozières",
      "code": "30046",
      "codesPostaux": ["30190"],
      "centre": {
        "type": "Point",
        "coordinates": [4.1816, 43.9937]
      },
      "mairie": {
        "type": "Point",
        "coordinates": [4.1858, 43.9944]
      },
      "population": 995,
      "surface": 1450.09,
      "radius": 2.15
    },
    {
      "nom": "Bouillargues",
      "code": "30047",
      "codesPostaux": ["30230"],
      "centre": {
        "type": "Point",
        "coordinates": [4.4345, 43.7989]
      },
      "mairie": {
        "type": "Point",
        "coordinates": [4.4249, 43.8006]
      },
      "population": 6119,
      "surface": 1595.79,
      "radius": 2.25
    },
    {
      "nom": "Bouquet",
      "code": "30048",
      "codesPostaux": ["30580"],
      "centre": {
        "type": "Point",
        "coordinates": [4.2944, 44.1517]
      },
      "mairie": {
        "type": "Point",
        "coordinates": [4.2897, 44.1595]
      },
      "population": 197,
      "surface": 3029.95,
      "radius": 3.11
    },
    {
      "nom": "Bourdic",
      "code": "30049",
      "codesPostaux": ["30190"],
      "centre": {
        "type": "Point",
        "coordinates": [4.3357, 43.9777]
      },
      "mairie": {
        "type": "Point",
        "coordinates": [4.3294, 43.9838]
      },
      "population": 364,
      "surface": 730.32,
      "radius": 1.52
    },
    {
      "nom": "Bragassargues",
      "code": "30050",
      "codesPostaux": ["30260"],
      "centre": {
        "type": "Point",
        "coordinates": [4.0475, 43.9181]
      },
      "mairie": {
        "type": "Point",
        "coordinates": [4.0517, 43.9169]
      },
      "population": 168,
      "surface": 764.32,
      "radius": 1.56
    },
    {
      "nom": "Branoux-les-Taillades",
      "code": "30051",
      "codesPostaux": ["30110"],
      "centre": {
        "type": "Point",
        "coordinates": [3.9822, 44.2292]
      },
      "mairie": {
        "type": "Point",
        "coordinates": [3.9899, 44.2204]
      },
      "population": 1297,
      "surface": 1504.13,
      "radius": 2.19
    },
    {
      "nom": "Bréau-Mars",
      "code": "30052",
      "codesPostaux": ["30120"],
      "centre": {
        "type": "Point",
        "coordinates": [3.5581, 44.0305]
      },
      "mairie": {
        "type": "Point",
        "coordinates": [3.5726, 43.989]
      },
      "population": 679,
      "surface": 2848.39,
      "radius": 3.01
    },
    {
      "nom": "Brignon",
      "code": "30053",
      "codesPostaux": ["30190"],
      "centre": {
        "type": "Point",
        "coordinates": [4.2137, 43.9956]
      },
      "mairie": {
        "type": "Point",
        "coordinates": [4.2136, 43.9892]
      },
      "population": 713,
      "surface": 678.99,
      "radius": 1.47
    },
    {
      "nom": "Brouzet-lès-Alès",
      "code": "30055",
      "codesPostaux": ["30580"],
      "centre": {
        "type": "Point",
        "coordinates": [4.2533, 44.1338]
      },
      "mairie": {
        "type": "Point",
        "coordinates": [4.2454, 44.1375]
      },
      "population": 681,
      "surface": 1307.51,
      "radius": 2.04
    },
    {
      "nom": "Brouzet-lès-Quissac",
      "code": "30054",
      "codesPostaux": ["30260"],
      "centre": {
        "type": "Point",
        "coordinates": [3.9863, 43.863]
      },
      "mairie": {
        "type": "Point",
        "coordinates": [3.9897, 43.862]
      },
      "population": 299,
      "surface": 1592.35,
      "radius": 2.25
    },
    {
      "nom": "Cabrières",
      "code": "30057",
      "codesPostaux": ["30210"],
      "centre": {
        "type": "Point",
        "coordinates": [4.4687, 43.9079]
      },
      "mairie": {
        "type": "Point",
        "coordinates": [4.473, 43.9032]
      },
      "population": 1781,
      "surface": 1484.27,
      "radius": 2.17
    },
    {
      "nom": "Caissargues",
      "code": "30060",
      "codesPostaux": ["30132"],
      "centre": {
        "type": "Point",
        "coordinates": [4.3919, 43.7924]
      },
      "mairie": {
        "type": "Point",
        "coordinates": [4.3786, 43.7949]
      },
      "population": 4077,
      "surface": 859.16,
      "radius": 1.65
    },
    {
      "nom": "Calvisson",
      "code": "30062",
      "codesPostaux": ["30420"],
      "centre": {
        "type": "Point",
        "coordinates": [4.189, 43.7853]
      },
      "mairie": {
        "type": "Point",
        "coordinates": [4.1909, 43.7848]
      },
      "population": 6295,
      "surface": 2901.34,
      "radius": 3.04
    },
    {
      "nom": "Campestre-et-Luc",
      "code": "30064",
      "codesPostaux": ["30770"],
      "centre": {
        "type": "Point",
        "coordinates": [3.4064, 43.9397]
      },
      "mairie": {
        "type": "Point",
        "coordinates": [3.4199, 43.9531]
      },
      "population": 153,
      "surface": 3836.14,
      "radius": 3.49
    },
    {
      "nom": "Canaules-et-Argentières",
      "code": "30065",
      "codesPostaux": ["30350"],
      "centre": {
        "type": "Point",
        "coordinates": [4.0473, 43.9788]
      },
      "mairie": {
        "type": "Point",
        "coordinates": [4.0529, 43.9809]
      },
      "population": 477,
      "surface": 1006.67,
      "radius": 1.79
    },
    {
      "nom": "Cannes-et-Clairan",
      "code": "30066",
      "codesPostaux": ["30260"],
      "centre": {
        "type": "Point",
        "coordinates": [4.0879, 43.9101]
      },
      "mairie": {
        "type": "Point",
        "coordinates": [4.085, 43.9]
      },
      "population": 610,
      "surface": 1212.75,
      "radius": 1.96
    },
    {
      "nom": "Cardet",
      "code": "30068",
      "codesPostaux": ["30350"],
      "centre": {
        "type": "Point",
        "coordinates": [4.0897, 44.0143]
      },
      "mairie": {
        "type": "Point",
        "coordinates": [4.0811, 44.0261]
      },
      "population": 922,
      "surface": 826.24,
      "radius": 1.62
    },
    {
      "nom": "Carnas",
      "code": "30069",
      "codesPostaux": ["30260"],
      "centre": {
        "type": "Point",
        "coordinates": [3.9886, 43.8334]
      },
      "mairie": {
        "type": "Point",
        "coordinates": [3.9881, 43.8323]
      },
      "population": 540,
      "surface": 1580.65,
      "radius": 2.24
    },
    {
      "nom": "Carsan",
      "code": "30070",
      "codesPostaux": ["30130"],
      "centre": {
        "type": "Point",
        "coordinates": [4.5838, 44.23]
      },
      "mairie": {
        "type": "Point",
        "coordinates": [4.5933, 44.2378]
      },
      "population": 790,
      "surface": 1178.97,
      "radius": 1.94
    },
    {
      "nom": "Cassagnoles",
      "code": "30071",
      "codesPostaux": ["30350"],
      "centre": {
        "type": "Point",
        "coordinates": [4.1254, 44.019]
      },
      "mairie": {
        "type": "Point",
        "coordinates": [4.1305, 44.0218]
      },
      "population": 448,
      "surface": 519.41,
      "radius": 1.29
    },
    {
      "nom": "Castelnau-Valence",
      "code": "30072",
      "codesPostaux": ["30190"],
      "centre": {
        "type": "Point",
        "coordinates": [4.2407, 44.0076]
      },
      "mairie": {
        "type": "Point",
        "coordinates": [4.2527, 44.0079]
      },
      "population": 482,
      "surface": 1027.5,
      "radius": 1.81
    },
    {
      "nom": "Castillon-du-Gard",
      "code": "30073",
      "codesPostaux": ["30210"],
      "centre": {
        "type": "Point",
        "coordinates": [4.5599, 43.98]
      },
      "mairie": {
        "type": "Point",
        "coordinates": [4.5546, 43.9703]
      },
      "population": 1681,
      "surface": 1775.2,
      "radius": 2.38
    },
    {
      "nom": "Causse-Bégon",
      "code": "30074",
      "codesPostaux": ["30750"],
      "centre": {
        "type": "Point",
        "coordinates": [3.3562, 44.064]
      },
      "mairie": {
        "type": "Point",
        "coordinates": [3.3616, 44.0617]
      },
      "population": 25,
      "surface": 779.55,
      "radius": 1.58
    },
    {
      "nom": "Caveirac",
      "code": "30075",
      "codesPostaux": ["30820"],
      "centre": {
        "type": "Point",
        "coordinates": [4.2723, 43.8344]
      },
      "mairie": {
        "type": "Point",
        "coordinates": [4.2605, 43.826]
      },
      "population": 4328,
      "surface": 1533.56,
      "radius": 2.21
    },
    {
      "nom": "Cavillargues",
      "code": "30076",
      "codesPostaux": ["30330"],
      "centre": {
        "type": "Point",
        "coordinates": [4.5178, 44.1194]
      },
      "mairie": {
        "type": "Point",
        "coordinates": [4.5221, 44.1141]
      },
      "population": 847,
      "surface": 1117.35,
      "radius": 1.89
    },
    {
      "nom": "Cendras",
      "code": "30077",
      "codesPostaux": ["30480"],
      "centre": {
        "type": "Point",
        "coordinates": [4.036, 44.1531]
      },
      "mairie": {
        "type": "Point",
        "coordinates": [4.0544, 44.1551]
      },
      "population": 1612,
      "surface": 1301.74,
      "radius": 2.04
    },
    {
      "nom": "Chambon",
      "code": "30079",
      "codesPostaux": ["30450"],
      "centre": {
        "type": "Point",
        "coordinates": [4.0155, 44.3038]
      },
      "mairie": {
        "type": "Point",
        "coordinates": [4.0187, 44.3025]
      },
      "population": 262,
      "surface": 1447.42,
      "radius": 2.15
    },
    {
      "nom": "Chamborigaud",
      "code": "30080",
      "codesPostaux": ["30530"],
      "centre": {
        "type": "Point",
        "coordinates": [3.9661, 44.303]
      },
      "mairie": {
        "type": "Point",
        "coordinates": [3.9741, 44.3038]
      },
      "population": 886,
      "surface": 1799.85,
      "radius": 2.39
    },
    {
      "nom": "Chusclan",
      "code": "30081",
      "codesPostaux": ["30200"],
      "centre": {
        "type": "Point",
        "coordinates": [4.6902, 44.1549]
      },
      "mairie": {
        "type": "Point",
        "coordinates": [4.6834, 44.1483]
      },
      "population": 975,
      "surface": 1323.37,
      "radius": 2.05
    },
    {
      "nom": "Clarensac",
      "code": "30082",
      "codesPostaux": ["30870"],
      "centre": {
        "type": "Point",
        "coordinates": [4.2251, 43.8357]
      },
      "mairie": {
        "type": "Point",
        "coordinates": [4.2176, 43.8267]
      },
      "population": 4257,
      "surface": 1468.14,
      "radius": 2.16
    },
    {
      "nom": "Codognan",
      "code": "30083",
      "codesPostaux": ["30920"],
      "centre": {
        "type": "Point",
        "coordinates": [4.2293, 43.7228]
      },
      "mairie": {
        "type": "Point",
        "coordinates": [4.2189, 43.7322]
      },
      "population": 2518,
      "surface": 467.02,
      "radius": 1.22
    },
    {
      "nom": "Codolet",
      "code": "30084",
      "codesPostaux": ["30200"],
      "centre": {
        "type": "Point",
        "coordinates": [4.7002, 44.1267]
      },
      "mairie": {
        "type": "Point",
        "coordinates": [4.6998, 44.125]
      },
      "population": 597,
      "surface": 542.43,
      "radius": 1.31
    },
    {
      "nom": "Collias",
      "code": "30085",
      "codesPostaux": ["30210"],
      "centre": {
        "type": "Point",
        "coordinates": [4.4719, 43.9493]
      },
      "mairie": {
        "type": "Point",
        "coordinates": [4.4796, 43.9542]
      },
      "population": 1080,
      "surface": 2112.95,
      "radius": 2.59
    },
    {
      "nom": "Collorgues",
      "code": "30086",
      "codesPostaux": ["30190"],
      "centre": {
        "type": "Point",
        "coordinates": [4.2901, 44.0146]
      },
      "mairie": {
        "type": "Point",
        "coordinates": [4.2911, 44.0048]
      },
      "population": 670,
      "surface": 927.16,
      "radius": 1.72
    },
    {
      "nom": "Colognac",
      "code": "30087",
      "codesPostaux": ["30460"],
      "centre": {
        "type": "Point",
        "coordinates": [3.8175, 44.0328]
      },
      "mairie": {
        "type": "Point",
        "coordinates": [3.8233, 44.0282]
      },
      "population": 202,
      "surface": 1240.29,
      "radius": 1.99
    },
    {
      "nom": "Combas",
      "code": "30088",
      "codesPostaux": ["30250"],
      "centre": {
        "type": "Point",
        "coordinates": [4.1158, 43.8597]
      },
      "mairie": {
        "type": "Point",
        "coordinates": [4.1121, 43.8542]
      },
      "population": 762,
      "surface": 1606.14,
      "radius": 2.26
    },
    {
      "nom": "Comps",
      "code": "30089",
      "codesPostaux": ["30300"],
      "centre": {
        "type": "Point",
        "coordinates": [4.5863, 43.8489]
      },
      "mairie": {
        "type": "Point",
        "coordinates": [4.6053, 43.8535]
      },
      "population": 1703,
      "surface": 841.8,
      "radius": 1.64
    },
    {
      "nom": "Concoules",
      "code": "30090",
      "codesPostaux": ["30450"],
      "centre": {
        "type": "Point",
        "coordinates": [3.9356, 44.3684]
      },
      "mairie": {
        "type": "Point",
        "coordinates": [3.9381, 44.3813]
      },
      "population": 271,
      "surface": 1631.81,
      "radius": 2.28
    },
    {
      "nom": "Congénies",
      "code": "30091",
      "codesPostaux": ["30111"],
      "centre": {
        "type": "Point",
        "coordinates": [4.1583, 43.7752]
      },
      "mairie": {
        "type": "Point",
        "coordinates": [4.1607, 43.7772]
      },
      "population": 1628,
      "surface": 871.86,
      "radius": 1.67
    },
    {
      "nom": "Connaux",
      "code": "30092",
      "codesPostaux": ["30330"],
      "centre": {
        "type": "Point",
        "coordinates": [4.6019, 44.0744]
      },
      "mairie": {
        "type": "Point",
        "coordinates": [4.5945, 44.0925]
      },
      "population": 1702,
      "surface": 946.2,
      "radius": 1.74
    },
    {
      "nom": "Conqueyrac",
      "code": "30093",
      "codesPostaux": ["30170"],
      "centre": {
        "type": "Point",
        "coordinates": [3.9032, 43.9369]
      },
      "mairie": {
        "type": "Point",
        "coordinates": [3.9084, 43.9465]
      },
      "population": 115,
      "surface": 2762.43,
      "radius": 2.97
    },
    {
      "nom": "Corconne",
      "code": "30095",
      "codesPostaux": ["30260"],
      "centre": {
        "type": "Point",
        "coordinates": [3.9406, 43.874]
      },
      "mairie": {
        "type": "Point",
        "coordinates": [3.9398, 43.8727]
      },
      "population": 620,
      "surface": 1309.59,
      "radius": 2.04
    },
    {
      "nom": "Cornillon",
      "code": "30096",
      "codesPostaux": ["30630"],
      "centre": {
        "type": "Point",
        "coordinates": [4.4931, 44.2189]
      },
      "mairie": {
        "type": "Point",
        "coordinates": [4.4863, 44.2181]
      },
      "population": 908,
      "surface": 1556.24,
      "radius": 2.23
    },
    {
      "nom": "Courry",
      "code": "30097",
      "codesPostaux": ["30500"],
      "centre": {
        "type": "Point",
        "coordinates": [4.1622, 44.303]
      },
      "mairie": {
        "type": "Point",
        "coordinates": [4.1579, 44.299]
      },
      "population": 283,
      "surface": 831.09,
      "radius": 1.63
    },
    {
      "nom": "Crespian",
      "code": "30098",
      "codesPostaux": ["30260"],
      "centre": {
        "type": "Point",
        "coordinates": [4.1111, 43.8827]
      },
      "mairie": {
        "type": "Point",
        "coordinates": [4.0979, 43.8813]
      },
      "population": 493,
      "surface": 796.85,
      "radius": 1.59
    },
    {
      "nom": "Cros",
      "code": "30099",
      "codesPostaux": ["30170"],
      "centre": {
        "type": "Point",
        "coordinates": [3.8204, 44.0021]
      },
      "mairie": {
        "type": "Point",
        "coordinates": [3.8252, 43.994]
      },
      "population": 256,
      "surface": 1677.9,
      "radius": 2.31
    },
    {
      "nom": "Cruviers-Lascours",
      "code": "30100",
      "codesPostaux": ["30360"],
      "centre": {
        "type": "Point",
        "coordinates": [4.1924, 44.0128]
      },
      "mairie": {
        "type": "Point",
        "coordinates": [4.204, 44.0033]
      },
      "population": 703,
      "surface": 557.89,
      "radius": 1.33
    },
    {
      "nom": "Deaux",
      "code": "30101",
      "codesPostaux": ["30360"],
      "centre": {
        "type": "Point",
        "coordinates": [4.1575, 44.0698]
      },
      "mairie": {
        "type": "Point",
        "coordinates": [4.1494, 44.0667]
      },
      "population": 644,
      "surface": 592.04,
      "radius": 1.37
    },
    {
      "nom": "Dions",
      "code": "30102",
      "codesPostaux": ["30190"],
      "centre": {
        "type": "Point",
        "coordinates": [4.2924, 43.9248]
      },
      "mairie": {
        "type": "Point",
        "coordinates": [4.2965, 43.9324]
      },
      "population": 531,
      "surface": 1162.43,
      "radius": 1.92
    },
    {
      "nom": "Domazan",
      "code": "30103",
      "codesPostaux": ["30390"],
      "centre": {
        "type": "Point",
        "coordinates": [4.6557, 43.9402]
      },
      "mairie": {
        "type": "Point",
        "coordinates": [4.6514, 43.929]
      },
      "population": 966,
      "surface": 1137.34,
      "radius": 1.9
    },
    {
      "nom": "Domessargues",
      "code": "30104",
      "codesPostaux": ["30350"],
      "centre": {
        "type": "Point",
        "coordinates": [4.1662, 43.973]
      },
      "mairie": {
        "type": "Point",
        "coordinates": [4.1682, 43.9766]
      },
      "population": 750,
      "surface": 752.93,
      "radius": 1.55
    },
    {
      "nom": "Dourbies",
      "code": "30105",
      "codesPostaux": ["30750"],
      "centre": {
        "type": "Point",
        "coordinates": [3.4956, 44.0664]
      },
      "mairie": {
        "type": "Point",
        "coordinates": [3.4446, 44.0644]
      },
      "population": 157,
      "surface": 6116.43,
      "radius": 4.41
    },
    {
      "nom": "Durfort-et-Saint-Martin-de-Sossenac",
      "code": "30106",
      "codesPostaux": ["30170"],
      "centre": {
        "type": "Point",
        "coordinates": [3.948, 43.9874]
      },
      "mairie": {
        "type": "Point",
        "coordinates": [3.955, 43.9893]
      },
      "population": 757,
      "surface": 1631.08,
      "radius": 2.28
    },
    {
      "nom": "Estézargues",
      "code": "30107",
      "codesPostaux": ["30390"],
      "centre": {
        "type": "Point",
        "coordinates": [4.6369, 43.956]
      },
      "mairie": {
        "type": "Point",
        "coordinates": [4.6377, 43.9407]
      },
      "population": 605,
      "surface": 1163.91,
      "radius": 1.92
    },
    {
      "nom": "Euzet",
      "code": "30109",
      "codesPostaux": ["30360"],
      "centre": {
        "type": "Point",
        "coordinates": [4.2372, 44.0736]
      },
      "mairie": {
        "type": "Point",
        "coordinates": [4.2331, 44.0756]
      },
      "population": 491,
      "surface": 685.83,
      "radius": 1.48
    },
    {
      "nom": "Flaux",
      "code": "30110",
      "codesPostaux": ["30700"],
      "centre": {
        "type": "Point",
        "coordinates": [4.5114, 44.0126]
      },
      "mairie": {
        "type": "Point",
        "coordinates": [4.5046, 44.0207]
      },
      "population": 338,
      "surface": 1102.89,
      "radius": 1.87
    },
    {
      "nom": "Foissac",
      "code": "30111",
      "codesPostaux": ["30700"],
      "centre": {
        "type": "Point",
        "coordinates": [4.3, 44.0356]
      },
      "mairie": {
        "type": "Point",
        "coordinates": [4.2984, 44.0416]
      },
      "population": 449,
      "surface": 390.04,
      "radius": 1.11
    },
    {
      "nom": "Fons",
      "code": "30112",
      "codesPostaux": ["30730"],
      "centre": {
        "type": "Point",
        "coordinates": [4.1801, 43.9073]
      },
      "mairie": {
        "type": "Point",
        "coordinates": [4.1941, 43.9087]
      },
      "population": 1734,
      "surface": 937.38,
      "radius": 1.73
    },
    {
      "nom": "Fons-sur-Lussan",
      "code": "30113",
      "codesPostaux": ["30580"],
      "centre": {
        "type": "Point",
        "coordinates": [4.3251, 44.1866]
      },
      "mairie": {
        "type": "Point",
        "coordinates": [4.3303, 44.1852]
      },
      "population": 228,
      "surface": 1061.44,
      "radius": 1.84
    },
    {
      "nom": "Fontanès",
      "code": "30114",
      "codesPostaux": ["30250"],
      "centre": {
        "type": "Point",
        "coordinates": [4.0969, 43.8297]
      },
      "mairie": {
        "type": "Point",
        "coordinates": [4.088, 43.8301]
      },
      "population": 688,
      "surface": 1442.15,
      "radius": 2.14
    },
    {
      "nom": "Fontarèches",
      "code": "30115",
      "codesPostaux": ["30580"],
      "centre": {
        "type": "Point",
        "coordinates": [4.4278, 44.1118]
      },
      "mairie": {
        "type": "Point",
        "coordinates": [4.4383, 44.1083]
      },
      "population": 255,
      "surface": 1336.26,
      "radius": 2.06
    },
    {
      "nom": "Fournès",
      "code": "30116",
      "codesPostaux": ["30210"],
      "centre": {
        "type": "Point",
        "coordinates": [4.6035, 43.9378]
      },
      "mairie": {
        "type": "Point",
        "coordinates": [4.5999, 43.9265]
      },
      "population": 1058,
      "surface": 1771.93,
      "radius": 2.37
    },
    {
      "nom": "Fourques",
      "code": "30117",
      "codesPostaux": ["30300"],
      "centre": {
        "type": "Point",
        "coordinates": [4.5459, 43.7105]
      },
      "mairie": {
        "type": "Point",
        "coordinates": [4.6075, 43.6914]
      },
      "population": 2701,
      "surface": 3829.27,
      "radius": 3.49
    },
    {
      "nom": "Fressac",
      "code": "30119",
      "codesPostaux": ["30170"],
      "centre": {
        "type": "Point",
        "coordinates": [3.923, 43.9968]
      },
      "mairie": {
        "type": "Point",
        "coordinates": [3.9247, 43.9969]
      },
      "population": 161,
      "surface": 596.03,
      "radius": 1.38
    },
    {
      "nom": "Gagnières",
      "code": "30120",
      "codesPostaux": ["30160"],
      "centre": {
        "type": "Point",
        "coordinates": [4.1175, 44.3157]
      },
      "mairie": {
        "type": "Point",
        "coordinates": [4.1294, 44.3076]
      },
      "population": 1095,
      "surface": 1123.1,
      "radius": 1.89
    },
    {
      "nom": "Gailhan",
      "code": "30121",
      "codesPostaux": ["30260"],
      "centre": {
        "type": "Point",
        "coordinates": [4.031, 43.8467]
      },
      "mairie": {
        "type": "Point",
        "coordinates": [4.0314, 43.8434]
      },
      "population": 296,
      "surface": 548.52,
      "radius": 1.32
    },
    {
      "nom": "Gajan",
      "code": "30122",
      "codesPostaux": ["30730"],
      "centre": {
        "type": "Point",
        "coordinates": [4.2239, 43.8976]
      },
      "mairie": {
        "type": "Point",
        "coordinates": [4.2142, 43.8969]
      },
      "population": 747,
      "surface": 1100.11,
      "radius": 1.87
    },
    {
      "nom": "Gallargues-le-Montueux",
      "code": "30123",
      "codesPostaux": ["30660"],
      "centre": {
        "type": "Point",
        "coordinates": [4.1708, 43.7137]
      },
      "mairie": {
        "type": "Point",
        "coordinates": [4.1739, 43.7221]
      },
      "population": 3615,
      "surface": 1087.37,
      "radius": 1.86
    },
    {
      "nom": "Garons",
      "code": "30125",
      "codesPostaux": ["30128"],
      "centre": {
        "type": "Point",
        "coordinates": [4.4397, 43.7706]
      },
      "mairie": {
        "type": "Point",
        "coordinates": [4.4243, 43.771]
      },
      "population": 5244,
      "surface": 1246.83,
      "radius": 1.99
    },
    {
      "nom": "Garrigues-Sainte-Eulalie",
      "code": "30126",
      "codesPostaux": ["30190"],
      "centre": {
        "type": "Point",
        "coordinates": [4.303, 43.991]
      },
      "mairie": {
        "type": "Point",
        "coordinates": [4.3147, 43.9932]
      },
      "population": 762,
      "surface": 992.91,
      "radius": 1.78
    },
    {
      "nom": "Gaujac",
      "code": "30127",
      "codesPostaux": ["30330"],
      "centre": {
        "type": "Point",
        "coordinates": [4.5744, 44.0755]
      },
      "mairie": {
        "type": "Point",
        "coordinates": [4.5785, 44.0792]
      },
      "population": 1069,
      "surface": 1027.05,
      "radius": 1.81
    },
    {
      "nom": "Générac",
      "code": "30128",
      "codesPostaux": ["30510"],
      "centre": {
        "type": "Point",
        "coordinates": [4.3587, 43.719]
      },
      "mairie": {
        "type": "Point",
        "coordinates": [4.3482, 43.7285]
      },
      "population": 4039,
      "surface": 2446.41,
      "radius": 2.79
    },
    {
      "nom": "Générargues",
      "code": "30129",
      "codesPostaux": ["30140"],
      "centre": {
        "type": "Point",
        "coordinates": [3.9941, 44.0797]
      },
      "mairie": {
        "type": "Point",
        "coordinates": [3.9835, 44.081]
      },
      "population": 711,
      "surface": 1063.51,
      "radius": 1.84
    },
    {
      "nom": "Génolhac",
      "code": "30130",
      "codesPostaux": ["30450"],
      "centre": {
        "type": "Point",
        "coordinates": [3.9481, 44.3391]
      },
      "mairie": {
        "type": "Point",
        "coordinates": [3.9502, 44.3504]
      },
      "population": 820,
      "surface": 1730.25,
      "radius": 2.35
    },
    {
      "nom": "Goudargues",
      "code": "30131",
      "codesPostaux": ["30630"],
      "centre": {
        "type": "Point",
        "coordinates": [4.4366, 44.2099]
      },
      "mairie": {
        "type": "Point",
        "coordinates": [4.4659, 44.2159]
      },
      "population": 1118,
      "surface": 3037.24,
      "radius": 3.11
    },
    {
      "nom": "Issirac",
      "code": "30134",
      "codesPostaux": ["30760"],
      "centre": {
        "type": "Point",
        "coordinates": [4.4747, 44.2704]
      },
      "mairie": {
        "type": "Point",
        "coordinates": [4.4806, 44.2718]
      },
      "population": 320,
      "surface": 2034.07,
      "radius": 2.54
    },
    {
      "nom": "Jonquières-Saint-Vincent",
      "code": "30135",
      "codesPostaux": ["30300"],
      "centre": {
        "type": "Point",
        "coordinates": [4.559, 43.8305]
      },
      "mairie": {
        "type": "Point",
        "coordinates": [4.5633, 43.8272]
      },
      "population": 3886,
      "surface": 2136.27,
      "radius": 2.61
    },
    {
      "nom": "Junas",
      "code": "30136",
      "codesPostaux": ["30250"],
      "centre": {
        "type": "Point",
        "coordinates": [4.1204, 43.7589]
      },
      "mairie": {
        "type": "Point",
        "coordinates": [4.1214, 43.7707]
      },
      "population": 1260,
      "surface": 779.15,
      "radius": 1.57
    },
    {
      "nom": "L'Estréchure",
      "code": "30108",
      "codesPostaux": ["30124"],
      "centre": {
        "type": "Point",
        "coordinates": [3.7852, 44.1016]
      },
      "mairie": {
        "type": "Point",
        "coordinates": [3.7844, 44.1072]
      },
      "population": 152,
      "surface": 1946.01,
      "radius": 2.49
    },
    {
      "nom": "La Bastide-d'Engras",
      "code": "30031",
      "codesPostaux": ["30330"],
      "centre": {
        "type": "Point",
        "coordinates": [4.4732, 44.0965]
      },
      "mairie": {
        "type": "Point",
        "coordinates": [4.4779, 44.0948]
      },
      "population": 204,
      "surface": 987.03,
      "radius": 1.77
    },
    {
      "nom": "La Bruguière",
      "code": "30056",
      "codesPostaux": ["30580"],
      "centre": {
        "type": "Point",
        "coordinates": [4.4018, 44.1018]
      },
      "mairie": {
        "type": "Point",
        "coordinates": [4.4149, 44.1111]
      },
      "population": 331,
      "surface": 1654.02,
      "radius": 2.29
    },
    {
      "nom": "La Cadière-et-Cambo",
      "code": "30058",
      "codesPostaux": ["30170"],
      "centre": {
        "type": "Point",
        "coordinates": [3.8097, 43.9677]
      },
      "mairie": {
        "type": "Point",
        "coordinates": [3.8083, 43.9565]
      },
      "population": 229,
      "surface": 1197.32,
      "radius": 1.95
    },
    {
      "nom": "La Calmette",
      "code": "30061",
      "codesPostaux": ["30190"],
      "centre": {
        "type": "Point",
        "coordinates": [4.2649, 43.9272]
      },
      "mairie": {
        "type": "Point",
        "coordinates": [4.2635, 43.9257]
      },
      "population": 2572,
      "surface": 1131.05,
      "radius": 1.9
    },
    {
      "nom": "La Capelle-et-Masmolène",
      "code": "30067",
      "codesPostaux": ["30700"],
      "centre": {
        "type": "Point",
        "coordinates": [4.5309, 44.0437]
      },
      "mairie": {
        "type": "Point",
        "coordinates": [4.5281, 44.0513]
      },
      "population": 421,
      "surface": 2492.95,
      "radius": 2.82
    },
    {
      "nom": "La Grand-Combe",
      "code": "30132",
      "codesPostaux": ["30110"],
      "centre": {
        "type": "Point",
        "coordinates": [4.0303, 44.2261]
      },
      "mairie": {
        "type": "Point",
        "coordinates": [4.0301, 44.2108]
      },
      "population": 4837,
      "surface": 1243.03,
      "radius": 1.99
    },
    {
      "nom": "La Roque-sur-Cèze",
      "code": "30222",
      "codesPostaux": ["30200"],
      "centre": {
        "type": "Point",
        "coordinates": [4.5201, 44.1932]
      },
      "mairie": {
        "type": "Point",
        "coordinates": [4.5185, 44.1935]
      },
      "population": 174,
      "surface": 838.39,
      "radius": 1.63
    },
    {
      "nom": "La Rouvière",
      "code": "30224",
      "codesPostaux": ["30190"],
      "centre": {
        "type": "Point",
        "coordinates": [4.2349, 43.9182]
      },
      "mairie": {
        "type": "Point",
        "coordinates": [4.2361, 43.9312]
      },
      "population": 664,
      "surface": 794.21,
      "radius": 1.59
    },
    {
      "nom": "La Vernarède",
      "code": "30345",
      "codesPostaux": ["30530"],
      "centre": {
        "type": "Point",
        "coordinates": [4.0077, 44.284]
      },
      "mairie": {
        "type": "Point",
        "coordinates": [4.0068, 44.2869]
      },
      "population": 357,
      "surface": 567.96,
      "radius": 1.34
    },
    {
      "nom": "Lamelouze",
      "code": "30137",
      "codesPostaux": ["30110"],
      "centre": {
        "type": "Point",
        "coordinates": [3.9606, 44.1942]
      },
      "mairie": {
        "type": "Point",
        "coordinates": [3.9614, 44.1955]
      },
      "population": 138,
      "surface": 888.08,
      "radius": 1.68
    },
    {
      "nom": "Langlade",
      "code": "30138",
      "codesPostaux": ["30980"],
      "centre": {
        "type": "Point",
        "coordinates": [4.2559, 43.8021]
      },
      "mairie": {
        "type": "Point",
        "coordinates": [4.2467, 43.8059]
      },
      "population": 2297,
      "surface": 906.25,
      "radius": 1.7
    },
    {
      "nom": "Lanuéjols",
      "code": "30139",
      "codesPostaux": ["30750"],
      "centre": {
        "type": "Point",
        "coordinates": [3.3764, 44.124]
      },
      "mairie": {
        "type": "Point",
        "coordinates": [3.3837, 44.1308]
      },
      "population": 339,
      "surface": 6276.29,
      "radius": 4.47
    },
    {
      "nom": "Lasalle",
      "code": "30140",
      "codesPostaux": ["30460"],
      "centre": {
        "type": "Point",
        "coordinates": [3.85, 44.0403]
      },
      "mairie": {
        "type": "Point",
        "coordinates": [3.8539, 44.0453]
      },
      "population": 1166,
      "surface": 1014.37,
      "radius": 1.8
    },
    {
      "nom": "Laudun-l'Ardoise",
      "code": "30141",
      "codesPostaux": ["30290"],
      "centre": {
        "type": "Point",
        "coordinates": [4.6615, 44.1051]
      },
      "mairie": {
        "type": "Point",
        "coordinates": [4.6574, 44.1052]
      },
      "population": 6673,
      "surface": 3410.3,
      "radius": 3.29
    },
    {
      "nom": "Laval-Pradel",
      "code": "30142",
      "codesPostaux": ["30110"],
      "centre": {
        "type": "Point",
        "coordinates": [4.0648, 44.2145]
      },
      "mairie": {
        "type": "Point",
        "coordinates": [4.0588, 44.2317]
      },
      "population": 1088,
      "surface": 1770.63,
      "radius": 2.37
    },
    {
      "nom": "Laval-Saint-Roman",
      "code": "30143",
      "codesPostaux": ["30760"],
      "centre": {
        "type": "Point",
        "coordinates": [4.507, 44.3015]
      },
      "mairie": {
        "type": "Point",
        "coordinates": [4.505, 44.2984]
      },
      "population": 213,
      "surface": 1048.72,
      "radius": 1.83
    },
    {
      "nom": "Le Cailar",
      "code": "30059",
      "codesPostaux": ["30740"],
      "centre": {
        "type": "Point",
        "coordinates": [4.2417, 43.653]
      },
      "mairie": {
        "type": "Point",
        "coordinates": [4.2378, 43.6741]
      },
      "population": 2566,
      "surface": 3018.25,
      "radius": 3.1
    },
    {
      "nom": "Le Garn",
      "code": "30124",
      "codesPostaux": ["30760"],
      "centre": {
        "type": "Point",
        "coordinates": [4.4685, 44.3161]
      },
      "mairie": {
        "type": "Point",
        "coordinates": [4.4723, 44.3074]
      },
      "population": 255,
      "surface": 1109.64,
      "radius": 1.88
    },
    {
      "nom": "Le Grau-du-Roi",
      "code": "30133",
      "codesPostaux": ["30240"],
      "centre": {
        "type": "Point",
        "coordinates": [4.1704, 43.5149]
      },
      "mairie": {
        "type": "Point",
        "coordinates": [4.138, 43.5336]
      },
      "population": 8513,
      "surface": 5724.09,
      "radius": 4.27
    },
    {
      "nom": "Le Martinet",
      "code": "30159",
      "codesPostaux": ["30960"],
      "centre": {
        "type": "Point",
        "coordinates": [4.0844, 44.2525]
      },
      "mairie": {
        "type": "Point",
        "coordinates": [4.0847, 44.2528]
      },
      "population": 739,
      "surface": 1039.26,
      "radius": 1.82
    },
    {
      "nom": "Le Pin",
      "code": "30196",
      "codesPostaux": ["30330"],
      "centre": {
        "type": "Point",
        "coordinates": [4.5353, 44.0901]
      },
      "mairie": {
        "type": "Point",
        "coordinates": [4.5403, 44.0902]
      },
      "population": 473,
      "surface": 600.74,
      "radius": 1.38
    },
    {
      "nom": "Le Vigan",
      "code": "30350",
      "codesPostaux": ["30120"],
      "centre": {
        "type": "Point",
        "coordinates": [3.6336, 43.9822]
      },
      "mairie": {
        "type": "Point",
        "coordinates": [3.6063, 43.9929]
      },
      "population": 3786,
      "surface": 1725.61,
      "radius": 2.34
    },
    {
      "nom": "Lecques",
      "code": "30144",
      "codesPostaux": ["30250"],
      "centre": {
        "type": "Point",
        "coordinates": [4.0561, 43.8423]
      },
      "mairie": {
        "type": "Point",
        "coordinates": [4.0632, 43.8377]
      },
      "population": 473,
      "surface": 523.58,
      "radius": 1.29
    },
    {
      "nom": "Lédenon",
      "code": "30145",
      "codesPostaux": ["30210"],
      "centre": {
        "type": "Point",
        "coordinates": [4.5194, 43.9104]
      },
      "mairie": {
        "type": "Point",
        "coordinates": [4.5074, 43.9155]
      },
      "population": 1676,
      "surface": 1936.53,
      "radius": 2.48
    },
    {
      "nom": "Lédignan",
      "code": "30146",
      "codesPostaux": ["30350"],
      "centre": {
        "type": "Point",
        "coordinates": [4.1112, 43.9884]
      },
      "mairie": {
        "type": "Point",
        "coordinates": [4.1076, 43.9905]
      },
      "population": 1520,
      "surface": 695.23,
      "radius": 1.49
    },
    {
      "nom": "Les Angles",
      "code": "30011",
      "codesPostaux": ["30133"],
      "centre": {
        "type": "Point",
        "coordinates": [4.7563, 43.9414]
      },
      "mairie": {
        "type": "Point",
        "coordinates": [4.7736, 43.9545]
      },
      "population": 8694,
      "surface": 1697.89,
      "radius": 2.32
    },
    {
      "nom": "Les Mages",
      "code": "30152",
      "codesPostaux": ["30960"],
      "centre": {
        "type": "Point",
        "coordinates": [4.1787, 44.2272]
      },
      "mairie": {
        "type": "Point",
        "coordinates": [4.1672, 44.2289]
      },
      "population": 2107,
      "surface": 1267.09,
      "radius": 2.01
    },
    {
      "nom": "Les Plans",
      "code": "30197",
      "codesPostaux": ["30340"],
      "centre": {
        "type": "Point",
        "coordinates": [4.2103, 44.1416]
      },
      "mairie": {
        "type": "Point",
        "coordinates": [4.2107, 44.1431]
      },
      "population": 291,
      "surface": 621.21,
      "radius": 1.41
    },
    {
      "nom": "Les Plantiers",
      "code": "30198",
      "codesPostaux": ["30122"],
      "centre": {
        "type": "Point",
        "coordinates": [3.7063, 44.1055]
      },
      "mairie": {
        "type": "Point",
        "coordinates": [3.723, 44.1176]
      },
      "population": 228,
      "surface": 3100.19,
      "radius": 3.14
    },
    {
      "nom": "Les Salles-du-Gardon",
      "code": "30307",
      "codesPostaux": ["30110"],
      "centre": {
        "type": "Point",
        "coordinates": [4.0155, 44.1903]
      },
      "mairie": {
        "type": "Point",
        "coordinates": [4.0342, 44.2072]
      },
      "population": 2403,
      "surface": 2114.43,
      "radius": 2.59
    },
    {
      "nom": "Lézan",
      "code": "30147",
      "codesPostaux": ["30350"],
      "centre": {
        "type": "Point",
        "coordinates": [4.0522, 44.0119]
      },
      "mairie": {
        "type": "Point",
        "coordinates": [4.0504, 44.0159]
      },
      "population": 1580,
      "surface": 938.51,
      "radius": 1.73
    },
    {
      "nom": "Liouc",
      "code": "30148",
      "codesPostaux": ["30260"],
      "centre": {
        "type": "Point",
        "coordinates": [3.9833, 43.8896]
      },
      "mairie": {
        "type": "Point",
        "coordinates": [3.9987, 43.894]
      },
      "population": 330,
      "surface": 963.7,
      "radius": 1.75
    },
    {
      "nom": "Lirac",
      "code": "30149",
      "codesPostaux": ["30126"],
      "centre": {
        "type": "Point",
        "coordinates": [4.6796, 44.0321]
      },
      "mairie": {
        "type": "Point",
        "coordinates": [4.6907, 44.0351]
      },
      "population": 938,
      "surface": 980.39,
      "radius": 1.77
    },
    {
      "nom": "Logrian-Florian",
      "code": "30150",
      "codesPostaux": ["30610"],
      "centre": {
        "type": "Point",
        "coordinates": [4.0221, 43.9483]
      },
      "mairie": {
        "type": "Point",
        "coordinates": [4.0288, 43.9561]
      },
      "population": 263,
      "surface": 875.13,
      "radius": 1.67
    },
    {
      "nom": "Lussan",
      "code": "30151",
      "codesPostaux": ["30580"],
      "centre": {
        "type": "Point",
        "coordinates": [4.3712, 44.1663]
      },
      "mairie": {
        "type": "Point",
        "coordinates": [4.3669, 44.1538]
      },
      "population": 531,
      "surface": 4681.19,
      "radius": 3.86
    },
    {
      "nom": "Malons-et-Elze",
      "code": "30153",
      "codesPostaux": ["30450"],
      "centre": {
        "type": "Point",
        "coordinates": [4.0197, 44.4221]
      },
      "mairie": {
        "type": "Point",
        "coordinates": [4.0236, 44.4165]
      },
      "population": 115,
      "surface": 3115.96,
      "radius": 3.15
    },
    {
      "nom": "Mandagout",
      "code": "30154",
      "codesPostaux": ["30120"],
      "centre": {
        "type": "Point",
        "coordinates": [3.6275, 44.0257]
      },
      "mairie": {
        "type": "Point",
        "coordinates": [3.6253, 44.0204]
      },
      "population": 370,
      "surface": 1509.19,
      "radius": 2.19
    },
    {
      "nom": "Manduel",
      "code": "30155",
      "codesPostaux": ["30129"],
      "centre": {
        "type": "Point",
        "coordinates": [4.4962, 43.8084]
      },
      "mairie": {
        "type": "Point",
        "coordinates": [4.4737, 43.819]
      },
      "population": 7087,
      "surface": 2649.24,
      "radius": 2.9
    },
    {
      "nom": "Marguerittes",
      "code": "30156",
      "codesPostaux": ["30320"],
      "centre": {
        "type": "Point",
        "coordinates": [4.4594, 43.8661]
      },
      "mairie": {
        "type": "Point",
        "coordinates": [4.444, 43.8598]
      },
      "population": 8370,
      "surface": 2534.82,
      "radius": 2.84
    },
    {
      "nom": "Martignargues",
      "code": "30158",
      "codesPostaux": ["30360"],
      "centre": {
        "type": "Point",
        "coordinates": [4.1807, 44.041]
      },
      "mairie": {
        "type": "Point",
        "coordinates": [4.1764, 44.0432]
      },
      "population": 438,
      "surface": 499.03,
      "radius": 1.26
    },
    {
      "nom": "Maruéjols-lès-Gardon",
      "code": "30160",
      "codesPostaux": ["30350"],
      "centre": {
        "type": "Point",
        "coordinates": [4.1346, 44.0064]
      },
      "mairie": {
        "type": "Point",
        "coordinates": [4.129, 44.0053]
      },
      "population": 275,
      "surface": 376.92,
      "radius": 1.1
    },
    {
      "nom": "Massanes",
      "code": "30161",
      "codesPostaux": ["30350"],
      "centre": {
        "type": "Point",
        "coordinates": [4.1103, 44.023]
      },
      "mairie": {
        "type": "Point",
        "coordinates": [4.1142, 44.0208]
      },
      "population": 195,
      "surface": 169.24,
      "radius": 0.73
    },
    {
      "nom": "Massillargues-Attuech",
      "code": "30162",
      "codesPostaux": ["30140"],
      "centre": {
        "type": "Point",
        "coordinates": [4.0221, 44.0161]
      },
      "mairie": {
        "type": "Point",
        "coordinates": [4.0233, 44.0173]
      },
      "population": 669,
      "surface": 629.62,
      "radius": 1.42
    },
    {
      "nom": "Mauressargues",
      "code": "30163",
      "codesPostaux": ["30350"],
      "centre": {
        "type": "Point",
        "coordinates": [4.1625, 43.9547]
      },
      "mairie": {
        "type": "Point",
        "coordinates": [4.1599, 43.959]
      },
      "population": 177,
      "surface": 571.15,
      "radius": 1.35
    },
    {
      "nom": "Méjannes-le-Clap",
      "code": "30164",
      "codesPostaux": ["30430"],
      "centre": {
        "type": "Point",
        "coordinates": [4.3602, 44.233]
      },
      "mairie": {
        "type": "Point",
        "coordinates": [4.3491, 44.2253]
      },
      "population": 740,
      "surface": 3849.25,
      "radius": 3.5
    },
    {
      "nom": "Méjannes-lès-Alès",
      "code": "30165",
      "codesPostaux": ["30340"],
      "centre": {
        "type": "Point",
        "coordinates": [4.1519, 44.1015]
      },
      "mairie": {
        "type": "Point",
        "coordinates": [4.1521, 44.0975]
      },
      "population": 1232,
      "surface": 668.32,
      "radius": 1.46
    },
    {
      "nom": "Meynes",
      "code": "30166",
      "codesPostaux": ["30840"],
      "centre": {
        "type": "Point",
        "coordinates": [4.5524, 43.8765]
      },
      "mairie": {
        "type": "Point",
        "coordinates": [4.5628, 43.8833]
      },
      "population": 2576,
      "surface": 1662.02,
      "radius": 2.3
    },
    {
      "nom": "Meyrannes",
      "code": "30167",
      "codesPostaux": ["30410"],
      "centre": {
        "type": "Point",
        "coordinates": [4.1611, 44.2766]
      },
      "mairie": {
        "type": "Point",
        "coordinates": [4.1701, 44.2718]
      },
      "population": 783,
      "surface": 664.92,
      "radius": 1.45
    },
    {
      "nom": "Mialet",
      "code": "30168",
      "codesPostaux": ["30140"],
      "centre": {
        "type": "Point",
        "coordinates": [3.9345, 44.1225]
      },
      "mairie": {
        "type": "Point",
        "coordinates": [3.9433, 44.1108]
      },
      "population": 629,
      "surface": 3093.95,
      "radius": 3.14
    },
    {
      "nom": "Milhaud",
      "code": "30169",
      "codesPostaux": ["30540"],
      "centre": {
        "type": "Point",
        "coordinates": [4.3081, 43.7831]
      },
      "mairie": {
        "type": "Point",
        "coordinates": [4.3086, 43.7897]
      },
      "population": 6142,
      "surface": 1841.22,
      "radius": 2.42
    },
    {
      "nom": "Molières-Cavaillac",
      "code": "30170",
      "codesPostaux": ["30120"],
      "centre": {
        "type": "Point",
        "coordinates": [3.5708, 43.972]
      },
      "mairie": {
        "type": "Point",
        "coordinates": [3.5765, 43.9761]
      },
      "population": 903,
      "surface": 766.13,
      "radius": 1.56
    },
    {
      "nom": "Molières-sur-Cèze",
      "code": "30171",
      "codesPostaux": ["30410"],
      "centre": {
        "type": "Point",
        "coordinates": [4.1534, 44.2617]
      },
      "mairie": {
        "type": "Point",
        "coordinates": [4.1584, 44.261]
      },
      "population": 1187,
      "surface": 867.63,
      "radius": 1.66
    },
    {
      "nom": "Monoblet",
      "code": "30172",
      "codesPostaux": ["30170"],
      "centre": {
        "type": "Point",
        "coordinates": [3.8814, 43.9971]
      },
      "mairie": {
        "type": "Point",
        "coordinates": [3.8863, 44.0002]
      },
      "population": 780,
      "surface": 2137.17,
      "radius": 2.61
    },
    {
      "nom": "Mons",
      "code": "30173",
      "codesPostaux": ["30340"],
      "centre": {
        "type": "Point",
        "coordinates": [4.178, 44.122]
      },
      "mairie": {
        "type": "Point",
        "coordinates": [4.1742, 44.115]
      },
      "population": 1789,
      "surface": 1601.96,
      "radius": 2.26
    },
    {
      "nom": "Montagnac",
      "code": "30354",
      "codesPostaux": ["30350"],
      "centre": {
        "type": "Point",
        "coordinates": [4.1503, 43.9366]
      },
      "mairie": {
        "type": "Point",
        "coordinates": [4.148, 43.9372]
      },
      "population": 233,
      "surface": 874.64,
      "radius": 1.67
    },
    {
      "nom": "Montaren-et-Saint-Médiers",
      "code": "30174",
      "codesPostaux": ["30700"],
      "centre": {
        "type": "Point",
        "coordinates": [4.383, 44.0449]
      },
      "mairie": {
        "type": "Point",
        "coordinates": [4.3797, 44.0287]
      },
      "population": 1390,
      "surface": 1937.16,
      "radius": 2.48
    },
    {
      "nom": "Montclus",
      "code": "30175",
      "codesPostaux": ["30630"],
      "centre": {
        "type": "Point",
        "coordinates": [4.4189, 44.2664]
      },
      "mairie": {
        "type": "Point",
        "coordinates": [4.4198, 44.261]
      },
      "population": 177,
      "surface": 2198.96,
      "radius": 2.65
    },
    {
      "nom": "Montdardier",
      "code": "30176",
      "codesPostaux": ["30120"],
      "centre": {
        "type": "Point",
        "coordinates": [3.5791, 43.9292]
      },
      "mairie": {
        "type": "Point",
        "coordinates": [3.5928, 43.9274]
      },
      "population": 198,
      "surface": 3544.13,
      "radius": 3.36
    },
    {
      "nom": "Monteils",
      "code": "30177",
      "codesPostaux": ["30360"],
      "centre": {
        "type": "Point",
        "coordinates": [4.1823, 44.0877]
      },
      "mairie": {
        "type": "Point",
        "coordinates": [4.1814, 44.0895]
      },
      "population": 677,
      "surface": 707.73,
      "radius": 1.5
    },
    {
      "nom": "Montfaucon",
      "code": "30178",
      "codesPostaux": ["30150"],
      "centre": {
        "type": "Point",
        "coordinates": [4.7348, 44.0765]
      },
      "mairie": {
        "type": "Point",
        "coordinates": [4.7539, 44.074]
      },
      "population": 1525,
      "surface": 405.51,
      "radius": 1.14
    },
    {
      "nom": "Montfrin",
      "code": "30179",
      "codesPostaux": ["30490"],
      "centre": {
        "type": "Point",
        "coordinates": [4.5869, 43.8769]
      },
      "mairie": {
        "type": "Point",
        "coordinates": [4.5923, 43.8773]
      },
      "population": 3125,
      "surface": 1543.85,
      "radius": 2.22
    },
    {
      "nom": "Montignargues",
      "code": "30180",
      "codesPostaux": ["30190"],
      "centre": {
        "type": "Point",
        "coordinates": [4.205, 43.9322]
      },
      "mairie": {
        "type": "Point",
        "coordinates": [4.1984, 43.9304]
      },
      "population": 559,
      "surface": 452.18,
      "radius": 1.2
    },
    {
      "nom": "Montmirat",
      "code": "30181",
      "codesPostaux": ["30260"],
      "centre": {
        "type": "Point",
        "coordinates": [4.121, 43.9062]
      },
      "mairie": {
        "type": "Point",
        "coordinates": [4.103, 43.9]
      },
      "population": 478,
      "surface": 959.01,
      "radius": 1.75
    },
    {
      "nom": "Montpezat",
      "code": "30182",
      "codesPostaux": ["30730"],
      "centre": {
        "type": "Point",
        "coordinates": [4.162, 43.8575]
      },
      "mairie": {
        "type": "Point",
        "coordinates": [4.1562, 43.8506]
      },
      "population": 1398,
      "surface": 1204.81,
      "radius": 1.96
    },
    {
      "nom": "Moulézan",
      "code": "30183",
      "codesPostaux": ["30350"],
      "centre": {
        "type": "Point",
        "coordinates": [4.1307, 43.9261]
      },
      "mairie": {
        "type": "Point",
        "coordinates": [4.1261, 43.9292]
      },
      "population": 640,
      "surface": 1132.01,
      "radius": 1.9
    },
    {
      "nom": "Moussac",
      "code": "30184",
      "codesPostaux": ["30190"],
      "centre": {
        "type": "Point",
        "coordinates": [4.2342, 43.9789]
      },
      "mairie": {
        "type": "Point",
        "coordinates": [4.2269, 43.9809]
      },
      "population": 1564,
      "surface": 756.14,
      "radius": 1.55
    },
    {
      "nom": "Mus",
      "code": "30185",
      "codesPostaux": ["30121"],
      "centre": {
        "type": "Point",
        "coordinates": [4.203, 43.737]
      },
      "mairie": {
        "type": "Point",
        "coordinates": [4.2, 43.739]
      },
      "population": 1597,
      "surface": 263.69,
      "radius": 0.92
    },
    {
      "nom": "Nages-et-Solorgues",
      "code": "30186",
      "codesPostaux": ["30114"],
      "centre": {
        "type": "Point",
        "coordinates": [4.2347, 43.7857]
      },
      "mairie": {
        "type": "Point",
        "coordinates": [4.23, 43.7905]
      },
      "population": 2160,
      "surface": 619.4,
      "radius": 1.4
    },
    {
      "nom": "Navacelles",
      "code": "30187",
      "codesPostaux": ["30580"],
      "centre": {
        "type": "Point",
        "coordinates": [4.2338, 44.1645]
      },
      "mairie": {
        "type": "Point",
        "coordinates": [4.2395, 44.1619]
      },
      "population": 307,
      "surface": 1110.81,
      "radius": 1.88
    },
    {
      "nom": "Ners",
      "code": "30188",
      "codesPostaux": ["30360"],
      "centre": {
        "type": "Point",
        "coordinates": [4.1591, 44.0245]
      },
      "mairie": {
        "type": "Point",
        "coordinates": [4.158, 44.025]
      },
      "population": 791,
      "surface": 495.96,
      "radius": 1.26
    },
    {
      "nom": "Nîmes",
      "code": "30189",
      "codesPostaux": ["30000", "30900"],
      "centre": {
        "type": "Point",
        "coordinates": [4.3429, 43.8322]
      },
      "mairie": {
        "type": "Point",
        "coordinates": [4.3603, 43.8367]
      },
      "population": 150444,
      "surface": 16118.12,
      "radius": 7.16
    },
    {
      "nom": "Orsan",
      "code": "30191",
      "codesPostaux": ["30200"],
      "centre": {
        "type": "Point",
        "coordinates": [4.6626, 44.1371]
      },
      "mairie": {
        "type": "Point",
        "coordinates": [4.6676, 44.1316]
      },
      "population": 1197,
      "surface": 698.29,
      "radius": 1.49
    },
    {
      "nom": "Orthoux-Sérignac-Quilhan",
      "code": "30192",
      "codesPostaux": ["30260"],
      "centre": {
        "type": "Point",
        "coordinates": [4.0392, 43.8838]
      },
      "mairie": {
        "type": "Point",
        "coordinates": [4.0571, 43.8926]
      },
      "population": 439,
      "surface": 1406.65,
      "radius": 2.12
    },
    {
      "nom": "Parignargues",
      "code": "30193",
      "codesPostaux": ["30730"],
      "centre": {
        "type": "Point",
        "coordinates": [4.2129, 43.8679]
      },
      "mairie": {
        "type": "Point",
        "coordinates": [4.2078, 43.8736]
      },
      "population": 656,
      "surface": 1099.63,
      "radius": 1.87
    },
    {
      "nom": "Peyremale",
      "code": "30194",
      "codesPostaux": ["30160"],
      "centre": {
        "type": "Point",
        "coordinates": [4.0581, 44.2989]
      },
      "mairie": {
        "type": "Point",
        "coordinates": [4.0616, 44.3008]
      },
      "population": 272,
      "surface": 870.2,
      "radius": 1.66
    },
    {
      "nom": "Peyrolles",
      "code": "30195",
      "codesPostaux": ["30124"],
      "centre": {
        "type": "Point",
        "coordinates": [3.8279, 44.1065]
      },
      "mairie": {
        "type": "Point",
        "coordinates": [3.8329, 44.1109]
      },
      "population": 31,
      "surface": 830.22,
      "radius": 1.63
    },
    {
      "nom": "Pommiers",
      "code": "30199",
      "codesPostaux": ["30120"],
      "centre": {
        "type": "Point",
        "coordinates": [3.622, 43.9492]
      },
      "mairie": {
        "type": "Point",
        "coordinates": [3.6098, 43.952]
      },
      "population": 57,
      "surface": 646.19,
      "radius": 1.43
    },
    {
      "nom": "Pompignan",
      "code": "30200",
      "codesPostaux": ["30170"],
      "centre": {
        "type": "Point",
        "coordinates": [3.8659, 43.8966]
      },
      "mairie": {
        "type": "Point",
        "coordinates": [3.8561, 43.8936]
      },
      "population": 914,
      "surface": 4132.15,
      "radius": 3.63
    },
    {
      "nom": "Pont-Saint-Esprit",
      "code": "30202",
      "codesPostaux": ["30130"],
      "centre": {
        "type": "Point",
        "coordinates": [4.6422, 44.2518]
      },
      "mairie": {
        "type": "Point",
        "coordinates": [4.6479, 44.261]
      },
      "population": 10759,
      "surface": 1873.53,
      "radius": 2.44
    },
    {
      "nom": "Ponteils-et-Brésis",
      "code": "30201",
      "codesPostaux": ["30450"],
      "centre": {
        "type": "Point",
        "coordinates": [3.96, 44.4026]
      },
      "mairie": {
        "type": "Point",
        "coordinates": [3.9761, 44.4033]
      },
      "population": 368,
      "surface": 2766.99,
      "radius": 2.97
    },
    {
      "nom": "Portes",
      "code": "30203",
      "codesPostaux": ["30530"],
      "centre": {
        "type": "Point",
        "coordinates": [4.0328, 44.2629]
      },
      "mairie": {
        "type": "Point",
        "coordinates": [4.0213, 44.2702]
      },
      "population": 324,
      "surface": 1457.43,
      "radius": 2.15
    },
    {
      "nom": "Potelières",
      "code": "30204",
      "codesPostaux": ["30500"],
      "centre": {
        "type": "Point",
        "coordinates": [4.2256, 44.2226]
      },
      "mairie": {
        "type": "Point",
        "coordinates": [4.2381, 44.2221]
      },
      "population": 368,
      "surface": 653.62,
      "radius": 1.44
    },
    {
      "nom": "Pougnadoresse",
      "code": "30205",
      "codesPostaux": ["30330"],
      "centre": {
        "type": "Point",
        "coordinates": [4.5098, 44.0912]
      },
      "mairie": {
        "type": "Point",
        "coordinates": [4.5066, 44.0923]
      },
      "population": 263,
      "surface": 772.04,
      "radius": 1.57
    },
    {
      "nom": "Poulx",
      "code": "30206",
      "codesPostaux": ["30320"],
      "centre": {
        "type": "Point",
        "coordinates": [4.422, 43.9142]
      },
      "mairie": {
        "type": "Point",
        "coordinates": [4.424, 43.9113]
      },
      "population": 4265,
      "surface": 1198.76,
      "radius": 1.95
    },
    {
      "nom": "Pouzilhac",
      "code": "30207",
      "codesPostaux": ["30210"],
      "centre": {
        "type": "Point",
        "coordinates": [4.5831, 44.042]
      },
      "mairie": {
        "type": "Point",
        "coordinates": [4.5796, 44.0404]
      },
      "population": 750,
      "surface": 1606.81,
      "radius": 2.26
    },
    {
      "nom": "Puechredon",
      "code": "30208",
      "codesPostaux": ["30610"],
      "centre": {
        "type": "Point",
        "coordinates": [4.055, 43.9434]
      },
      "mairie": {
        "type": "Point",
        "coordinates": [4.0502, 43.9524]
      },
      "population": 48,
      "surface": 791.51,
      "radius": 1.59
    },
    {
      "nom": "Pujaut",
      "code": "30209",
      "codesPostaux": ["30131"],
      "centre": {
        "type": "Point",
        "coordinates": [4.7645, 44.0002]
      },
      "mairie": {
        "type": "Point",
        "coordinates": [4.7764, 44.0058]
      },
      "population": 3911,
      "surface": 2367.45,
      "radius": 2.75
    },
    {
      "nom": "Quissac",
      "code": "30210",
      "codesPostaux": ["30260"],
      "centre": {
        "type": "Point",
        "coordinates": [3.9985, 43.9213]
      },
      "mairie": {
        "type": "Point",
        "coordinates": [4.0002, 43.9082]
      },
      "population": 3449,
      "surface": 2321.63,
      "radius": 2.72
    },
    {
      "nom": "Redessan",
      "code": "30211",
      "codesPostaux": ["30129"],
      "centre": {
        "type": "Point",
        "coordinates": [4.5113, 43.8298]
      },
      "mairie": {
        "type": "Point",
        "coordinates": [4.4961, 43.832]
      },
      "population": 4227,
      "surface": 1566.42,
      "radius": 2.23
    },
    {
      "nom": "Remoulins",
      "code": "30212",
      "codesPostaux": ["30210"],
      "centre": {
        "type": "Point",
        "coordinates": [4.5629, 43.9384]
      },
      "mairie": {
        "type": "Point",
        "coordinates": [4.5643, 43.9395]
      },
      "population": 2268,
      "surface": 827.17,
      "radius": 1.62
    },
    {
      "nom": "Revens",
      "code": "30213",
      "codesPostaux": ["30750"],
      "centre": {
        "type": "Point",
        "coordinates": [3.3068, 44.0914]
      },
      "mairie": {
        "type": "Point",
        "coordinates": [3.2969, 44.088]
      },
      "population": 31,
      "surface": 1399.7,
      "radius": 2.11
    },
    {
      "nom": "Ribaute-les-Tavernes",
      "code": "30214",
      "codesPostaux": ["30720"],
      "centre": {
        "type": "Point",
        "coordinates": [4.09, 44.0434]
      },
      "mairie": {
        "type": "Point",
        "coordinates": [4.081, 44.0391]
      },
      "population": 2055,
      "surface": 1420.5,
      "radius": 2.13
    },
    {
      "nom": "Rivières",
      "code": "30215",
      "codesPostaux": ["30430"],
      "centre": {
        "type": "Point",
        "coordinates": [4.2859, 44.2167]
      },
      "mairie": {
        "type": "Point",
        "coordinates": [4.2761, 44.2261]
      },
      "population": 424,
      "surface": 968.4,
      "radius": 1.76
    },
    {
      "nom": "Robiac-Rochessadoule",
      "code": "30216",
      "codesPostaux": ["30160"],
      "centre": {
        "type": "Point",
        "coordinates": [4.0931, 44.2672]
      },
      "mairie": {
        "type": "Point",
        "coordinates": [4.0863, 44.2789]
      },
      "population": 840,
      "surface": 1056.46,
      "radius": 1.83
    },
    {
      "nom": "Rochefort-du-Gard",
      "code": "30217",
      "codesPostaux": ["30650"],
      "centre": {
        "type": "Point",
        "coordinates": [4.682, 43.9841]
      },
      "mairie": {
        "type": "Point",
        "coordinates": [4.6904, 43.9751]
      },
      "population": 8067,
      "surface": 3413.85,
      "radius": 3.3
    },
    {
      "nom": "Rochegude",
      "code": "30218",
      "codesPostaux": ["30430"],
      "centre": {
        "type": "Point",
        "coordinates": [4.2837, 44.2388]
      },
      "mairie": {
        "type": "Point",
        "coordinates": [4.2949, 44.2385]
      },
      "population": 246,
      "surface": 1213.49,
      "radius": 1.97
    },
    {
      "nom": "Rodilhan",
      "code": "30356",
      "codesPostaux": ["30230"],
      "centre": {
        "type": "Point",
        "coordinates": [4.4333, 43.8253]
      },
      "mairie": {
        "type": "Point",
        "coordinates": [4.4316, 43.8263]
      },
      "population": 2810,
      "surface": 470.65,
      "radius": 1.22
    },
    {
      "nom": "Rogues",
      "code": "30219",
      "codesPostaux": ["30120"],
      "centre": {
        "type": "Point",
        "coordinates": [3.5603, 43.8781]
      },
      "mairie": {
        "type": "Point",
        "coordinates": [3.5703, 43.8878]
      },
      "population": 91,
      "surface": 3061.46,
      "radius": 3.12
    },
    {
      "nom": "Roquedur",
      "code": "30220",
      "codesPostaux": ["30440"],
      "centre": {
        "type": "Point",
        "coordinates": [3.662, 43.976]
      },
      "mairie": {
        "type": "Point",
        "coordinates": [3.6743, 43.9761]
      },
      "population": 265,
      "surface": 1101.69,
      "radius": 1.87
    },
    {
      "nom": "Roquemaure",
      "code": "30221",
      "codesPostaux": ["30150"],
      "centre": {
        "type": "Point",
        "coordinates": [4.7598, 44.0443]
      },
      "mairie": {
        "type": "Point",
        "coordinates": [4.7788, 44.052]
      },
      "population": 5528,
      "surface": 2619.13,
      "radius": 2.89
    },
    {
      "nom": "Rousson",
      "code": "30223",
      "codesPostaux": ["30340"],
      "centre": {
        "type": "Point",
        "coordinates": [4.1526, 44.1956]
      },
      "mairie": {
        "type": "Point",
        "coordinates": [4.1484, 44.1837]
      },
      "population": 4437,
      "surface": 3304.47,
      "radius": 3.24
    },
    {
      "nom": "Sabran",
      "code": "30225",
      "codesPostaux": ["30200"],
      "centre": {
        "type": "Point",
        "coordinates": [4.5467, 44.1531]
      },
      "mairie": {
        "type": "Point",
        "coordinates": [4.5753, 44.1667]
      },
      "population": 1596,
      "surface": 3570.9,
      "radius": 3.37
    },
    {
      "nom": "Saint-Alexandre",
      "code": "30226",
      "codesPostaux": ["30130"],
      "centre": {
        "type": "Point",
        "coordinates": [4.6373, 44.224]
      },
      "mairie": {
        "type": "Point",
        "coordinates": [4.6216, 44.2281]
      },
      "population": 1250,
      "surface": 1295.39,
      "radius": 2.03
    },
    {
      "nom": "Saint-Ambroix",
      "code": "30227",
      "codesPostaux": ["30500"],
      "centre": {
        "type": "Point",
        "coordinates": [4.1913, 44.2489]
      },
      "mairie": {
        "type": "Point",
        "coordinates": [4.1965, 44.2602]
      },
      "population": 3353,
      "surface": 1192.88,
      "radius": 1.95
    },
    {
      "nom": "Saint-André-d'Olérargues",
      "code": "30232",
      "codesPostaux": ["30330"],
      "centre": {
        "type": "Point",
        "coordinates": [4.4988, 44.1644]
      },
      "mairie": {
        "type": "Point",
        "coordinates": [4.4853, 44.1629]
      },
      "population": 444,
      "surface": 979.55,
      "radius": 1.77
    },
    {
      "nom": "Saint-André-de-Majencoules",
      "code": "30229",
      "codesPostaux": ["30570"],
      "centre": {
        "type": "Point",
        "coordinates": [3.6846, 44.0245]
      },
      "mairie": {
        "type": "Point",
        "coordinates": [3.6743, 44.0287]
      },
      "population": 600,
      "surface": 2203.2,
      "radius": 2.65
    },
    {
      "nom": "Saint-André-de-Roquepertuis",
      "code": "30230",
      "codesPostaux": ["30630"],
      "centre": {
        "type": "Point",
        "coordinates": [4.4448, 44.2382]
      },
      "mairie": {
        "type": "Point",
        "coordinates": [4.4571, 44.2401]
      },
      "population": 576,
      "surface": 1220.67,
      "radius": 1.97
    },
    {
      "nom": "Saint-André-de-Valborgne",
      "code": "30231",
      "codesPostaux": ["30940"],
      "centre": {
        "type": "Point",
        "coordinates": [3.6998, 44.15]
      },
      "mairie": {
        "type": "Point",
        "coordinates": [3.6831, 44.1558]
      },
      "population": 360,
      "surface": 4893.73,
      "radius": 3.95
    },
    {
      "nom": "Saint-Bauzély",
      "code": "30233",
      "codesPostaux": ["30730"],
      "centre": {
        "type": "Point",
        "coordinates": [4.1933, 43.9215]
      },
      "mairie": {
        "type": "Point",
        "coordinates": [4.1983, 43.9196]
      },
      "population": 681,
      "surface": 503.91,
      "radius": 1.27
    },
    {
      "nom": "Saint-Bénézet",
      "code": "30234",
      "codesPostaux": ["30350"],
      "centre": {
        "type": "Point",
        "coordinates": [4.1348, 43.9903]
      },
      "mairie": {
        "type": "Point",
        "coordinates": [4.1354, 43.993]
      },
      "population": 291,
      "surface": 639.62,
      "radius": 1.43
    },
    {
      "nom": "Saint-Bonnet-de-Salendrinque",
      "code": "30236",
      "codesPostaux": ["30460"],
      "centre": {
        "type": "Point",
        "coordinates": [3.8735, 44.0364]
      },
      "mairie": {
        "type": "Point",
        "coordinates": [3.8672, 44.0353]
      },
      "population": 124,
      "surface": 359.54,
      "radius": 1.07
    },
    {
      "nom": "Saint-Bonnet-du-Gard",
      "code": "30235",
      "codesPostaux": ["30210"],
      "centre": {
        "type": "Point",
        "coordinates": [4.5403, 43.9267]
      },
      "mairie": {
        "type": "Point",
        "coordinates": [4.5441, 43.9283]
      },
      "population": 816,
      "surface": 676.09,
      "radius": 1.47
    },
    {
      "nom": "Saint-Brès",
      "code": "30237",
      "codesPostaux": ["30500"],
      "centre": {
        "type": "Point",
        "coordinates": [4.2, 44.2829]
      },
      "mairie": {
        "type": "Point",
        "coordinates": [4.2, 44.2772]
      },
      "population": 684,
      "surface": 1135.45,
      "radius": 1.9
    },
    {
      "nom": "Saint-Bresson",
      "code": "30238",
      "codesPostaux": ["30440"],
      "centre": {
        "type": "Point",
        "coordinates": [3.6447, 43.956]
      },
      "mairie": {
        "type": "Point",
        "coordinates": [3.6452, 43.9538]
      },
      "population": 71,
      "surface": 854.75,
      "radius": 1.65
    },
    {
      "nom": "Saint-Césaire-de-Gauzignan",
      "code": "30240",
      "codesPostaux": ["30360"],
      "centre": {
        "type": "Point",
        "coordinates": [4.2019, 44.036]
      },
      "mairie": {
        "type": "Point",
        "coordinates": [4.2055, 44.0289]
      },
      "population": 390,
      "surface": 688.28,
      "radius": 1.48
    },
    {
      "nom": "Saint-Chaptes",
      "code": "30241",
      "codesPostaux": ["30190"],
      "centre": {
        "type": "Point",
        "coordinates": [4.2773, 43.9677]
      },
      "mairie": {
        "type": "Point",
        "coordinates": [4.2779, 43.9723]
      },
      "population": 2030,
      "surface": 1300.1,
      "radius": 2.03
    },
    {
      "nom": "Saint-Christol-de-Rodières",
      "code": "30242",
      "codesPostaux": ["30760"],
      "centre": {
        "type": "Point",
        "coordinates": [4.5172, 44.2605]
      },
      "mairie": {
        "type": "Point",
        "coordinates": [4.5131, 44.268]
      },
      "population": 160,
      "surface": 796.88,
      "radius": 1.59
    },
    {
      "nom": "Saint-Christol-lez-Alès",
      "code": "30243",
      "codesPostaux": ["30380"],
      "centre": {
        "type": "Point",
        "coordinates": [4.0682, 44.083]
      },
      "mairie": {
        "type": "Point",
        "coordinates": [4.0778, 44.0834]
      },
      "population": 7199,
      "surface": 2023.7,
      "radius": 2.54
    },
    {
      "nom": "Saint-Clément",
      "code": "30244",
      "codesPostaux": ["30260"],
      "centre": {
        "type": "Point",
        "coordinates": [4.0267, 43.828]
      },
      "mairie": {
        "type": "Point",
        "coordinates": [4.0255, 43.8315]
      },
      "population": 347,
      "surface": 491.74,
      "radius": 1.25
    },
    {
      "nom": "Saint-Côme-et-Maruéjols",
      "code": "30245",
      "codesPostaux": ["30870"],
      "centre": {
        "type": "Point",
        "coordinates": [4.1866, 43.833]
      },
      "mairie": {
        "type": "Point",
        "coordinates": [4.2033, 43.8278]
      },
      "population": 797,
      "surface": 1308.57,
      "radius": 2.04
    },
    {
      "nom": "Saint-Denis",
      "code": "30247",
      "codesPostaux": ["30500"],
      "centre": {
        "type": "Point",
        "coordinates": [4.2475, 44.2359]
      },
      "mairie": {
        "type": "Point",
        "coordinates": [4.2533, 44.2345]
      },
      "population": 292,
      "surface": 366.69,
      "radius": 1.08
    },
    {
      "nom": "Saint-Dézéry",
      "code": "30248",
      "codesPostaux": ["30190"],
      "centre": {
        "type": "Point",
        "coordinates": [4.2653, 43.9978]
      },
      "mairie": {
        "type": "Point",
        "coordinates": [4.2675, 44.0016]
      },
      "population": 459,
      "surface": 600.38,
      "radius": 1.38
    },
    {
      "nom": "Saint-Dionisy",
      "code": "30249",
      "codesPostaux": ["30980"],
      "centre": {
        "type": "Point",
        "coordinates": [4.2232, 43.8056]
      },
      "mairie": {
        "type": "Point",
        "coordinates": [4.2275, 43.8051]
      },
      "population": 1071,
      "surface": 343.13,
      "radius": 1.05
    },
    {
      "nom": "Saint-Étienne-de-l'Olm",
      "code": "30250",
      "codesPostaux": ["30360"],
      "centre": {
        "type": "Point",
        "coordinates": [4.1829, 44.0619]
      },
      "mairie": {
        "type": "Point",
        "coordinates": [4.1839, 44.0583]
      },
      "population": 391,
      "surface": 419.04,
      "radius": 1.15
    },
    {
      "nom": "Saint-Étienne-des-Sorts",
      "code": "30251",
      "codesPostaux": ["30200"],
      "centre": {
        "type": "Point",
        "coordinates": [4.6999, 44.18]
      },
      "mairie": {
        "type": "Point",
        "coordinates": [4.7055, 44.1853]
      },
      "population": 537,
      "surface": 972.5,
      "radius": 1.76
    },
    {
      "nom": "Saint-Félix-de-Pallières",
      "code": "30252",
      "codesPostaux": ["30140"],
      "centre": {
        "type": "Point",
        "coordinates": [3.9238, 44.0253]
      },
      "mairie": {
        "type": "Point",
        "coordinates": [3.9319, 44.0231]
      },
      "population": 201,
      "surface": 1890.31,
      "radius": 2.45
    },
    {
      "nom": "Saint-Florent-sur-Auzonnet",
      "code": "30253",
      "codesPostaux": ["30960"],
      "centre": {
        "type": "Point",
        "coordinates": [4.1067, 44.24]
      },
      "mairie": {
        "type": "Point",
        "coordinates": [4.1112, 44.2417]
      },
      "population": 1203,
      "surface": 930.15,
      "radius": 1.72
    },
    {
      "nom": "Saint-Geniès-de-Comolas",
      "code": "30254",
      "codesPostaux": ["30150"],
      "centre": {
        "type": "Point",
        "coordinates": [4.7299, 44.0679]
      },
      "mairie": {
        "type": "Point",
        "coordinates": [4.7226, 44.0648]
      },
      "population": 2013,
      "surface": 833.9,
      "radius": 1.63
    },
    {
      "nom": "Saint-Geniès-de-Malgoirès",
      "code": "30255",
      "codesPostaux": ["30190"],
      "centre": {
        "type": "Point",
        "coordinates": [4.214, 43.9477]
      },
      "mairie": {
        "type": "Point",
        "coordinates": [4.214, 43.9465]
      },
      "population": 3172,
      "surface": 1202.77,
      "radius": 1.96
    },
    {
      "nom": "Saint-Gervais",
      "code": "30256",
      "codesPostaux": ["30200"],
      "centre": {
        "type": "Point",
        "coordinates": [4.5786, 44.1949]
      },
      "mairie": {
        "type": "Point",
        "coordinates": [4.5738, 44.1854]
      },
      "population": 792,
      "surface": 1182.61,
      "radius": 1.94
    },
    {
      "nom": "Saint-Gervasy",
      "code": "30257",
      "codesPostaux": ["30320"],
      "centre": {
        "type": "Point",
        "coordinates": [4.4679, 43.8715]
      },
      "mairie": {
        "type": "Point",
        "coordinates": [4.4683, 43.8777]
      },
      "population": 1990,
      "surface": 709.81,
      "radius": 1.5
    },
    {
      "nom": "Saint-Gilles",
      "code": "30258",
      "codesPostaux": ["30800"],
      "centre": {
        "type": "Point",
        "coordinates": [4.4128, 43.6606]
      },
      "mairie": {
        "type": "Point",
        "coordinates": [4.4336, 43.677]
      },
      "population": 14427,
      "surface": 15223.28,
      "radius": 6.96
    },
    {
      "nom": "Saint-Hilaire-d'Ozilhan",
      "code": "30260",
      "codesPostaux": ["30210"],
      "centre": {
        "type": "Point",
        "coordinates": [4.603, 43.9704]
      },
      "mairie": {
        "type": "Point",
        "coordinates": [4.5913, 43.9701]
      },
      "population": 1115,
      "surface": 1681.09,
      "radius": 2.31
    },
    {
      "nom": "Saint-Hilaire-de-Brethmas",
      "code": "30259",
      "codesPostaux": ["30560"],
      "centre": {
        "type": "Point",
        "coordinates": [4.1229, 44.0941]
      },
      "mairie": {
        "type": "Point",
        "coordinates": [4.1229, 44.0809]
      },
      "population": 4643,
      "surface": 1397.53,
      "radius": 2.11
    },
    {
      "nom": "Saint-Hippolyte-de-Caton",
      "code": "30261",
      "codesPostaux": ["30360"],
      "centre": {
        "type": "Point",
        "coordinates": [4.1995, 44.0727]
      },
      "mairie": {
        "type": "Point",
        "coordinates": [4.2027, 44.0701]
      },
      "population": 272,
      "surface": 621,
      "radius": 1.41
    },
    {
      "nom": "Saint-Hippolyte-de-Montaigu",
      "code": "30262",
      "codesPostaux": ["30700"],
      "centre": {
        "type": "Point",
        "coordinates": [4.494, 44.0334]
      },
      "mairie": {
        "type": "Point",
        "coordinates": [4.4921, 44.0334]
      },
      "population": 249,
      "surface": 411.87,
      "radius": 1.14
    },
    {
      "nom": "Saint-Hippolyte-du-Fort",
      "code": "30263",
      "codesPostaux": ["30170"],
      "centre": {
        "type": "Point",
        "coordinates": [3.8544, 43.9514]
      },
      "mairie": {
        "type": "Point",
        "coordinates": [3.8578, 43.9654]
      },
      "population": 3739,
      "surface": 2940.27,
      "radius": 3.06
    },
    {
      "nom": "Saint-Jean-de-Ceyrargues",
      "code": "30264",
      "codesPostaux": ["30360"],
      "centre": {
        "type": "Point",
        "coordinates": [4.2272, 44.0547]
      },
      "mairie": {
        "type": "Point",
        "coordinates": [4.2272, 44.0509]
      },
      "population": 173,
      "surface": 674.9,
      "radius": 1.47
    },
    {
      "nom": "Saint-Jean-de-Crieulon",
      "code": "30265",
      "codesPostaux": ["30610"],
      "centre": {
        "type": "Point",
        "coordinates": [4.0013, 43.9672]
      },
      "mairie": {
        "type": "Point",
        "coordinates": [3.9926, 43.9706]
      },
      "population": 254,
      "surface": 573.16,
      "radius": 1.35
    },
    {
      "nom": "Saint-Jean-de-Maruéjols-et-Avéjan",
      "code": "30266",
      "codesPostaux": ["30430"],
      "centre": {
        "type": "Point",
        "coordinates": [4.2968, 44.2665]
      },
      "mairie": {
        "type": "Point",
        "coordinates": [4.2946, 44.259]
      },
      "population": 856,
      "surface": 1762.09,
      "radius": 2.37
    },
    {
      "nom": "Saint-Jean-de-Serres",
      "code": "30267",
      "codesPostaux": ["30350"],
      "centre": {
        "type": "Point",
        "coordinates": [4.0747, 43.9897]
      },
      "mairie": {
        "type": "Point",
        "coordinates": [4.0699, 43.9931]
      },
      "population": 536,
      "surface": 827.69,
      "radius": 1.62
    },
    {
      "nom": "Saint-Jean-de-Valériscle",
      "code": "30268",
      "codesPostaux": ["30960"],
      "centre": {
        "type": "Point",
        "coordinates": [4.1384, 44.2328]
      },
      "mairie": {
        "type": "Point",
        "coordinates": [4.1431, 44.2328]
      },
      "population": 593,
      "surface": 825.57,
      "radius": 1.62
    },
    {
      "nom": "Saint-Jean-du-Gard",
      "code": "30269",
      "codesPostaux": ["30270"],
      "centre": {
        "type": "Point",
        "coordinates": [3.8796, 44.1098]
      },
      "mairie": {
        "type": "Point",
        "coordinates": [3.8851, 44.1054]
      },
      "population": 2533,
      "surface": 4159.58,
      "radius": 3.64
    },
    {
      "nom": "Saint-Jean-du-Pin",
      "code": "30270",
      "codesPostaux": ["30140"],
      "centre": {
        "type": "Point",
        "coordinates": [4.0353, 44.1127]
      },
      "mairie": {
        "type": "Point",
        "coordinates": [4.0502, 44.1159]
      },
      "population": 1531,
      "surface": 1397.97,
      "radius": 2.11
    },
    {
      "nom": "Saint-Julien-de-Cassagnas",
      "code": "30271",
      "codesPostaux": ["30500"],
      "centre": {
        "type": "Point",
        "coordinates": [4.2029, 44.2115]
      },
      "mairie": {
        "type": "Point",
        "coordinates": [4.1967, 44.2117]
      },
      "population": 730,
      "surface": 451.43,
      "radius": 1.2
    },
    {
      "nom": "Saint-Julien-de-la-Nef",
      "code": "30272",
      "codesPostaux": ["30440"],
      "centre": {
        "type": "Point",
        "coordinates": [3.6837, 43.9631]
      },
      "mairie": {
        "type": "Point",
        "coordinates": [3.6881, 43.965]
      },
      "population": 145,
      "surface": 896.55,
      "radius": 1.69
    },
    {
      "nom": "Saint-Julien-de-Peyrolas",
      "code": "30273",
      "codesPostaux": ["30760"],
      "centre": {
        "type": "Point",
        "coordinates": [4.5703, 44.2826]
      },
      "mairie": {
        "type": "Point",
        "coordinates": [4.5647, 44.2878]
      },
      "population": 1501,
      "surface": 1256.75,
      "radius": 2
    },
    {
      "nom": "Saint-Julien-les-Rosiers",
      "code": "30274",
      "codesPostaux": ["30340"],
      "centre": {
        "type": "Point",
        "coordinates": [4.0986, 44.1934]
      },
      "mairie": {
        "type": "Point",
        "coordinates": [4.1048, 44.1751]
      },
      "population": 3492,
      "surface": 1410.9,
      "radius": 2.12
    },
    {
      "nom": "Saint-Just-et-Vacquières",
      "code": "30275",
      "codesPostaux": ["30580"],
      "centre": {
        "type": "Point",
        "coordinates": [4.2363, 44.1009]
      },
      "mairie": {
        "type": "Point",
        "coordinates": [4.2241, 44.1109]
      },
      "population": 326,
      "surface": 2350.65,
      "radius": 2.74
    },
    {
      "nom": "Saint-Laurent-d'Aigouze",
      "code": "30276",
      "codesPostaux": ["30220"],
      "centre": {
        "type": "Point",
        "coordinates": [4.237, 43.5766]
      },
      "mairie": {
        "type": "Point",
        "coordinates": [4.1957, 43.634]
      },
      "population": 3651,
      "surface": 8971.15,
      "radius": 5.34
    },
    {
      "nom": "Saint-Laurent-de-Carnols",
      "code": "30277",
      "codesPostaux": ["30200"],
      "centre": {
        "type": "Point",
        "coordinates": [4.5338, 44.2238]
      },
      "mairie": {
        "type": "Point",
        "coordinates": [4.5314, 44.2115]
      },
      "population": 535,
      "surface": 1013.45,
      "radius": 1.8
    },
    {
      "nom": "Saint-Laurent-des-Arbres",
      "code": "30278",
      "codesPostaux": ["30126"],
      "centre": {
        "type": "Point",
        "coordinates": [4.6885, 44.0522]
      },
      "mairie": {
        "type": "Point",
        "coordinates": [4.6988, 44.0535]
      },
      "population": 2984,
      "surface": 1637.2,
      "radius": 2.28
    },
    {
      "nom": "Saint-Laurent-la-Vernède",
      "code": "30279",
      "codesPostaux": ["30330"],
      "centre": {
        "type": "Point",
        "coordinates": [4.4643, 44.106]
      },
      "mairie": {
        "type": "Point",
        "coordinates": [4.4585, 44.1048]
      },
      "population": 707,
      "surface": 1184.03,
      "radius": 1.94
    },
    {
      "nom": "Saint-Laurent-le-Minier",
      "code": "30280",
      "codesPostaux": ["30440"],
      "centre": {
        "type": "Point",
        "coordinates": [3.6531, 43.9214]
      },
      "mairie": {
        "type": "Point",
        "coordinates": [3.6563, 43.9318]
      },
      "population": 371,
      "surface": 1326.77,
      "radius": 2.06
    },
    {
      "nom": "Saint-Mamert-du-Gard",
      "code": "30281",
      "codesPostaux": ["30730"],
      "centre": {
        "type": "Point",
        "coordinates": [4.1763, 43.8835]
      },
      "mairie": {
        "type": "Point",
        "coordinates": [4.1886, 43.8881]
      },
      "population": 1617,
      "surface": 1437.45,
      "radius": 2.14
    },
    {
      "nom": "Saint-Marcel-de-Careiret",
      "code": "30282",
      "codesPostaux": ["30330"],
      "centre": {
        "type": "Point",
        "coordinates": [4.4871, 44.1434]
      },
      "mairie": {
        "type": "Point",
        "coordinates": [4.4881, 44.1429]
      },
      "population": 873,
      "surface": 1022.73,
      "radius": 1.8
    },
    {
      "nom": "Saint-Martial",
      "code": "30283",
      "codesPostaux": ["30440"],
      "centre": {
        "type": "Point",
        "coordinates": [3.7474, 44.0388]
      },
      "mairie": {
        "type": "Point",
        "coordinates": [3.7356, 44.0353]
      },
      "population": 182,
      "surface": 1726.59,
      "radius": 2.34
    },
    {
      "nom": "Saint-Martin-de-Valgalgues",
      "code": "30284",
      "codesPostaux": ["30520"],
      "centre": {
        "type": "Point",
        "coordinates": [4.0797, 44.1648]
      },
      "mairie": {
        "type": "Point",
        "coordinates": [4.0826, 44.1627]
      },
      "population": 4721,
      "surface": 1340.31,
      "radius": 2.07
    },
    {
      "nom": "Saint-Maurice-de-Cazevieille",
      "code": "30285",
      "codesPostaux": ["30360"],
      "centre": {
        "type": "Point",
        "coordinates": [4.2425, 44.0388]
      },