{
  "departmentCode": "53",
  "departmentName": "Mayenne",
  "stats": {
    "communeCount": 240,
    "totalPopulation": 305437,
    "totalSurface": 520981
  },
  "communes": [
    {
      "nom": "Ahuillé",
      "code": "53001",
      "codesPostaux": ["53940"],
      "centre": {
        "type": "Point",
        "coordinates": [-0.8803, 48.0221]
      },
      "mairie": {
        "type": "Point",
        "coordinates": [-0.8703, 48.0197]
      },
      "population": 1864,
      "surface": 3056.49,
      "radius": 3.12
    },
    {
      "nom": "Alexain",
      "code": "53002",
      "codesPostaux": ["53240"],
      "centre": {
        "type": "Point",
        "coordinates": [-0.7399, 48.2327]
      },
      "mairie": {
        "type": "Point",
        "coordinates": [-0.7666, 48.2292]
      },
      "population": 612,
      "surface": 1642.95,
      "radius": 2.29
    },
    {
      "nom": "Ambrières-les-Vallées",
      "code": "53003",
      "codesPostaux": ["53300"],
      "centre": {
        "type": "Point",
        "coordinates": [-0.6268, 48.4242]
      },
      "mairie": {
        "type": "Point",
        "coordinates": [-0.6298, 48.4038]
      },
      "population": 2603,
      "surface": 3839.91,
      "radius": 3.5
    },
    {
      "nom": "Andouillé",
      "code": "53005",
      "codesPostaux": ["53240"],
      "centre": {
        "type": "Point",
        "coordinates": [-0.7911, 48.1769]
      },
      "mairie": {
        "type": "Point",
        "coordinates": [-0.7828, 48.1779]
      },
      "population": 2324,
      "surface": 3703.12,
      "radius": 3.43
    },
    {
      "nom": "Argentré",
      "code": "53007",
      "codesPostaux": ["53210"],
      "centre": {
        "type": "Point",
        "coordinates": [-0.624, 48.0942]
      },
      "mairie": {
        "type": "Point",
        "coordinates": [-0.6418, 48.0839]
      },
      "population": 2908,
      "surface": 3718.63,
      "radius": 3.44
    },
    {
      "nom": "Aron",
      "code": "53008",
      "codesPostaux": ["53440"],
      "centre": {
        "type": "Point",
        "coordinates": [-0.5539, 48.3058]
      },
      "mairie": {
        "type": "Point",
        "coordinates": [-0.5564, 48.2935]
      },
      "population": 1830,
      "surface": 3280.41,
      "radius": 3.23
    },
    {
      "nom": "Arquenay",
      "code": "53009",
      "codesPostaux": ["53170"],
      "centre": {
        "type": "Point",
        "coordinates": [-0.5932, 47.9816]
      },
      "mairie": {
        "type": "Point",
        "coordinates": [-0.5694, 47.9867]
      },
      "population": 672,
      "surface": 2537.55,
      "radius": 2.84
    },
    {
      "nom": "Assé-le-Bérenger",
      "code": "53010",
      "codesPostaux": ["53600"],
      "centre": {
        "type": "Point",
        "coordinates": [-0.3195, 48.1553]
      },
      "mairie": {
        "type": "Point",
        "coordinates": [-0.3228, 48.1549]
      },
      "population": 419,
      "surface": 1192.58,
      "radius": 1.95
    },
    {
      "nom": "Astillé",
      "code": "53011",
      "codesPostaux": ["53230"],
      "centre": {
        "type": "Point",
        "coordinates": [-0.8493, 47.9593]
      },
      "mairie": {
        "type": "Point",
        "coordinates": [-0.8543, 47.9634]
      },
      "population": 887,
      "surface": 2102.37,
      "radius": 2.59
    },
    {
      "nom": "Athée",
      "code": "53012",
      "codesPostaux": ["53400"],
      "centre": {
        "type": "Point",
        "coordinates": [-0.9335, 47.8868]
      },
      "mairie": {
        "type": "Point",
        "coordinates": [-0.9509, 47.8876]
      },
      "population": 453,
      "surface": 1729.52,
      "radius": 2.35
    },
    {
      "nom": "Averton",
      "code": "53013",
      "codesPostaux": ["53700"],
      "centre": {
        "type": "Point",
        "coordinates": [-0.2035, 48.3575]
      },
      "mairie": {
        "type": "Point",
        "coordinates": [-0.2248, 48.3318]
      },
      "population": 555,
      "surface": 4054.05,
      "radius": 3.59
    },
    {
      "nom": "Bais",
      "code": "53016",
      "codesPostaux": ["53160"],
      "centre": {
        "type": "Point",
        "coordinates": [-0.3573, 48.2485]
      },
      "mairie": {
        "type": "Point",
        "coordinates": [-0.365, 48.2515]
      },
      "population": 1220,
      "surface": 2636.73,
      "radius": 2.9
    },
    {
      "nom": "Ballots",
      "code": "53018",
      "codesPostaux": ["53350"],
      "centre": {
        "type": "Point",
        "coordinates": [-1.0561, 47.9026]
      },
      "mairie": {
        "type": "Point",
        "coordinates": [-1.0503, 47.8957]
      },
      "population": 1298,
      "surface": 3606.05,
      "radius": 3.39
    },
    {
      "nom": "Bannes",
      "code": "53019",
      "codesPostaux": ["53340"],
      "centre": {
        "type": "Point",
        "coordinates": [-0.3491, 47.9859]
      },
      "mairie": {
        "type": "Point",
        "coordinates": [-0.352, 47.9813]
      },
      "population": 119,
      "surface": 836.46,
      "radius": 1.63
    },
    {
      "nom": "Bazougers",
      "code": "53025",
      "codesPostaux": ["53170"],
      "centre": {
        "type": "Point",
        "coordinates": [-0.6002, 48.03]
      },
      "mairie": {
        "type": "Point",
        "coordinates": [-0.5809, 48.0173]
      },
      "population": 1086,
      "surface": 3197.21,
      "radius": 3.19
    },
    {
      "nom": "Beaulieu-sur-Oudon",
      "code": "53026",
      "codesPostaux": ["53320"],
      "centre": {
        "type": "Point",
        "coordinates": [-0.9848, 47.9941]
      },
      "mairie": {
        "type": "Point",
        "coordinates": [-0.995, 48.0044]
      },
      "population": 500,
      "surface": 2019.9,
      "radius": 2.54
    },
    {
      "nom": "Beaumont-Pied-de-Bœuf",
      "code": "53027",
      "codesPostaux": ["53290"],
      "centre": {
        "type": "Point",
        "coordinates": [-0.4435, 47.9111]
      },
      "mairie": {
        "type": "Point",
        "coordinates": [-0.4332, 47.9051]
      },
      "population": 203,
      "surface": 1362.3,
      "radius": 2.08
    },
    {
      "nom": "Belgeard",
      "code": "53028",
      "codesPostaux": ["53440"],
      "centre": {
        "type": "Point",
        "coordinates": [-0.5635, 48.2545]
      },
      "mairie": {
        "type": "Point",
        "coordinates": [-0.5498, 48.2536]
      },
      "population": 560,
      "surface": 1309.3,
      "radius": 2.04
    },
    {
      "nom": "Bierné-les-Villages",
      "code": "53029",
      "codesPostaux": ["53290"],
      "centre": {
        "type": "Point",
        "coordinates": [-0.5633, 47.7918]
      },
      "mairie": {
        "type": "Point",
        "coordinates": [-0.5427, 47.8101]
      },
      "population": 1280,
      "surface": 4818.07,
      "radius": 3.92
    },
    {
      "nom": "Blandouet-Saint Jean",
      "code": "53228",
      "codesPostaux": ["53270"],
      "centre": {
        "type": "Point",
        "coordinates": [-0.3608, 48.048]
      },
      "mairie": {
        "type": "Point",
        "coordinates": [-0.3867, 48.0346]
      },
      "population": 556,
      "surface": 3649.78,
      "radius": 3.41
    },
    {
      "nom": "Bonchamp-lès-Laval",
      "code": "53034",
      "codesPostaux": ["53960"],
      "centre": {
        "type": "Point",
        "coordinates": [-0.6996, 48.0715]
      },
      "mairie": {
        "type": "Point",
        "coordinates": [-0.7, 48.0736]
      },
      "population": 6294,
      "surface": 2756.04,
      "radius": 2.96
    },
    {
      "nom": "Bouchamps-lès-Craon",
      "code": "53035",
      "codesPostaux": ["53800"],
      "centre": {
        "type": "Point",
        "coordinates": [-0.9851, 47.8075]
      },
      "mairie": {
        "type": "Point",
        "coordinates": [-0.9933, 47.815]
      },
      "population": 611,
      "surface": 1815.46,
      "radius": 2.4
    },
    {
      "nom": "Bouère",
      "code": "53036",
      "codesPostaux": ["53290"],
      "centre": {
        "type": "Point",
        "coordinates": [-0.4852, 47.8601]
      },
      "mairie": {
        "type": "Point",
        "coordinates": [-0.4774, 47.8634]
      },
      "population": 1066,
      "surface": 4302.03,
      "radius": 3.7
    },
    {
      "nom": "Bouessay",
      "code": "53037",
      "codesPostaux": ["53290"],
      "centre": {
        "type": "Point",
        "coordinates": [-0.3939, 47.8722]
      },
      "mairie": {
        "type": "Point",
        "coordinates": [-0.3943, 47.8755]
      },
      "population": 718,
      "surface": 935.52,
      "radius": 1.73
    },
    {
      "nom": "Boulay-les-Ifs",
      "code": "53038",
      "codesPostaux": ["53370"],
      "centre": {
        "type": "Point",
        "coordinates": [-0.1369, 48.4272]
      },
      "mairie": {
        "type": "Point",
        "coordinates": [-0.1328, 48.4205]
      },
      "population": 136,
      "surface": 898.22,
      "radius": 1.69
    },
    {
      "nom": "Bourgon",
      "code": "53040",
      "codesPostaux": ["53410"],
      "centre": {
        "type": "Point",
        "coordinates": [-1.0435, 48.1552]
      },
      "mairie": {
        "type": "Point",
        "coordinates": [-1.0675, 48.1677]
      },
      "population": 618,
      "surface": 2134.14,
      "radius": 2.61
    },
    {
      "nom": "Brains-sur-les-Marches",
      "code": "53041",
      "codesPostaux": ["53350"],
      "centre": {
        "type": "Point",
        "coordinates": [-1.1769, 47.8853]
      },
      "mairie": {
        "type": "Point",
        "coordinates": [-1.1817, 47.8869]
      },
      "population": 276,
      "surface": 776.86,
      "radius": 1.57
    },
    {
      "nom": "Brecé",
      "code": "53042",
      "codesPostaux": ["53120"],
      "centre": {
        "type": "Point",
        "coordinates": [-0.7738, 48.391]
      },
      "mairie": {
        "type": "Point",
        "coordinates": [-0.7906, 48.3993]
      },
      "population": 833,
      "surface": 3533.05,
      "radius": 3.35
    },
    {
      "nom": "Brée",
      "code": "53043",
      "codesPostaux": ["53150"],
      "centre": {
        "type": "Point",
        "coordinates": [-0.5194, 48.157]
      },
      "mairie": {
        "type": "Point",
        "coordinates": [-0.5212, 48.1502]
      },
      "population": 584,
      "surface": 1659.69,
      "radius": 2.3
    },
    {
      "nom": "Carelles",
      "code": "53047",
      "codesPostaux": ["53120"],
      "centre": {
        "type": "Point",
        "coordinates": [-0.9003, 48.3916]
      },
      "mairie": {
        "type": "Point",
        "coordinates": [-0.9055, 48.3818]
      },
      "population": 254,
      "surface": 1305.49,
      "radius": 2.04
    },
    {
      "nom": "Chailland",
      "code": "53048",
      "codesPostaux": ["53420"],
      "centre": {
        "type": "Point",
        "coordinates": [-0.8647, 48.2269]
      },
      "mairie": {
        "type": "Point",
        "coordinates": [-0.8735, 48.2239]
      },
      "population": 1173,
      "surface": 3581.03,
      "radius": 3.38
    },
    {
      "nom": "Châlons-du-Maine",
      "code": "53049",
      "codesPostaux": ["53470"],
      "centre": {
        "type": "Point",
        "coordinates": [-0.6484, 48.1562]
      },
      "mairie": {
        "type": "Point",
        "coordinates": [-0.6423, 48.163]
      },
      "population": 691,
      "surface": 984.8,
      "radius": 1.77
    },
    {
      "nom": "Champéon",
      "code": "53051",
      "codesPostaux": ["53640"],
      "centre": {
        "type": "Point",
        "coordinates": [-0.5162, 48.3588]
      },
      "mairie": {
        "type": "Point",
        "coordinates": [-0.518, 48.3673]
      },
      "population": 624,
      "surface": 2098.09,
      "radius": 2.58
    },
    {
      "nom": "Champfrémont",
      "code": "53052",
      "codesPostaux": ["53370"],
      "centre": {
        "type": "Point",
        "coordinates": [-0.1062, 48.433]
      },
      "mairie": {
        "type": "Point",
        "coordinates": [-0.0938, 48.4284]
      },
      "population": 282,
      "surface": 1304.36,
      "radius": 2.04
    },
    {
      "nom": "Champgenéteux",
      "code": "53053",
      "codesPostaux": ["53160"],
      "centre": {
        "type": "Point",
        "coordinates": [-0.3741, 48.2938]
      },
      "mairie": {
        "type": "Point",
        "coordinates": [-0.3612, 48.2911]
      },
      "population": 495,
      "surface": 2523.22,
      "radius": 2.83
    },
    {
      "nom": "Changé",
      "code": "53054",
      "codesPostaux": ["53810"],
      "centre": {
        "type": "Point",
        "coordinates": [-0.7961, 48.1131]
      },
      "mairie": {
        "type": "Point",
        "coordinates": [-0.7887, 48.0987]
      },
      "population": 6482,
      "surface": 3567.23,
      "radius": 3.37
    },
    {
      "nom": "Chantrigné",
      "code": "53055",
      "codesPostaux": ["53300"],
      "centre": {
        "type": "Point",
        "coordinates": [-0.5521, 48.4148]
      },
      "mairie": {
        "type": "Point",
        "coordinates": [-0.5644, 48.4157]
      },
      "population": 599,
      "surface": 1867.47,
      "radius": 2.44
    },
    {
      "nom": "Charchigné",
      "code": "53061",
      "codesPostaux": ["53250"],
      "centre": {
        "type": "Point",
        "coordinates": [-0.4057, 48.415]
      },
      "mairie": {
        "type": "Point",
        "coordinates": [-0.408, 48.4167]
      },
      "population": 455,
      "surface": 1490.02,
      "radius": 2.18
    },
    {
      "nom": "Château-Gontier-sur-Mayenne",
      "code": "53062",
      "codesPostaux": ["53200"],
      "centre": {
        "type": "Point",
        "coordinates": [-0.701, 47.821]
      },
      "mairie": {
        "type": "Point",
        "coordinates": [-0.7071, 47.8261]
      },
      "population": 16539,
      "surface": 6826.19,
      "radius": 4.66
    },
    {
      "nom": "Châtelain",
      "code": "53063",
      "codesPostaux": ["53200"],
      "centre": {
        "type": "Point",
        "coordinates": [-0.5998, 47.8057]
      },
      "mairie": {
        "type": "Point",
        "coordinates": [-0.5983, 47.8092]
      },
      "population": 464,
      "surface": 1386.42,
      "radius": 2.1
    },
    {
      "nom": "Châtillon-sur-Colmont",
      "code": "53064",
      "codesPostaux": ["53100"],
      "centre": {
        "type": "Point",
        "coordinates": [-0.7574, 48.3352]
      },
      "mairie": {
        "type": "Point",
        "coordinates": [-0.74, 48.3386]
      },
      "population": 960,
      "surface": 4004.97,
      "radius": 3.57
    },
    {
      "nom": "Chemazé",
      "code": "53066",
      "codesPostaux": ["53200"],
      "centre": {
        "type": "Point",
        "coordinates": [-0.7662, 47.7782]
      },
      "mairie": {
        "type": "Point",
        "coordinates": [-0.7745, 47.7859]
      },
      "population": 1363,
      "surface": 3869.12,
      "radius": 3.51
    },
    {
      "nom": "Chémeré-le-Roi",
      "code": "53067",
      "codesPostaux": ["53340"],
      "centre": {
        "type": "Point",
        "coordinates": [-0.4472, 47.9758]
      },
      "mairie": {
        "type": "Point",
        "coordinates": [-0.4412, 47.9773]
      },
      "population": 433,
      "surface": 1535.72,
      "radius": 2.21
    },
    {
      "nom": "Chérancé",
      "code": "53068",
      "codesPostaux": ["53400"],
      "centre": {
        "type": "Point",
        "coordinates": [-0.9265, 47.8006]
      },
      "mairie": {
        "type": "Point",
        "coordinates": [-0.9364, 47.7948]
      },
      "population": 155,
      "surface": 871.55,
      "radius": 1.67
    },
    {
      "nom": "Chevaigné-du-Maine",
      "code": "53069",
      "codesPostaux": ["53250"],
      "centre": {
        "type": "Point",
        "coordinates": [-0.4046, 48.4393]
      },
      "mairie": {
        "type": "Point",
        "coordinates": [-0.3872, 48.4361]
      },
      "population": 152,
      "surface": 1324.38,
      "radius": 2.05
    },
    {
      "nom": "Colombiers-du-Plessis",
      "code": "53071",
      "codesPostaux": ["53120"],
      "centre": {
        "type": "Point",
        "coordinates": [-0.8459, 48.3873]
      },
      "mairie": {
        "type": "Point",
        "coordinates": [-0.8412, 48.3915]
      },
      "population": 477,
      "surface": 2145.27,
      "radius": 2.61
    },
    {
      "nom": "Commer",
      "code": "53072",
      "codesPostaux": ["53470"],
      "centre": {
        "type": "Point",
        "coordinates": [-0.6264, 48.2343]
      },
      "mairie": {
        "type": "Point",
        "coordinates": [-0.6202, 48.2414]
      },
      "population": 1289,
      "surface": 2306.63,
      "radius": 2.71
    },
    {
      "nom": "Congrier",
      "code": "53073",
      "codesPostaux": ["53800"],
      "centre": {
        "type": "Point",
        "coordinates": [-1.124, 47.8062]
      },
      "mairie": {
        "type": "Point",
        "coordinates": [-1.1164, 47.811]
      },
      "population": 919,
      "surface": 2457.42,
      "radius": 2.8
    },
    {
      "nom": "Contest",
      "code": "53074",
      "codesPostaux": ["53100"],
      "centre": {
        "type": "Point",
        "coordinates": [-0.6924, 48.2563]
      },
      "mairie": {
        "type": "Point",
        "coordinates": [-0.6585, 48.262]
      },
      "population": 840,
      "surface": 2328.34,
      "radius": 2.72
    },
    {
      "nom": "Cosmes",
      "code": "53075",
      "codesPostaux": ["53230"],
      "centre": {
        "type": "Point",
        "coordinates": [-0.8746, 47.9189]
      },
      "mairie": {
        "type": "Point",
        "coordinates": [-0.8823, 47.9199]
      },
      "population": 298,
      "surface": 1377.62,
      "radius": 2.09
    },
    {
      "nom": "Cossé-en-Champagne",
      "code": "53076",
      "codesPostaux": ["53340"],
      "centre": {
        "type": "Point",
        "coordinates": [-0.3233, 47.9707]
      },
      "mairie": {
        "type": "Point",
        "coordinates": [-0.3344, 47.9629]
      },
      "population": 307,
      "surface": 2122.26,
      "radius": 2.6
    },
    {
      "nom": "Cossé-le-Vivien",
      "code": "53077",
      "codesPostaux": ["53230"],
      "centre": {
        "type": "Point",
        "coordinates": [-0.9284, 47.9452]
      },
      "mairie": {
        "type": "Point",
        "coordinates": [-0.9128, 47.9446]
      },
      "population": 3208,
      "surface": 4488.65,
      "radius": 3.78
    },
    {
      "nom": "Coudray",
      "code": "53078",
      "codesPostaux": ["53200"],
      "centre": {
        "type": "Point",
        "coordinates": [-0.6374, 47.7914]
      },
      "mairie": {
        "type": "Point",
        "coordinates": [-0.6435, 47.7903]
      },
      "population": 867,
      "surface": 1097.21,
      "radius": 1.87
    },
    {
      "nom": "Couesmes-Vaucé",
      "code": "53079",
      "codesPostaux": ["53300"],
      "centre": {
        "type": "Point",
        "coordinates": [-0.7093, 48.4479]
      },
      "mairie": {
        "type": "Point",
        "coordinates": [-0.7112, 48.451]
      },
      "population": 377,
      "surface": 1913.2,
      "radius": 2.47
    },
    {
      "nom": "Couptrain",
      "code": "53080",
      "codesPostaux": ["53250"],
      "centre": {
        "type": "Point",
        "coordinates": [-0.2918, 48.4827]
      },
      "mairie": {
        "type": "Point",
        "coordinates": [-0.2965, 48.4843]
      },
      "population": 114,
      "surface": 69.3,
      "radius": 0.47
    },
    {
      "nom": "Courbeveille",
      "code": "53082",
      "codesPostaux": ["53230"],
      "centre": {
        "type": "Point",
        "coordinates": [-0.8914, 47.9852]
      },
      "mairie": {
        "type": "Point",
        "coordinates": [-0.8878, 47.9924]
      },
      "population": 633,
      "surface": 1861.86,
      "radius": 2.43
    },
    {
      "nom": "Courcité",
      "code": "53083",
      "codesPostaux": ["53700"],
      "centre": {
        "type": "Point",
        "coordinates": [-0.2583, 48.3019]
      },
      "mairie": {
        "type": "Point",
        "coordinates": [-0.2492, 48.307]
      },
      "population": 808,
      "surface": 3060.82,
      "radius": 3.12
    },
    {
      "nom": "Craon",
      "code": "53084",
      "codesPostaux": ["53400"],
      "centre": {
        "type": "Point",
        "coordinates": [-0.9396, 47.8431]
      },
      "mairie": {
        "type": "Point",
        "coordinates": [-0.9498, 47.8488]
      },
      "population": 4415,
      "surface": 2432.25,
      "radius": 2.78
    },
    {
      "nom": "Crennes-sur-Fraubée",
      "code": "53085",
      "codesPostaux": ["53700"],
      "centre": {
        "type": "Point",
        "coordinates": [-0.2614, 48.3858]
      },
      "mairie": {
        "type": "Point",
        "coordinates": [-0.276, 48.379]
      },
      "population": 197,
      "surface": 1268.06,
      "radius": 2.01
    },
    {
      "nom": "Cuillé",
      "code": "53088",
      "codesPostaux": ["53540"],
      "centre": {
        "type": "Point",
        "coordinates": [-1.1114, 47.9637]
      },
      "mairie": {
        "type": "Point",
        "coordinates": [-1.1211, 47.9701]
      },
      "population": 853,
      "surface": 2172.73,
      "radius": 2.63
    },
    {
      "nom": "Daon",
      "code": "53089",
      "codesPostaux": ["53200"],
      "centre": {
        "type": "Point",
        "coordinates": [-0.6335, 47.7563]
      },
      "mairie": {
        "type": "Point",
        "coordinates": [-0.6392, 47.7496]
      },
      "population": 533,
      "surface": 1825.25,
      "radius": 2.41
    },
    {
      "nom": "Denazé",
      "code": "53090",
      "codesPostaux": ["53400"],
      "centre": {
        "type": "Point",
        "coordinates": [-0.881, 47.8818]
      },
      "mairie": {
        "type": "Point",
        "coordinates": [-0.8879, 47.8852]
      },
      "population": 184,
      "surface": 927.02,
      "radius": 1.72
    },
    {
      "nom": "Désertines",
      "code": "53091",
      "codesPostaux": ["53190"],
      "centre": {
        "type": "Point",
        "coordinates": [-0.8715, 48.4697]
      },
      "mairie": {
        "type": "Point",
        "coordinates": [-0.868, 48.4683]
      },
      "population": 461,
      "surface": 2605.54,
      "radius": 2.88
    },
    {
      "nom": "Entrammes",
      "code": "53094",
      "codesPostaux": ["53260"],
      "centre": {
        "type": "Point",
        "coordinates": [-0.7149, 47.9924]
      },
      "mairie": {
        "type": "Point",
        "coordinates": [-0.7156, 47.9995]
      },
      "population": 2278,
      "surface": 2680.64,
      "radius": 2.92
    },
    {
      "nom": "Ernée",
      "code": "53096",
      "codesPostaux": ["53500"],
      "centre": {
        "type": "Point",
        "coordinates": [-0.9316, 48.2954]
      },
      "mairie": {
        "type": "Point",
        "coordinates": [-0.94, 48.2969]
      },
      "population": 5511,
      "surface": 3640.67,
      "radius": 3.4
    },
    {
      "nom": "Évron",
      "code": "53097",
      "codesPostaux": ["53150", "53600"],
      "centre": {
        "type": "Point",
        "coordinates": [-0.4328, 48.1423]
      },
      "mairie": {
        "type": "Point",
        "coordinates": [-0.4008, 48.1564]
      },
      "population": 8380,
      "surface": 6906.53,
      "radius": 4.69
    },
    {
      "nom": "Fontaine-Couverte",
      "code": "53098",
      "codesPostaux": ["53350"],
      "centre": {
        "type": "Point",
        "coordinates": [-1.1344, 47.9124]
      },
      "mairie": {
        "type": "Point",
        "coordinates": [-1.1438, 47.9081]
      },
      "population": 423,
      "surface": 2167.01,
      "radius": 2.63
    },
    {
      "nom": "Forcé",
      "code": "53099",
      "codesPostaux": ["53260"],
      "centre": {
        "type": "Point",
        "coordinates": [-0.7058, 48.0291]
      },
      "mairie": {
        "type": "Point",
        "coordinates": [-0.7021, 48.0344]
      },
      "population": 1096,
      "surface": 504.65,
      "radius": 1.27
    },
    {
      "nom": "Fougerolles-du-Plessis",
      "code": "53100",
      "codesPostaux": ["53190"],
      "centre": {
        "type": "Point",
        "coordinates": [-0.9499, 48.4834]
      },
      "mairie": {
        "type": "Point",
        "coordinates": [-0.9725, 48.4742]
      },
      "population": 1186,
      "surface": 3380.98,
      "radius": 3.28
    },
    {
      "nom": "Fromentières",
      "code": "53101",
      "codesPostaux": ["53200"],
      "centre": {
        "type": "Point",
        "coordinates": [-0.6641, 47.8711]
      },
      "mairie": {
        "type": "Point",
        "coordinates": [-0.6655, 47.8638]
      },
      "population": 838,
      "surface": 2217.97,
      "radius": 2.66
    },
    {
      "nom": "Gastines",
      "code": "53102",
      "codesPostaux": ["53540"],
      "centre": {
        "type": "Point",
        "coordinates": [-1.1141, 47.9407]
      },
      "mairie": {
        "type": "Point",
        "coordinates": [-1.1047, 47.9518]
      },
      "population": 166,
      "surface": 897.61,
      "radius": 1.69
    },
    {
      "nom": "Gennes-Longuefuye",
      "code": "53104",
      "codesPostaux": ["53200"],
      "centre": {
        "type": "Point",
        "coordinates": [-0.585, 47.8605]
      },
      "mairie": {
        "type": "Point",
        "coordinates": [-0.6071, 47.8541]
      },
      "population": 1351,
      "surface": 4091.08,
      "radius": 3.61
    },
    {
      "nom": "Gesnes",
      "code": "53105",
      "codesPostaux": ["53150"],
      "centre": {
        "type": "Point",
        "coordinates": [-0.5944, 48.1509]
      },
      "mairie": {
        "type": "Point",
        "coordinates": [-0.5847, 48.1468]
      },
      "population": 238,
      "surface": 1119.68,
      "radius": 1.89
    },
    {
      "nom": "Gesvres",
      "code": "53106",
      "codesPostaux": ["53370"],
      "centre": {
        "type": "Point",
        "coordinates": [-0.1644, 48.3722]
      },
      "mairie": {
        "type": "Point",
        "coordinates": [-0.1454, 48.3691]
      },
      "population": 541,
      "surface": 2166.38,
      "radius": 2.63
    },
    {
      "nom": "Gorron",
      "code": "53107",
      "codesPostaux": ["53120"],
      "centre": {
        "type": "Point",
        "coordinates": [-0.7969, 48.4209]
      },
      "mairie": {
        "type": "Point",
        "coordinates": [-0.813, 48.4117]
      },
      "population": 2475,
      "surface": 1482.68,
      "radius": 2.17
    },
    {
      "nom": "Grazay",
      "code": "53109",
      "codesPostaux": ["53440"],
      "centre": {
        "type": "Point",
        "coordinates": [-0.4766, 48.2871]
      },
      "mairie": {
        "type": "Point",
        "coordinates": [-0.4836, 48.2914]
      },
      "population": 626,
      "surface": 1681.9,
      "radius": 2.31
    },
    {
      "nom": "Grez-en-Bouère",
      "code": "53110",
      "codesPostaux": ["53290"],
      "centre": {
        "type": "Point",
        "coordinates": [-0.5403, 47.8709]
      },
      "mairie": {
        "type": "Point",
        "coordinates": [-0.5226, 47.873]
      },
      "population": 977,
      "surface": 2764.77,
      "radius": 2.97
    },
    {
      "nom": "Hambers",
      "code": "53113",
      "codesPostaux": ["53160"],
      "centre": {
        "type": "Point",
        "coordinates": [-0.4274, 48.2534]
      },
      "mairie": {
        "type": "Point",
        "coordinates": [-0.4174, 48.2549]
      },
      "population": 625,
      "surface": 2612.89,
      "radius": 2.88
    },
    {
      "nom": "Hardanges",
      "code": "53114",
      "codesPostaux": ["53640"],
      "centre": {
        "type": "Point",
        "coordinates": [-0.4091, 48.3365]
      },
      "mairie": {
        "type": "Point",
        "coordinates": [-0.4011, 48.336]
      },
      "population": 172,
      "surface": 1845.92,
      "radius": 2.42
    },
    {
      "nom": "Hercé",
      "code": "53115",
      "codesPostaux": ["53120"],
      "centre": {
        "type": "Point",
        "coordinates": [-0.8638, 48.4221]
      },
      "mairie": {
        "type": "Point",
        "coordinates": [-0.8521, 48.4183]
      },
      "population": 305,
      "surface": 1027.23,
      "radius": 1.81
    },
    {
      "nom": "Houssay",
      "code": "53117",
      "codesPostaux": ["53360"],
      "centre": {
        "type": "Point",
        "coordinates": [-0.7452, 47.9124]
      },
      "mairie": {
        "type": "Point",
        "coordinates": [-0.7357, 47.9147]
      },
      "population": 496,
      "surface": 1407.17,
      "radius": 2.12
    },
    {
      "nom": "Izé",
      "code": "53120",
      "codesPostaux": ["53160"],
      "centre": {
        "type": "Point",
        "coordinates": [-0.2986, 48.2237]
      },
      "mairie": {
        "type": "Point",
        "coordinates": [-0.3082, 48.2306]
      },
      "population": 458,
      "surface": 2846.04,
      "radius": 3.01
    },
    {
      "nom": "Javron-les-Chapelles",
      "code": "53121",
      "codesPostaux": ["53250"],
      "centre": {
        "type": "Point",
        "coordinates": [-0.3257, 48.4229]
      },
      "mairie": {
        "type": "Point",
        "coordinates": [-0.3362, 48.4169]
      },
      "population": 1343,
      "surface": 3856.14,
      "radius": 3.5
    },
    {
      "nom": "Jublains",
      "code": "53122",
      "codesPostaux": ["53160"],
      "centre": {
        "type": "Point",
        "coordinates": [-0.4941, 48.2442]
      },
      "mairie": {
        "type": "Point",
        "coordinates": [-0.495, 48.2564]
      },
      "population": 756,
      "surface": 3646.88,
      "radius": 3.41
    },
    {
      "nom": "Juvigné",
      "code": "53123",
      "codesPostaux": ["53380"],
      "centre": {
        "type": "Point",
        "coordinates": [-1.028, 48.2342]
      },
      "mairie": {
        "type": "Point",
        "coordinates": [-1.0335, 48.2306]
      },
      "population": 1332,
      "surface": 6251,
      "radius": 4.46
    },
    {
      "nom": "L'Huisserie",
      "code": "53119",
      "codesPostaux": ["53970"],
      "centre": {
        "type": "Point",
        "coordinates": [-0.7704, 48.0147]
      },
      "mairie": {
        "type": "Point",
        "coordinates": [-0.7699, 48.0225]
      },
      "population": 4554,
      "surface": 1512.88,
      "radius": 2.19
    },
    {
      "nom": "La Baconnière",
      "code": "53015",
      "codesPostaux": ["53240"],
      "centre": {
        "type": "Point",
        "coordinates": [-0.9012, 48.1765]
      },
      "mairie": {
        "type": "Point",
        "coordinates": [-0.8928, 48.1839]
      },
      "population": 1964,
      "surface": 2782.46,
      "radius": 2.98
    },
    {
      "nom": "La Bazoge-Montpinçon",
      "code": "53021",
      "codesPostaux": ["53440"],
      "centre": {
        "type": "Point",
        "coordinates": [-0.5853, 48.2704]
      },
      "mairie": {
        "type": "Point",
        "coordinates": [-0.5751, 48.2779]
      },
      "population": 966,
      "surface": 850.69,
      "radius": 1.65
    },
    {
      "nom": "La Bazouge-de-Chemeré",
      "code": "53022",
      "codesPostaux": ["53170"],
      "centre": {
        "type": "Point",
        "coordinates": [-0.5028, 48.0041]
      },
      "mairie": {
        "type": "Point",
        "coordinates": [-0.4871, 48.0013]
      },
      "population": 495,
      "surface": 2509.63,
      "radius": 2.83
    },
    {
      "nom": "La Bazouge-des-Alleux",
      "code": "53023",
      "codesPostaux": ["53470"],
      "centre": {
        "type": "Point",
        "coordinates": [-0.602, 48.1883]
      },
      "mairie": {
        "type": "Point",
        "coordinates": [-0.6107, 48.183]
      },
      "population": 550,
      "surface": 1815.84,
      "radius": 2.4
    },
    {
      "nom": "La Bigottière",
      "code": "53031",
      "codesPostaux": ["53240"],
      "centre": {
        "type": "Point",
        "coordinates": [-0.798, 48.221]
      },
      "mairie": {
        "type": "Point",
        "coordinates": [-0.7974, 48.2184]
      },
      "population": 490,
      "surface": 1866.74,
      "radius": 2.44
    },
    {
      "nom": "La Boissière",
      "code": "53033",
      "codesPostaux": ["53800"],
      "centre": {
        "type": "Point",
        "coordinates": [-0.9788, 47.773]
      },
      "mairie": {
        "type": "Point",
        "coordinates": [-0.983, 47.7814]
      },
      "population": 116,
      "surface": 631.35,
      "radius": 1.42
    },
    {
      "nom": "La Brûlatte",
      "code": "53045",
      "codesPostaux": ["53410"],
      "centre": {
        "type": "Point",
        "coordinates": [-0.9713, 48.0899]
      },
      "mairie": {
        "type": "Point",
        "coordinates": [-0.9529, 48.0856]
      },
      "population": 674,
      "surface": 1551.42,
      "radius": 2.22
    },
    {
      "nom": "La Chapelle-Anthenaise",
      "code": "53056",
      "codesPostaux": ["53950"],
      "centre": {
        "type": "Point",
        "coordinates": [-0.6556, 48.1293]
      },
      "mairie": {
        "type": "Point",
        "coordinates": [-0.678, 48.1222]
      },
      "population": 963,
      "surface": 2019.78,
      "radius": 2.54
    },
    {
      "nom": "La Chapelle-au-Riboul",
      "code": "53057",
      "codesPostaux": ["53440"],
      "centre": {
        "type": "Point",
        "coordinates": [-0.4308, 48.3191]
      },
      "mairie": {
        "type": "Point",
        "coordinates": [-0.4337, 48.3185]
      },
      "population": 503,
      "surface": 1308.17,
      "radius": 2.04
    },
    {
      "nom": "La Chapelle-Craonnaise",
      "code": "53058",
      "codesPostaux": ["53230"],
      "centre": {
        "type": "Point",
        "coordinates": [-0.9044, 47.8998]
      },
      "mairie": {
        "type": "Point",
        "coordinates": [-0.915, 47.8999]
      },
      "population": 315,
      "surface": 1047.72,
      "radius": 1.83
    },
    {
      "nom": "La Chapelle-Rainsouin",
      "code": "53059",
      "codesPostaux": ["53150"],
      "centre": {
        "type": "Point",
        "coordinates": [-0.5354, 48.0941]
      },
      "mairie": {
        "type": "Point",
        "coordinates": [-0.5197, 48.0995]
      },
      "population": 413,
      "surface": 1824.48,
      "radius": 2.41
    },
    {
      "nom": "La Croixille",
      "code": "53086",
      "codesPostaux": ["53380"],
      "centre": {
        "type": "Point",
        "coordinates": [-1.0391, 48.1968]
      },
      "mairie": {
        "type": "Point",
        "coordinates": [-1.0579, 48.2051]
      },
      "population": 633,
      "surface": 2016.69,
      "radius": 2.53
    },
    {
      "nom": "La Cropte",
      "code": "53087",
      "codesPostaux": ["53170"],
      "centre": {
        "type": "Point",
        "coordinates": [-0.4911, 47.9541]
      },
      "mairie": {
        "type": "Point",
        "coordinates": [-0.4938, 47.9588]
      },
      "population": 226,
      "surface": 1422.6,
      "radius": 2.13
    },
    {
      "nom": "La Dorée",
      "code": "53093",
      "codesPostaux": ["53190"],
      "centre": {
        "type": "Point",
        "coordinates": [-0.9649, 48.4489]
      },
      "mairie": {
        "type": "Point",
        "coordinates": [-0.965, 48.4492]
      },
      "population": 288,
      "surface": 1799.95,
      "radius": 2.39
    },
    {
      "nom": "La Gravelle",
      "code": "53108",
      "codesPostaux": ["53410"],
      "centre": {
        "type": "Point",
        "coordinates": [-1.027, 48.0768]
      },
      "mairie": {
        "type": "Point",
        "coordinates": [-1.0132, 48.073]
      },
      "population": 570,
      "surface": 625.95,
      "radius": 1.41
    },
    {
      "nom": "La Haie-Traversaine",
      "code": "53111",
      "codesPostaux": ["53300"],
      "centre": {
        "type": "Point",
        "coordinates": [-0.6108, 48.3576]
      },
      "mairie": {
        "type": "Point",
        "coordinates": [-0.6063, 48.3698]
      },
      "population": 466,
      "surface": 1178.01,
      "radius": 1.94
    },
    {
      "nom": "La Pallu",
      "code": "53173",
      "codesPostaux": ["53140"],
      "centre": {
        "type": "Point",
        "coordinates": [-0.2955, 48.5056]
      },
      "mairie": {
        "type": "Point",
        "coordinates": [-0.2994, 48.5063]
      },
      "population": 177,
      "surface": 654.85,
      "radius": 1.44
    },
    {
      "nom": "La Pellerine",
      "code": "53177",
      "codesPostaux": ["53220"],
      "centre": {
        "type": "Point",
        "coordinates": [-1.0322, 48.3227]
      },
      "mairie": {
        "type": "Point",
        "coordinates": [-1.0517, 48.3149]
      },
      "population": 296,
      "surface": 839.3,
      "radius": 1.63
    },
    {
      "nom": "La Roche-Neuville",
      "code": "53136",
      "codesPostaux": ["53200", "53360"],
      "centre": {
        "type": "Point",
        "coordinates": [-0.7363, 47.8773]
      },
      "mairie": {
        "type": "Point",
        "coordinates": [-0.7483, 47.8733]
      },
      "population": 1227,
      "surface": 2842.97,
      "radius": 3.01
    },
    {
      "nom": "La Roë",
      "code": "53191",
      "codesPostaux": ["53350"],
      "centre": {
        "type": "Point",
        "coordinates": [-1.1072, 47.8932]
      },
      "mairie": {
        "type": "Point",
        "coordinates": [-1.1108, 47.8953]
      },
      "population": 250,
      "surface": 877.34,
      "radius": 1.67
    },
    {
      "nom": "La Rouaudière",
      "code": "53192",
      "codesPostaux": ["53390"],
      "centre": {
        "type": "Point",
        "coordinates": [-1.1858, 47.8383]
      },
      "mairie": {
        "type": "Point",
        "coordinates": [-1.1903, 47.83]
      },
      "population": 311,
      "surface": 1926.88,
      "radius": 2.48
    },
    {
      "nom": "La Selle-Craonnaise",
      "code": "53258",
      "codesPostaux": ["53800"],
      "centre": {
        "type": "Point",
        "coordinates": [-1.0591, 47.8446]
      },
      "mairie": {
        "type": "Point",
        "coordinates": [-1.044, 47.8418]
      },
      "population": 901,
      "surface": 2937.82,
      "radius": 3.06
    },
    {
      "nom": "Landivy",
      "code": "53125",
      "codesPostaux": ["53190"],
      "centre": {
        "type": "Point",
        "coordinates": [-1.0365, 48.4811]
      },
      "mairie": {
        "type": "Point",
        "coordinates": [-1.0351, 48.4814]
      },
      "population": 1100,
      "surface": 2905.52,
      "radius": 3.04
    },
    {
      "nom": "Larchamp",
      "code": "53126",
      "codesPostaux": ["53220"],
      "centre": {
        "type": "Point",
        "coordinates": [-1.003, 48.3492]
      },
      "mairie": {
        "type": "Point",
        "coordinates": [-0.9987, 48.3623]
      },
      "population": 1012,
      "surface": 4136.68,
      "radius": 3.63
    },
    {
      "nom": "Lassay-les-Châteaux",
      "code": "53127",
      "codesPostaux": ["53110"],
      "centre": {
        "type": "Point",
        "coordinates": [-0.5059, 48.446]
      },
      "mairie": {
        "type": "Point",
        "coordinates": [-0.4969, 48.4375]
      },
      "population": 2243,
      "surface": 5836.48,
      "radius": 4.31
    },
    {
      "nom": "Laubrières",
      "code": "53128",
      "codesPostaux": ["53540"],
      "centre": {
        "type": "Point",
        "coordinates": [-1.0691, 47.9478]
      },
      "mairie": {
        "type": "Point",
        "coordinates": [-1.0836, 47.9405]
      },
      "population": 322,
      "surface": 854.2,
      "radius": 1.65
    },
    {
      "nom": "Launay-Villiers",
      "code": "53129",
      "codesPostaux": ["53410"],
      "centre": {
        "type": "Point",
        "coordinates": [-1.0084, 48.1363]
      },
      "mairie": {
        "type": "Point",
        "coordinates": [-1.0082, 48.134]
      },
      "population": 358,
      "surface": 943.41,
      "radius": 1.73
    },
    {
      "nom": "Laval",
      "code": "53130",
      "codesPostaux": ["53000"],
      "centre": {
        "type": "Point",
        "coordinates": [-0.7692, 48.0578]
      },
      "mairie": {
        "type": "Point",
        "coordinates": [-0.7737, 48.0706]
      },
      "population": 49474,
      "surface": 3417.6,
      "radius": 3.3
    },
    {
      "nom": "Le Bignon-du-Maine",
      "code": "53030",
      "codesPostaux": ["53170"],
      "centre": {
        "type": "Point",
        "coordinates": [-0.6307, 47.954]
      },
      "mairie": {
        "type": "Point",
        "coordinates": [-0.6111, 47.9501]
      },
      "population": 320,
      "surface": 1450.48,
      "radius": 2.15
    },
    {
      "nom": "Le Bourgneuf-la-Forêt",
      "code": "53039",
      "codesPostaux": ["53410"],
      "centre": {
        "type": "Point",
        "coordinates": [-0.9766, 48.164]
      },
      "mairie": {
        "type": "Point",
        "coordinates": [-0.9703, 48.1655]
      },
      "population": 1726,
      "surface": 2893.82,
      "radius": 3.04
    },
    {
      "nom": "Le Buret",
      "code": "53046",
      "codesPostaux": ["53170"],
      "centre": {
        "type": "Point",
        "coordinates": [-0.4991, 47.92]
      },
      "mairie": {
        "type": "Point",
        "coordinates": [-0.5133, 47.9224]
      },
      "population": 313,
      "surface": 1290.36,
      "radius": 2.03
    },
    {
      "nom": "Le Genest-Saint-Isle",
      "code": "53103",
      "codesPostaux": ["53940"],
      "centre": {
        "type": "Point",
        "coordinates": [-0.8966, 48.1029]
      },
      "mairie": {
        "type": "Point",
        "coordinates": [-0.8871, 48.0973]
      },
      "population": 2127,
      "surface": 1876.88,
      "radius": 2.44
    },
    {
      "nom": "Le Ham",
      "code": "53112",
      "codesPostaux": ["53250"],
      "centre": {
        "type": "Point",
        "coordinates": [-0.3525, 48.3767]
      },
      "mairie": {
        "type": "Point",
        "coordinates": [-0.377, 48.3804]
      },
      "population": 343,
      "surface": 2511.04,
      "radius": 2.83
    },
    {
      "nom": "Le Horps",
      "code": "53116",
      "codesPostaux": ["53640"],
      "centre": {
        "type": "Point",
        "coordinates": [-0.4628, 48.3878]
      },
      "mairie": {
        "type": "Point",
        "coordinates": [-0.4603, 48.3962]
      },
      "population": 721,
      "surface": 2316.28,
      "radius": 2.72
    },
    {
      "nom": "Le Housseau-Brétignolles",
      "code": "53118",
      "codesPostaux": ["53110"],
      "centre": {
        "type": "Point",
        "coordinates": [-0.5424, 48.473]
      },
      "mairie": {
        "type": "Point",
        "coordinates": [-0.5205, 48.467]
      },
      "population": 228,
      "surface": 935.63,
      "radius": 1.73
    },
    {
      "nom": "Le Pas",
      "code": "53176",
      "codesPostaux": ["53300"],
      "centre": {
        "type": "Point",
        "coordinates": [-0.6969, 48.4198]
      },
      "mairie": {
        "type": "Point",
        "coordinates": [-0.7019, 48.43]
      },
      "population": 522,
      "surface": 2202.4,
      "radius": 2.65
    },
    {
      "nom": "Le Ribay",
      "code": "53190",
      "codesPostaux": ["53640"],
      "centre": {
        "type": "Point",
        "coordinates": [-0.4134, 48.3802]
      },
      "mairie": {
        "type": "Point",
        "coordinates": [-0.4086, 48.3833]
      },
      "population": 464,
      "surface": 1714.46,
      "radius": 2.34
    },
    {
      "nom": "Lesbois",
      "code": "53131",
      "codesPostaux": ["53120"],
      "centre": {
        "type": "Point",
        "coordinates": [-0.7933, 48.4519]
      },
      "mairie": {
        "type": "Point",
        "coordinates": [-0.8048, 48.4414]
      },
      "population": 184,
      "surface": 597.11,
      "radius": 1.38
    },
    {
      "nom": "Levaré",
      "code": "53132",
      "codesPostaux": ["53120"],
      "centre": {
        "type": "Point",
        "coordinates": [-0.899, 48.416]
      },
      "mairie": {
        "type": "Point",
        "coordinates": [-0.9148, 48.4182]
      },
      "population": 274,
      "surface": 1174.39,
      "radius": 1.93
    },
    {
      "nom": "Lignières-Orgères",
      "code": "53133",
      "codesPostaux": ["53140"],
      "centre": {
        "type": "Point",
        "coordinates": [-0.2096, 48.5331]
      },
      "mairie": {
        "type": "Point",
        "coordinates": [-0.2076, 48.5435]
      },
      "population": 710,
      "surface": 4116.76,
      "radius": 3.62
    },
    {
      "nom": "Livet",
      "code": "53134",
      "codesPostaux": ["53150"],
      "centre": {
        "type": "Point",
        "coordinates": [-0.4613, 48.1126]
      },
      "mairie": {
        "type": "Point",
        "coordinates": [-0.4591, 48.1078]
      },
      "population": 187,
      "surface": 1129.48,
      "radius": 1.9
    },
    {
      "nom": "Livré-la-Touche",
      "code": "53135",
      "codesPostaux": ["53400"],
      "centre": {
        "type": "Point",
        "coordinates": [-0.995, 47.8906]
      },
      "mairie": {
        "type": "Point",
        "coordinates": [-0.982, 47.8817]
      },
      "population": 728,
      "surface": 3006.84,
      "radius": 3.09
    },
    {
      "nom": "Loiron-Ruillé",
      "code": "53137",
      "codesPostaux": ["53320"],
      "centre": {
        "type": "Point",
        "coordinates": [-0.942, 48.062]
      },
      "mairie": {
        "type": "Point",
        "coordinates": [-0.9358, 48.06]
      },
      "population": 2724,
      "surface": 4005.72,
      "radius": 3.57
    },
    {
      "nom": "Loupfougères",
      "code": "53139",
      "codesPostaux": ["53700"],
      "centre": {
        "type": "Point",
        "coordinates": [-0.3541, 48.3343]
      },
      "mairie": {
        "type": "Point",
        "coordinates": [-0.3479, 48.3387]
      },
      "population": 410,
      "surface": 1865.9,
      "radius": 2.44
    },
    {
      "nom": "Louverné",
      "code": "53140",
      "codesPostaux": ["53950"],
      "centre": {
        "type": "Point",
        "coordinates": [-0.7119, 48.1256]
      },
      "mairie": {
        "type": "Point",
        "coordinates": [-0.7182, 48.1218]
      },
      "population": 4345,
      "surface": 2081.83,
      "radius": 2.57
    },
    {
      "nom": "Louvigné",
      "code": "53141",
      "codesPostaux": ["53210"],
      "centre": {
        "type": "Point",
        "coordinates": [-0.6347, 48.0544]
      },
      "mairie": {
        "type": "Point",
        "coordinates": [-0.6299, 48.0578]
      },
      "population": 1182,
      "surface": 1272.52,
      "radius": 2.01
    },
    {
      "nom": "Madré",
      "code": "53142",
      "codesPostaux": ["53250"],
      "centre": {
        "type": "Point",
        "coordinates": [-0.3713, 48.4699]
      },
      "mairie": {
        "type": "Point",
        "coordinates": [-0.3801, 48.4766]
      },
      "population": 284,
      "surface": 1770.15,
      "radius": 2.37
    },
    {
      "nom": "Maisoncelles-du-Maine",
      "code": "53143",
      "codesPostaux": ["53170"],
      "centre": {
        "type": "Point",
        "coordinates": [-0.6574, 47.9677]
      },
      "mairie": {
        "type": "Point",
        "coordinates": [-0.6522, 47.9651]
      },
      "population": 510,
      "surface": 1596.39,
      "radius": 2.25
    },
    {
      "nom": "Marcillé-la-Ville",
      "code": "53144",
      "codesPostaux": ["53440"],
      "centre": {
        "type": "Point",
        "coordinates": [-0.4821, 48.3271]
      },
      "mairie": {
        "type": "Point",
        "coordinates": [-0.4947, 48.3068]
      },
      "population": 750,
      "surface": 2716.61,
      "radius": 2.94
    },
    {
      "nom": "Marigné-Peuton",
      "code": "53145",
      "codesPostaux": ["53200"],
      "centre": {
        "type": "Point",
        "coordinates": [-0.801, 47.8544]
      },
      "mairie": {
        "type": "Point",
        "coordinates": [-0.8131, 47.8704]
      },
      "population": 543,
      "surface": 1658.05,
      "radius": 2.3
    },
    {
      "nom": "Martigné-sur-Mayenne",
      "code": "53146",
      "codesPostaux": ["53470"],
      "centre": {
        "type": "Point",
        "coordinates": [-0.6611, 48.2014]
      },
      "mairie": {
        "type": "Point",
        "coordinates": [-0.6635, 48.195]
      },
      "population": 1884,
      "surface": 3186.04,
      "radius": 3.18
    },
    {
      "nom": "Mayenne",
      "code": "53147",
      "codesPostaux": ["53100"],
      "centre": {
        "type": "Point",
        "coordinates": [-0.614, 48.3066]
      },
      "mairie": {
        "type": "Point",
        "coordinates": [-0.6208, 48.3063]
      },
      "population": 12854,
      "surface": 2017,
      "radius": 2.53
    },
    {
      "nom": "Mée",
      "code": "53148",
      "codesPostaux": ["53400"],
      "centre": {
        "type": "Point",
        "coordinates": [-0.8678, 47.8026]
      },
      "mairie": {
        "type": "Point",
        "coordinates": [-0.8616, 47.7961]
      },
      "population": 230,
      "surface": 872.42,
      "radius": 1.67
    },
    {
      "nom": "Ménil",
      "code": "53150",
      "codesPostaux": ["53200"],
      "centre": {
        "type": "Point",
        "coordinates": [-0.6863, 47.7707]
      },
      "mairie": {
        "type": "Point",
        "coordinates": [-0.6769, 47.7759]
      },
      "population": 907,
      "surface": 2851.79,
      "radius": 3.01
    },
    {
      "nom": "Méral",
      "code": "53151",
      "codesPostaux": ["53230"],
      "centre": {
        "type": "Point",
        "coordinates": [-1.0187, 47.9549]
      },
      "mairie": {
        "type": "Point",
        "coordinates": [-0.9823, 47.9605]
      },
      "population": 1075,
      "surface": 2970.08,
      "radius": 3.07
    },
    {
      "nom": "Meslay-du-Maine",
      "code": "53152",
      "codesPostaux": ["53170"],
      "centre": {
        "type": "Point",
        "coordinates": [-0.5604, 47.9451]
      },
      "mairie": {
        "type": "Point",
        "coordinates": [-0.5564, 47.9503]
      },
      "population": 2784,
      "surface": 2451.26,
      "radius": 2.79
    },
    {
      "nom": "Mézangers",
      "code": "53153",
      "codesPostaux": ["53600"],
      "centre": {
        "type": "Point",
        "coordinates": [-0.4547, 48.2013]
      },
      "mairie": {
        "type": "Point",
        "coordinates": [-0.4331, 48.1898]
      },
      "population": 625,
      "surface": 2956.61,
      "radius": 3.07
    },
    {
      "nom": "Montaudin",
      "code": "53154",
      "codesPostaux": ["53220"],
      "centre": {
        "type": "Point",
        "coordinates": [-0.9872, 48.3821]
      },
      "mairie": {
        "type": "Point",
        "coordinates": [-0.9896, 48.3854]
      },
      "population": 883,
      "surface": 2189.87,
      "radius": 2.64
    },
    {
      "nom": "Montenay",
      "code": "53155",
      "codesPostaux": ["53500"],
      "centre": {
        "type": "Point",
        "coordinates": [-0.8928, 48.2894]
      },
      "mairie": {
        "type": "Point",
        "coordinates": [-0.8941, 48.2874]
      },
      "population": 1307,
      "surface": 3776.54,
      "radius": 3.47
    },
    {
      "nom": "Montflours",
      "code": "53156",
      "codesPostaux": ["53240"],
      "centre": {
        "type": "Point",
        "coordinates": [-0.7233, 48.1714]
      },
      "mairie": {
        "type": "Point",
        "coordinates": [-0.7335, 48.1706]
      },
      "population": 250,
      "surface": 798.18,
      "radius": 1.59
    },
    {
      "nom": "Montigné-le-Brillant",
      "code": "53157",
      "codesPostaux": ["53970"],
      "centre": {
        "type": "Point",
        "coordinates": [-0.8144, 48.0126]
      },
      "mairie": {
        "type": "Point",
        "coordinates": [-0.8173, 48.0074]
      },
      "population": 1342,
      "surface": 1786.72,
      "radius": 2.38
    },
    {
      "nom": "Montjean",
      "code": "53158",
      "codesPostaux": ["53320"],
      "centre": {
        "type": "Point",
        "coordinates": [-0.9384, 48.0056]
      },
      "mairie": {
        "type": "Point",
        "coordinates": [-0.9597, 48.0057]
      },
      "population": 1030,
      "surface": 2014.12,
      "radius": 2.53
    },
    {
      "nom": "Montreuil-Poulay",
      "code": "53160",
      "codesPostaux": ["53640"],
      "centre": {
        "type": "Point",
        "coordinates": [-0.5333, 48.386]
      },
      "mairie": {
        "type": "Point",
        "coordinates": [-0.5212, 48.3835]
      },
      "population": 374,
      "surface": 1621.28,
      "radius": 2.27
    },
    {
      "nom": "Montsûrs",
      "code": "53161",
      "codesPostaux": ["53150"],
      "centre": {
        "type": "Point",
        "coordinates": [-0.5575, 48.1636]
      },
      "mairie": {
        "type": "Point",
        "coordinates": [-0.556, 48.1346]
      },
      "population": 3192,
      "surface": 6862.39,
      "radius": 4.67
    },
    {
      "nom": "Moulay",
      "code": "53162",
      "codesPostaux": ["53100"],
      "centre": {
        "type": "Point",
        "coordinates": [-0.6228, 48.2662]
      },
      "mairie": {
        "type": "Point",
        "coordinates": [-0.6299, 48.2706]
      },
      "population": 977,
      "surface": 872.54,
      "radius": 1.67
    },
    {
      "nom": "Neau",
      "code": "53163",
      "codesPostaux": ["53150"],
      "centre": {
        "type": "Point",
        "coordinates": [-0.474, 48.1702]
      },
      "mairie": {
        "type": "Point",
        "coordinates": [-0.4753, 48.1557]
      },
      "population": 757,
      "surface": 1280,
      "radius": 2.02
    },
    {
      "nom": "Neuilly-le-Vendin",
      "code": "53164",
      "codesPostaux": ["53250"],
      "centre": {
        "type": "Point",
        "coordinates": [-0.3227, 48.4939]
      },
      "mairie": {
        "type": "Point",
        "coordinates": [-0.3404, 48.4951]
      },
      "population": 345,
      "surface": 1470.16,
      "radius": 2.16
    },
    {
      "nom": "Niafles",
      "code": "53165",
      "codesPostaux": ["53400"],
      "centre": {
        "type": "Point",
        "coordinates": [-1.0003, 47.846]
      },
      "mairie": {
        "type": "Point",
        "coordinates": [-1.0022, 47.8461]
      },
      "population": 347,
      "surface": 798.23,
      "radius": 1.59
    },
    {
      "nom": "Nuillé-sur-Vicoin",
      "code": "53168",
      "codesPostaux": ["53970"],
      "centre": {
        "type": "Point",
        "coordinates": [-0.7781, 47.9808]
      },
      "mairie": {
        "type": "Point",
        "coordinates": [-0.7834, 47.9863]
      },
      "population": 1250,
      "surface": 2411.54,
      "radius": 2.77
    },
    {
      "nom": "Oisseau",
      "code": "53170",
      "codesPostaux": ["53300"],
      "centre": {
        "type": "Point",
        "coordinates": [-0.6724, 48.3673]
      },
      "mairie": {
        "type": "Point",
        "coordinates": [-0.6695, 48.3585]
      },
      "population": 1124,
      "surface": 3084.93,
      "radius": 3.13
    },
    {
      "nom": "Olivet",
      "code": "53169",
      "codesPostaux": ["53410"],
      "centre": {
        "type": "Point",
        "coordinates": [-0.933, 48.1196]
      },
      "mairie": {
        "type": "Point",
        "coordinates": [-0.9193, 48.1213]
      },
      "population": 406,
      "surface": 989.26,
      "radius": 1.77
    },
    {
      "nom": "Origné",
      "code": "53172",
      "codesPostaux": ["53360"],
      "centre": {
        "type": "Point",
        "coordinates": [-0.7336, 47.9552]
      },
      "mairie": {
        "type": "Point",
        "coordinates": [-0.7305, 47.9526]
      },
      "population": 394,
      "surface": 1037.92,
      "radius": 1.82
    },
    {
      "nom": "Parigné-sur-Braye",
      "code": "53174",
      "codesPostaux": ["53100"],
      "centre": {
        "type": "Point",
        "coordinates": [-0.6477, 48.3246]
      },
      "mairie": {
        "type": "Point",
        "coordinates": [-0.6526, 48.3163]
      },
      "population": 841,
      "surface": 970.06,
      "radius": 1.76
    },
    {
      "nom": "Parné-sur-Roc",
      "code": "53175",
      "codesPostaux": ["53260"],
      "centre": {
        "type": "Point",
        "coordinates": [-0.6607, 48.0085]
      },
      "mairie": {
        "type": "Point",
        "coordinates": [-0.6693, 48.0055]
      },
      "population": 1384,
      "surface": 2398.66,
      "radius": 2.76
    },
    {
      "nom": "Peuton",
      "code": "53178",
      "codesPostaux": ["53360"],
      "centre": {
        "type": "Point",
        "coordinates": [-0.8084, 47.8905]
      },
      "mairie": {
        "type": "Point",
        "coordinates": [-0.822, 47.8857]
      },
      "population": 228,
      "surface": 1069.03,
      "radius": 1.84
    },
    {
      "nom": "Placé",
      "code": "53179",
      "codesPostaux": ["53240"],
      "centre": {
        "type": "Point",
        "coordinates": [-0.7767, 48.267]
      },
      "mairie": {
        "type": "Point",
        "coordinates": [-0.7763, 48.2523]
      },
      "population": 354,
      "surface": 2569.18,
      "radius": 2.86
    },
    {
      "nom": "Pommerieux",
      "code": "53180",
      "codesPostaux": ["53400"],
      "centre": {
        "type": "Point",
        "coordinates": [-0.8999, 47.832]
      },
      "mairie": {
        "type": "Point",
        "coordinates": [-0.8983, 47.8231]
      },
      "population": 659,
      "surface": 2311.77,
      "radius": 2.71
    },
    {
      "nom": "Pontmain",
      "code": "53181",
      "codesPostaux": ["53220"],
      "centre": {
        "type": "Point",
        "coordinates": [-1.0628, 48.4368]
      },
      "mairie": {
        "type": "Point",
        "coordinates": [-1.0592, 48.4377]
      },
      "population": 808,
      "surface": 590.8,
      "radius": 1.37
    },
    {
      "nom": "Port-Brillet",
      "code": "53182",
      "codesPostaux": ["53410"],
      "centre": {
        "type": "Point",
        "coordinates": [-0.9662, 48.124]
      },
      "mairie": {
        "type": "Point",
        "coordinates": [-0.9728, 48.1132]
      },
      "population": 1816,
      "surface": 822.12,
      "radius": 1.62
    },
    {
      "nom": "Pré-en-Pail-Saint-Samson",
      "code": "53185",
      "codesPostaux": ["53140"],
      "centre": {
        "type": "Point",
        "coordinates": [-0.1993, 48.4529]
      },
      "mairie": {
        "type": "Point",
        "coordinates": [-0.1973, 48.4605]
      },
      "population": 2300,
      "surface": 5796.48,
      "radius": 4.3
    },
    {
      "nom": "Préaux",
      "code": "53184",
      "codesPostaux": ["53340"],
      "centre": {
        "type": "Point",
        "coordinates": [-0.4681, 47.9392]
      },
      "mairie": {
        "type": "Point",
        "coordinates": [-0.4657, 47.9362]
      },
      "population": 161,
      "surface": 981.08,
      "radius": 1.77
    },
    {
      "nom": "Prée-d'Anjou",
      "code": "53124",
      "codesPostaux": ["53200"],
      "centre": {
        "type": "Point",
        "coordinates": [-0.8273, 47.8212]
      },
      "mairie": {
        "type": "Point",
        "coordinates": [-0.8172, 47.8421]
      },
      "population": 1392,
      "surface": 4288.41,
      "radius": 3.69
    },
    {
      "nom": "Quelaines-Saint-Gault",
      "code": "53186",
      "codesPostaux": ["53360"],
      "centre": {
        "type": "Point",
        "coordinates": [-0.8042, 47.924]
      },
      "mairie": {
        "type": "Point",
        "coordinates": [-0.8023, 47.9233]
      },
      "population": 2141,
      "surface": 4265.16,
      "radius": 3.68
    },
    {
      "nom": "Ravigny",
      "code": "53187",
      "codesPostaux": ["53370"],
      "centre": {
        "type": "Point",
        "coordinates": [-0.0702, 48.4438]
      },
      "mairie": {
        "type": "Point",
        "coordinates": [-0.0653, 48.4452]
      },
      "population": 230,
      "surface": 656.94,
      "radius": 1.45
    },
    {
      "nom": "Renazé",
      "code": "53188",
      "codesPostaux": ["53800"],
      "centre": {
        "type": "Point",
        "coordinates": [-1.0363, 47.7846]
      },
      "mairie": {
        "type": "Point",
        "coordinates": [-1.0557, 47.7933]
      },
      "population": 2506,
      "surface": 1676.21,
      "radius": 2.31
    },
    {
      "nom": "Rennes-en-Grenouilles",
      "code": "53189",
      "codesPostaux": ["53110"],
      "centre": {
        "type": "Point",
        "coordinates": [-0.5066, 48.4885]
      },
      "mairie": {
        "type": "Point",
        "coordinates": [-0.5124, 48.4902]
      },
      "population": 111,
      "surface": 804.27,
      "radius": 1.6
    },
    {
      "nom": "Ruillé-Froid-Fonds",
      "code": "53193",
      "codesPostaux": ["53170"],
      "centre": {
        "type": "Point",
        "coordinates": [-0.6249, 47.9044]
      },
      "mairie": {
        "type": "Point",
        "coordinates": [-0.6415, 47.9003]
      },
      "population": 575,
      "surface": 2381.6,
      "radius": 2.75
    },
    {
      "nom": "Sacé",
      "code": "53195",
      "codesPostaux": ["53470"],
      "centre": {
        "type": "Point",
        "coordinates": [-0.7038, 48.1795]
      },
      "mairie": {
        "type": "Point",
        "coordinates": [-0.7121, 48.1858]
      },
      "population": 484,
      "surface": 1247.57,
      "radius": 1.99
    },
    {
      "nom": "Saint-Aignan-de-Couptrain",
      "code": "53196",
      "codesPostaux": ["53250"],
      "centre": {
        "type": "Point",
        "coordinates": [-0.2966, 48.4575]
      },
      "mairie": {
        "type": "Point",
        "coordinates": [-0.3023, 48.4556]
      },
      "population": 350,
      "surface": 1726.07,
      "radius": 2.34
    },
    {
      "nom": "Saint-Aignan-sur-Roë",
      "code": "53197",
      "codesPostaux": ["53390"],
      "centre": {
        "type": "Point",
        "coordinates": [-1.1487, 47.8469]
      },
      "mairie": {
        "type": "Point",
        "coordinates": [-1.1372, 47.8397]
      },
      "population": 934,
      "surface": 1823.22,
      "radius": 2.41
    },
    {
      "nom": "Saint-Aubin-du-Désert",
      "code": "53198",
      "codesPostaux": ["53700"],
      "centre": {
        "type": "Point",
        "coordinates": [-0.1886, 48.3142]
      },
      "mairie": {
        "type": "Point",
        "coordinates": [-0.1961, 48.3058]
      },
      "population": 223,
      "surface": 1268.48,
      "radius": 2.01
    },
    {
      "nom": "Saint-Aubin-Fosse-Louvain",
      "code": "53199",
      "codesPostaux": ["53120"],
      "centre": {
        "type": "Point",
        "coordinates": [-0.8387, 48.4465]
      },
      "mairie": {
        "type": "Point",
        "coordinates": [-0.8325, 48.4639]
      },
      "population": 212,
      "surface": 1451.66,
      "radius": 2.15
    },
    {
      "nom": "Saint-Baudelle",
      "code": "53200",
      "codesPostaux": ["53100"],
      "centre": {
        "type": "Point",
        "coordinates": [-0.6514, 48.2871]
      },
      "mairie": {
        "type": "Point",
        "coordinates": [-0.6348, 48.2813]
      },
      "population": 1181,
      "surface": 729.58,
      "radius": 1.52
    },
    {
      "nom": "Saint-Berthevin",
      "code": "53201",
      "codesPostaux": ["53940"],
      "centre": {
        "type": "Point",
        "coordinates": [-0.8462, 48.0739]
      },
      "mairie": {
        "type": "Point",
        "coordinates": [-0.8284, 48.0689]
      },
      "population": 7384,
      "surface": 3219.26,
      "radius": 3.2
    },
    {
      "nom": "Saint-Berthevin-la-Tannière",
      "code": "53202",
      "codesPostaux": ["53220"],
      "centre": {
        "type": "Point",
        "coordinates": [-0.9539, 48.4084]
      },
      "mairie": {
        "type": "Point",
        "coordinates": [-0.9484, 48.401]
      },
      "population": 294,
      "surface": 1777.98,
      "radius": 2.38
    },
    {
      "nom": "Saint-Brice",
      "code": "53203",
      "codesPostaux": ["53290"],
      "centre": {
        "type": "Point",
        "coordinates": [-0.4388, 47.8612]
      },
      "mairie": {
        "type": "Point",
        "coordinates": [-0.4407, 47.8593]
      },
      "population": 524,
      "surface": 1326.47,
      "radius": 2.05
    },
    {
      "nom": "Saint-Calais-du-Désert",
      "code": "53204",
      "codesPostaux": ["53140"],
      "centre": {
        "type": "Point",
        "coordinates": [-0.2495, 48.4916]
      },
      "mairie": {
        "type": "Point",
        "coordinates": [-0.2624, 48.4849]
      },
      "population": 399,
      "surface": 1723.43,
      "radius": 2.34
    },
    {
      "nom": "Saint-Charles-la-Forêt",
      "code": "53206",
      "codesPostaux": ["53170"],
      "centre": {
        "type": "Point",
        "coordinates": [-0.574, 47.9204]
      },
      "mairie": {
        "type": "Point",
        "coordinates": [-0.5571, 47.9161]
      },
      "population": 219,
      "surface": 1063.11,
      "radius": 1.84
    },
    {
      "nom": "Saint-Cyr-en-Pail",
      "code": "53208",
      "codesPostaux": ["53140"],
      "centre": {
        "type": "Point",
        "coordinates": [-0.2518, 48.4369]
      },
      "mairie": {
        "type": "Point",
        "coordinates": [-0.2434, 48.4411]
      },
      "population": 502,
      "surface": 2050.11,
      "radius": 2.55
    },
    {
      "nom": "Saint-Cyr-le-Gravelais",
      "code": "53209",
      "codesPostaux": ["53320"],
      "centre": {
        "type": "Point",
        "coordinates": [-1.0041, 48.0401]
      },
      "mairie": {
        "type": "Point",
        "coordinates": [-1.0285, 48.0352]
      },
      "population": 559,
      "surface": 2046.33,
      "radius": 2.55
    },
    {
      "nom": "Saint-Denis-d'Anjou",
      "code": "53210",
      "codesPostaux": ["53290"],
      "centre": {
        "type": "Point",
        "coordinates": [-0.4412, 47.79]
      },
      "mairie": {
        "type": "Point",
        "coordinates": [-0.4434, 47.7906]
      },
      "population": 1512,
      "surface": 4185.31,
      "radius": 3.65
    },
    {
      "nom": "Saint-Denis-de-Gastines",
      "code": "53211",
      "codesPostaux": ["53500"],
      "centre": {
        "type": "Point",
        "coordinates": [-0.8738, 48.3449]
      },
      "mairie": {
        "type": "Point",
        "coordinates": [-0.8603, 48.342]
      },
      "population": 1440,
      "surface": 4903.33,
      "radius": 3.95
    },
    {
      "nom": "Saint-Denis-du-Maine",
      "code": "53212",
      "codesPostaux": ["53170"],
      "centre": {
        "type": "Point",
        "coordinates": [-0.5224, 47.9807]
      },
      "mairie": {
        "type": "Point",
        "coordinates": [-0.5262, 47.9653]
      },
      "population": 456,
      "surface": 1461.46,
      "radius": 2.16
    },
    {
      "nom": "Saint-Ellier-du-Maine",
      "code": "53213",
      "codesPostaux": ["53220"],
      "centre": {
        "type": "Point",
        "coordinates": [-1.0408, 48.4037]
      },
      "mairie": {
        "type": "Point",
        "coordinates": [-1.0468, 48.4005]
      },
      "population": 496,
      "surface": 1797.7,
      "radius": 2.39
    },
    {
      "nom": "Saint-Erblon",
      "code": "53214",
      "codesPostaux": ["53390"],
      "centre": {
        "type": "Point",
        "coordinates": [-1.1578, 47.7876]
      },
      "mairie": {
        "type": "Point",
        "coordinates": [-1.1709, 47.7879]
      },
      "population": 154,
      "surface": 555.7,
      "radius": 1.33
    },
    {
      "nom": "Saint-Fraimbault-de-Prières",
      "code": "53216",
      "codesPostaux": ["53300"],
      "centre": {
        "type": "Point",
        "coordinates": [-0.5799, 48.3472]
      },
      "mairie": {
        "type": "Point",
        "coordinates": [-0.5818, 48.3503]
      },
      "population": 946,
      "surface": 1693.95,
      "radius": 2.32
    },
    {
      "nom": "Saint-Georges-Buttavent",
      "code": "53219",
      "codesPostaux": ["53100"],
      "centre": {
        "type": "Point",
        "coordinates": [-0.7165, 48.3046]
      },
      "mairie": {
        "type": "Point",
        "coordinates": [-0.6931, 48.3124]
      },
      "population": 1381,
      "surface": 3703.2,
      "radius": 3.43
    },
    {
      "nom": "Saint-Georges-le-Fléchard",
      "code": "53220",
      "codesPostaux": ["53480"],
      "centre": {
        "type": "Point",
        "coordinates": [-0.5186, 48.0338]
      },
      "mairie": {
        "type": "Point",
        "coordinates": [-0.5108, 48.0358]
      },
      "population": 378,
      "surface": 845.8,
      "radius": 1.64
    },
    {
      "nom": "Saint-Georges-sur-Erve",
      "code": "53221",
      "codesPostaux": ["53600"],
      "centre": {
        "type": "Point",
        "coordinates": [-0.2974, 48.1779]
      },
      "mairie": {
        "type": "Point",
        "coordinates": [-0.2995, 48.1712]
      },
      "population": 394,
      "surface": 2052.76,
      "radius": 2.56
    },
    {
      "nom": "Saint-Germain-d'Anxure",
      "code": "53222",
      "codesPostaux": ["53240"],
      "centre": {
        "type": "Point",
        "coordinates": [-0.7361, 48.2232]
      },
      "mairie": {
        "type": "Point",
        "coordinates": [-0.7346, 48.2216]
      },
      "population": 365,
      "surface": 1045.5,
      "radius": 1.82
    },
    {
      "nom": "Saint-Germain-de-Coulamer",
      "code": "53223",
      "codesPostaux": ["53700"],
      "centre": {
        "type": "Point",
        "coordinates": [-0.1887, 48.2653]
      },
      "mairie": {
        "type": "Point",
        "coordinates": [-0.172, 48.2649]
      },
      "population": 329,
      "surface": 1778.95,
      "radius": 2.38
    },
    {
      "nom": "Saint-Germain-le-Fouilloux",
      "code": "53224",
      "codesPostaux": ["53240"],
      "centre": {
        "type": "Point",
        "coordinates": [-0.8126, 48.1398]
      },
      "mairie": {
        "type": "Point",
        "coordinates": [-0.7893, 48.1364]
      },
      "population": 1179,
      "surface": 1566.75,
      "radius": 2.23
    },
    {
      "nom": "Saint-Germain-le-Guillaume",
      "code": "53225",
      "codesPostaux": ["53240"],
      "centre": {
        "type": "Point",
        "coordinates": [-0.8293, 48.2094]
      },
      "mairie": {
        "type": "Point",
        "coordinates": [-0.8257, 48.2064]
      },
      "population": 513,
      "surface": 1346.98,
      "radius": 2.07
    },
    {
      "nom": "Saint-Hilaire-du-Maine",
      "code": "53226",
      "codesPostaux": ["53380"],
      "centre": {
        "type": "Point",
        "coordinates": [-0.9235, 48.2236]
      },
      "mairie": {
        "type": "Point",
        "coordinates": [-0.9299, 48.2263]
      },
      "population": 808,
      "surface": 3048.79,
      "radius": 3.12
    },
    {
      "nom": "Saint-Jean-sur-Mayenne",
      "code": "53229",
      "codesPostaux": ["53240"],
      "centre": {
        "type": "Point",
        "coordinates": [-0.7452, 48.1422]
      },
      "mairie": {
        "type": "Point",
        "coordinates": [-0.7517, 48.1316]
      },
      "population": 1689,
      "surface": 1803.06,
      "radius": 2.4
    },
    {
      "nom": "Saint-Julien-du-Terroux",
      "code": "53230",
      "codesPostaux": ["53110"],
      "centre": {
        "type": "Point",
        "coordinates": [-0.4095, 48.4826]
      },
      "mairie": {
        "type": "Point",
        "coordinates": [-0.4081, 48.4801]
      },
      "population": 257,
      "surface": 1143.05,
      "radius": 1.91
    },
    {
      "nom": "Saint-Léger",
      "code": "53232",
      "codesPostaux": ["53480"],
      "centre": {
        "type": "Point",
        "coordinates": [-0.4495, 48.0847]
      },
      "mairie": {
        "type": "Point",
        "coordinates": [-0.4553, 48.0823]
      },
      "population": 323,
      "surface": 1716.57,
      "radius": 2.34
    },
    {
      "nom": "Saint-Loup-du-Dorat",
      "code": "53233",
      "codesPostaux": ["53290"],
      "centre": {
        "type": "Point",
        "coordinates": [-0.4225, 47.8823]
      },
      "mairie": {
        "type": "Point",
        "coordinates": [-0.4158, 47.89]
      },
      "population": 335,
      "surface": 825.91,
      "radius": 1.62
    },
    {
      "nom": "Saint-Loup-du-Gast",
      "code": "53234",
      "codesPostaux": ["53300"],
      "centre": {
        "type": "Point",
        "coordinates": [-0.5855, 48.387]
      },
      "mairie": {
        "type": "Point",
        "coordinates": [-0.5867, 48.3851]
      },
      "population": 321,
      "surface": 1001.02,
      "radius": 1.79
    },
    {
      "nom": "Saint-Mars-du-Désert",
      "code": "53236",
      "codesPostaux": ["53700"],
      "centre": {
        "type": "Point",
        "coordinates": [-0.1819, 48.2955]
      },
      "mairie": {
        "type": "Point",
        "coordinates": [-0.1602, 48.294]
      },
      "population": 166,
      "surface": 1186.62,
      "radius": 1.94
    },
    {
      "nom": "Saint-Mars-sur-Colmont",
      "code": "53237",
      "codesPostaux": ["53300"],
      "centre": {
        "type": "Point",
        "coordinates": [-0.707, 48.3855]
      },
      "mairie": {
        "type": "Point",
        "coordinates": [-0.6983, 48.3747]
      },
      "population": 440,
      "surface": 1671.67,
      "radius": 2.31
    },
    {
      "nom": "Saint-Mars-sur-la-Futaie",
      "code": "53238",
      "codesPostaux": ["53220"],
      "centre": {
        "type": "Point",
        "coordinates": [-1.0095, 48.4319]
      },
      "mairie": {
        "type": "Point",
        "coordinates": [-1.0158, 48.4323]
      },
      "population": 521,
      "surface": 2239.86,
      "radius": 2.67
    },
    {
      "nom": "Saint-Martin-du-Limet",
      "code": "53240",
      "codesPostaux": ["53800"],
      "centre": {
        "type": "Point",
        "coordinates": [-1.0294, 47.8143]
      },
      "mairie": {
        "type": "Point",
        "coordinates": [-1.0218, 47.8148]
      },
      "population": 425,
      "surface": 1230.24,
      "radius": 1.98
    },
    {
      "nom": "Saint-Michel-de-la-Roë",
      "code": "53242",
      "codesPostaux": ["53350"],
      "centre": {
        "type": "Point",
        "coordinates": [-1.1277, 47.87]
      },
      "mairie": {
        "type": "Point",
        "coordinates": [-1.1263, 47.8807]
      },
      "population": 255,
      "surface": 1321.33,
      "radius": 2.05
    },
    {
      "nom": "Saint-Ouën-des-Toits",
      "code": "53243",
      "codesPostaux": ["53410"],
      "centre": {
        "type": "Point",
        "coordinates": [-0.8991, 48.141]
      },
      "mairie": {
        "type": "Point",
        "coordinates": [-0.9075, 48.1372]
      },
      "population": 1782,
      "surface": 2121.83,
      "radius": 2.6
    },
    {
      "nom": "Saint-Pierre-des-Landes",
      "code": "53245",
      "codesPostaux": ["53500"],
      "centre": {
        "type": "Point",
        "coordinates": [-1.0295, 48.2894]
      },
      "mairie": {
        "type": "Point",
        "coordinates": [-1.0257, 48.2743]
      },
      "population": 927,
      "surface": 4217.37,
      "radius": 3.66
    },
    {
      "nom": "Saint-Pierre-des-Nids",
      "code": "53246",
      "codesPostaux": ["53370"],
      "centre": {
        "type": "Point",
        "coordinates": [-0.1175, 48.4]
      },
      "mairie": {
        "type": "Point",
        "coordinates": [-0.1009, 48.3985]
      },
      "population": 1761,
      "surface": 3712.53,
      "radius": 3.44
    },
    {
      "nom": "Saint-Pierre-la-Cour",
      "code": "53247",
      "codesPostaux": ["53410"],
      "centre": {
        "type": "Point",
        "coordinates": [-1.0188, 48.1083]
      },
      "mairie": {
        "type": "Point",
        "coordinates": [-1.026, 48.1144]
      },
      "population": 2313,
      "surface": 1602.66,
      "radius": 2.26
    },
    {
      "nom": "Saint-Pierre-sur-Erve",
      "code": "53248",
      "codesPostaux": ["53270"],
      "centre": {
        "type": "Point",
        "coordinates": [-0.4098, 48.0112]
      },
      "mairie": {
        "type": "Point",
        "coordinates": [-0.394, 48.0091]
      },
      "population": 132,
      "surface": 969.41,
      "radius": 1.76
    },
    {
      "nom": "Saint-Poix",
      "code": "53250",
      "codesPostaux": ["53540"],
      "centre": {
        "type": "Point",
        "coordinates": [-1.0472, 47.9646]
      },
      "mairie": {
        "type": "Point",
        "coordinates": [-1.0458, 47.9655]
      },
      "population": 391,
      "surface": 749.2,
      "radius": 1.54
    },
    {
      "nom": "Saint-Quentin-les-Anges",
      "code": "53251",
      "codesPostaux": ["53400"],
      "centre": {
        "type": "Point",
        "coordinates": [-0.8838, 47.7766]
      },
      "mairie": {
        "type": "Point",
        "coordinates": [-0.8853, 47.7731]
      },
      "population": 475,
      "surface": 1784.82,
      "radius": 2.38
    },
    {
      "nom": "Saint-Saturnin-du-Limet",
      "code": "53253",
      "codesPostaux": ["53800"],
      "centre": {
        "type": "Point",
        "coordinates": [-1.0915, 47.8135]
      },
      "mairie": {
        "type": "Point",
        "coordinates": [-1.0677, 47.8118]
      },
      "population": 518,
      "surface": 1071.46,
      "radius": 1.85
    },
    {
      "nom": "Saint-Thomas-de-Courceriers",
      "code": "53256",
      "codesPostaux": ["53160"],
      "centre": {
        "type": "Point",
        "coordinates": [-0.2594, 48.2595]
      },
      "mairie": {
        "type": "Point",
        "coordinates": [-0.2675, 48.2768]
      },
      "population": 162,
      "surface": 1304.72,
      "radius": 2.04
    },
    {
      "nom": "Sainte-Gemmes-le-Robert",
      "code": "53218",
      "codesPostaux": ["53600"],
      "centre": {
        "type": "Point",
        "coordinates": [-0.3768, 48.202]
      },
      "mairie": {
        "type": "Point",
        "coordinates": [-0.3741, 48.1961]
      },
      "population": 770,
      "surface": 3574.85,
      "radius": 3.37
    },
    {
      "nom": "Sainte-Marie-du-Bois",
      "code": "53235",
      "codesPostaux": ["53110"],
      "centre": {
        "type": "Point",
        "coordinates": [-0.4846, 48.4674]
      },
      "mairie": {
        "type": "Point",
        "coordinates": [-0.482, 48.4653]
      },
      "population": 228,
      "surface": 1140.37,
      "radius": 1.91
    },
    {
      "nom": "Sainte-Suzanne-et-Chammes",
      "code": "53255",
      "codesPostaux": ["53270"],
      "centre": {
        "type": "Point",
        "coordinates": [-0.3821, 48.0917]
      },
      "mairie": {
        "type": "Point",
        "coordinates": [-0.35, 48.0977]
      },
      "population": 1197,
      "surface": 4394.95,
      "radius": 3.74
    },
    {
      "nom": "Saulges",
      "code": "53257",
      "codesPostaux": ["53340"],
      "centre": {
        "type": "Point",
        "coordinates": [-0.4103, 47.9769]
      },
      "mairie": {
        "type": "Point",
        "coordinates": [-0.4069, 47.9823]
      },
      "population": 328,
      "surface": 2191.95,
      "radius": 2.64
    },
    {
      "nom": "Senonnes",
      "code": "53259",
      "codesPostaux": ["53390"],
      "centre": {
        "type": "Point",
        "coordinates": [-1.2007, 47.8045]
      },
      "mairie": {
        "type": "Point",
        "coordinates": [-1.2042, 47.7981]
      },
      "population": 376,
      "surface": 1323.78,
      "radius": 2.05
    },
    {
      "nom": "Simplé",
      "code": "53260",
      "codesPostaux": ["53360"],
      "centre": {
        "type": "Point",
        "coordinates": [-0.8526, 47.8835]
      },
      "mairie": {
        "type": "Point",
        "coordinates": [-0.8505, 47.8878]
      },
      "population": 386,
      "surface": 920.08,
      "radius": 1.71
    },
    {
      "nom": "Soucé",
      "code": "53261",
      "codesPostaux": ["53300"],
      "centre": {
        "type": "Point",
        "coordinates": [-0.6708, 48.4689]
      },
      "mairie": {
        "type": "Point",
        "coordinates": [-0.6642, 48.4733]
      },
      "population": 149,
      "surface": 665.07,
      "radius": 1.45
    },
    {
      "nom": "Soulgé-sur-Ouette",
      "code": "53262",
      "codesPostaux": ["53210"],
      "centre": {
        "type": "Point",
        "coordinates": [-0.5608, 48.0634]
      },
      "mairie": {
        "type": "Point",
        "coordinates": [-0.5689, 48.0614]
      },
      "population": 1060,
      "surface": 2319.02,
      "radius": 2.72
    },
    {
      "nom": "Thorigné-en-Charnie",
      "code": "53264",
      "codesPostaux": ["53270"],
      "centre": {
        "type": "Point",
        "coordinates": [-0.3584, 48.0074]
      },
      "mairie": {
        "type": "Point",
        "coordinates": [-0.3593, 48.0001]
      },
      "population": 190,
      "surface": 1735.07,
      "radius": 2.35
    },
    {
      "nom": "Thubœuf",
      "code": "53263",
      "codesPostaux": ["53110"],
      "centre": {
        "type": "Point",
        "coordinates": [-0.4554, 48.4943]
      },
      "mairie": {
        "type": "Point",
        "coordinates": [-0.454, 48.503]
      },
      "population": 270,
      "surface": 1411.55,
      "radius": 2.12
    },
    {
      "nom": "Torcé-Viviers-en-Charnie",
      "code": "53265",
      "codesPostaux": ["53270"],
      "centre": {
        "type": "Point",
        "coordinates": [-0.2733, 48.0981]
      },
      "mairie": {
        "type": "Point",
        "coordinates": [-0.2616, 48.0988]
      },
      "population": 770,
      "surface": 4894.98,
      "radius": 3.95
    },
    {
      "nom": "Trans",
      "code": "53266",
      "codesPostaux": ["53160"],
      "centre": {
        "type": "Point",
        "coordinates": [-0.3111, 48.2798]
      },
      "mairie": {
        "type": "Point",
        "coordinates": [-0.3105, 48.2752]
      },
      "population": 227,
      "surface": 1558.71,
      "radius": 2.23
    },
    {
      "nom": "Vaiges",
      "code": "53267",
      "codesPostaux": ["53480"],
      "centre": {
        "type": "Point",
        "coordinates": [-0.474, 48.0503]
      },
      "mairie": {
        "type": "Point",
        "coordinates": [-0.4765, 48.0392]
      },
      "population": 1164,
      "surface": 3620.33,
      "radius": 3.39
    },
    {
      "nom": "Val-du-Maine",
      "code": "53017",
      "codesPostaux": ["53340"],
      "centre": {
        "type": "Point",
        "coordinates": [-0.3801, 47.9362]
      },
      "mairie": {
        "type": "Point",
        "coordinates": [-0.4159, 47.9328]
      },
      "population": 971,
      "surface": 2397.81,
      "radius": 2.76
    },
    {
      "nom": "Vautorte",
      "code": "53269",
      "codesPostaux": ["53500"],
      "centre": {
        "type": "Point",
        "coordinates": [-0.825, 48.2961]
      },
      "mairie": {
        "type": "Point",
        "coordinates": [-0.8319, 48.3003]
      },
      "population": 612,
      "surface": 2428.38,
      "radius": 2.78
    },
    {
      "nom": "Vieuvy",
      "code": "53270",
      "codesPostaux": ["53120"],
      "centre": {
        "type": "Point",
        "coordinates": [-0.877, 48.4482]
      },
      "mairie": {
        "type": "Point",
        "coordinates": [-0.8635, 48.4437]
      },
      "population": 110,
      "surface": 730.55,
      "radius": 1.52
    },
    {
      "nom": "Villaines-la-Juhel",
      "code": "53271",
      "codesPostaux": ["53700"],
      "centre": {
        "type": "Point",
        "coordinates": [-0.2918, 48.3379]
      },
      "mairie": {
        "type": "Point",
        "coordinates": [-0.2809, 48.3449]
      },
      "population": 2682,
      "surface": 2872.52,
      "radius": 3.02
    },
    {
      "nom": "Villepail",
      "code": "53272",
      "codesPostaux": ["53250"],
      "centre": {
        "type": "Point",
        "coordinates": [-0.26, 48.4027]
      },
      "mairie": {
        "type": "Point",
        "coordinates": [-0.2671, 48.3966]
      },
      "population": 192,
      "surface": 1560.68,
      "radius": 2.23
    },
    {
      "nom": "Villiers-Charlemagne",
      "code": "53273",
      "codesPostaux": ["53170"],
      "centre": {
        "type": "Point",
        "coordinates": [-0.6753, 47.9214]
      },
      "mairie": {
        "type": "Point",
        "coordinates": [-0.6772, 47.9219]
      },
      "population": 1080,
      "surface": 2761.44,
      "radius": 2.96
    },
    {
      "nom": "Vimartin-sur-Orthe",
      "code": "53249",
      "codesPostaux": ["53160"],
      "centre": {
        "type": "Point",
        "coordinates": [-0.2144, 48.2169]
      },
      "mairie": {
        "type": "Point",
        "coordinates": [-0.206, 48.2111]
      },
      "population": 1107,
      "surface": 7203.73,
      "radius": 4.79
    },
    {
      "nom": "Voutré",
      "code": "53276",
      "codesPostaux": ["53600"],
      "centre": {
        "type": "Point",
        "coordinates": [-0.2905, 48.1361]
      },
      "mairie": {
        "type": "Point",
        "coordinates": [-0.292, 48.1379]
      },
      "population": 905,
      "surface": 1861.53,
      "radius": 2.43
    }
  ],
  "postalCodes": {
    "53000": {
      "communes": ["Laval"],
      "communeCount": 1,
      "center": [-0.7737, 48.0706],
      "coverageRadius": 3.3,
      "totalPopulation": 49474,
      "totalSurface": 3418
    },
    "53100": {
      "communes": [
        "Châtillon-sur-Colmont",
        "Contest",
        "Mayenne",
        "Moulay",
        "Parigné-sur-Braye",
        "Saint-Baudelle",
        "Saint-Georges-Buttavent"
      ],
      "communeCount": 7,
      "center": [-0.6365, 48.3035],
      "coverageRadius": 8.6,
      "boundingBox": {
        "minLat": 48.262,
        "maxLat": 48.3386,
        "minLon": -0.74,
        "maxLon": -0.6208
      },
      "totalPopulation": 19034,
      "totalSurface": 14626
    },
    "53110": {
      "communes": [
        "Le Housseau-Brétignolles",
        "Lassay-les-Châteaux",
        "Rennes-en-Grenouilles",
        "Saint-Julien-du-Terroux",
        "Sainte-Marie-du-Bois",
        "Thubœuf"
      ],
      "communeCount": 6,
      "center": [-0.4877, 48.4517],
      "coverageRadius": 6.7,
      "boundingBox": {
        "minLat": 48.4375,
        "maxLat": 48.503,
        "minLon": -0.5205,
        "maxLon": -0.4081
      },
      "totalPopulation": 3337,
      "totalSurface": 11271
    },
    "53120": {
      "communes": [
        "Brecé",
        "Carelles",
        "Colombiers-du-Plessis",
        "Gorron",
        "Hercé",
        "Lesbois",
        "Levaré",
        "Saint-Aubin-Fosse-Louvain",
        "Vieuvy"
      ],
      "communeCount": 9,
      "center": [-0.8259, 48.411],
      "coverageRadius": 6.8,
      "boundingBox": {
        "minLat": 48.3818,
        "maxLat": 48.4639,
        "minLon": -0.9148,
        "maxLon": -0.7906
      },
      "totalPopulation": 5124,
      "totalSurface": 13447
    },
    "53140": {
      "communes": [
        "Lignières-Orgères",
        "La Pallu",
        "Pré-en-Pail-Saint-Samson",
        "Saint-Calais-du-Désert",
        "Saint-Cyr-en-Pail"
      ],
      "communeCount": 5,
      "center": [-0.2155, 48.4769],
      "coverageRadius": 7.5,
      "boundingBox": {
        "minLat": 48.4411,
        "maxLat": 48.5435,
        "minLon": -0.2994,
        "maxLon": -0.1973
      },
      "totalPopulation": 4088,
      "totalSurface": 14342
    },
    "53150": {
      "communes": ["Brée", "La Chapelle-Rainsouin", "Évron", "Gesnes", "Livet", "Montsûrs", "Neau"],
      "communeCount": 7,
      "center": [-0.4536, 48.1485],
      "coverageRadius": 9.8,
      "boundingBox": {
        "minLat": 48.0995,
        "maxLat": 48.1564,
        "minLon": -0.5847,
        "maxLon": -0.4008
      },
      "totalPopulation": 13751,
      "totalSurface": 20782
    },
    "53160": {
      "communes": [
        "Bais",
        "Champgenéteux",
        "Hambers",
        "Izé",
        "Jublains",
        "Vimartin-sur-Orthe",
        "Saint-Thomas-de-Courceriers",
        "Trans"
      ],
      "communeCount": 8,
      "center": [-0.345, 48.2477],
      "coverageRadius": 11.2,
      "boundingBox": {
        "minLat": 48.2111,
        "maxLat": 48.2911,
        "minLon": -0.495,
        "maxLon": -0.206
      },
      "totalPopulation": 5050,
      "totalSurface": 24333
    },
    "53170": {
      "communes": [
        "Arquenay",
        "La Bazouge-de-Chemeré",
        "Bazougers",
        "Le Bignon-du-Maine",
        "Le Buret",
        "La Cropte",
        "Maisoncelles-du-Maine",
        "Meslay-du-Maine",
        "Ruillé-Froid-Fonds",
        "Saint-Charles-la-Forêt",
        "Saint-Denis-du-Maine",
        "Villiers-Charlemagne"
      ],
      "communeCount": 12,
      "center": [-0.5799, 47.9575],
      "coverageRadius": 8.5,
      "boundingBox": {
        "minLat": 47.9003,
        "maxLat": 48.0173,
        "minLon": -0.6772,
        "maxLon": -0.4871
      },
      "totalPopulation": 8736,
      "totalSurface": 24123
    },
    "53190": {
      "communes": ["Désertines", "La Dorée", "Fougerolles-du-Plessis", "Landivy"],
      "communeCount": 4,
      "center": [-0.9786, 48.4735],
      "coverageRadius": 8.2,
      "boundingBox": {
        "minLat": 48.4492,
        "maxLat": 48.4814,
        "minLon": -1.0351,
        "maxLon": -0.868
      },
      "totalPopulation": 3035,
      "totalSurface": 10692
    },
    "53200": {
      "communes": [
        "Château-Gontier-sur-Mayenne",
        "Châtelain",
        "Chemazé",
        "Coudray",
        "Daon",
        "Fromentières",
        "Gennes-Longuefuye",
        "Prée-d'Anjou",
        "La Roche-Neuville",
        "Marigné-Peuton",
        "Ménil"
      ],
      "communeCount": 11,
      "center": [-0.7076, 47.8259],
      "coverageRadius": 10,
      "boundingBox": {
        "minLat": 47.7496,
        "maxLat": 47.8733,
        "minLon": -0.8172,
        "maxLon": -0.5983
      },
      "totalPopulation": 26024,
      "totalSurface": 32954
    },
    "53210": {
      "communes": ["Argentré", "Louvigné", "Soulgé-sur-Ouette"],
      "communeCount": 3,
      "center": [-0.6241, 48.0733],
      "coverageRadius": 4.4,
      "boundingBox": {
        "minLat": 48.0578,
        "maxLat": 48.0839,
        "minLon": -0.6418,
        "maxLon": -0.5689
      },
      "totalPopulation": 5150,
      "totalSurface": 7310
    },
    "53220": {
      "communes": [
        "Larchamp",
        "Montaudin",
        "La Pellerine",
        "Pontmain",
        "Saint-Berthevin-la-Tannière",
        "Saint-Ellier-du-Maine",
        "Saint-Mars-sur-la-Futaie"
      ],
      "communeCount": 7,
      "center": [-1.016, 48.3934],
      "coverageRadius": 9.2,
      "boundingBox": {
        "minLat": 48.3149,
        "maxLat": 48.4377,
        "minLon": -1.0592,
        "maxLon": -0.9484
      },
      "totalPopulation": 4310,
      "totalSurface": 13572
    },
    "53230": {
      "communes": ["Astillé", "La Chapelle-Craonnaise", "Cosmes", "Cossé-le-Vivien", "Courbeveille", "Méral"],
      "communeCount": 6,
      "center": [-0.9126, 47.9512],
      "coverageRadius": 5.8,
      "boundingBox": {
        "minLat": 47.8999,
        "maxLat": 47.9924,
        "minLon": -0.9823,
        "maxLon": -0.8543
      },
      "totalPopulation": 6416,
      "totalSurface": 13848
    },
    "53240": {
      "communes": [
        "Alexain",
        "Andouillé",
        "La Baconnière",
        "La Bigottière",
        "Montflours",
        "Placé",
        "Saint-Germain-d'Anxure",
        "Saint-Germain-le-Fouilloux",
        "Saint-Germain-le-Guillaume",
        "Saint-Jean-sur-Mayenne"
      ],
      "communeCount": 10,
      "center": [-0.799, 48.177],
      "coverageRadius": 8.6,
      "boundingBox": {
        "minLat": 48.1316,
        "maxLat": 48.2523,
        "minLon": -0.8928,
        "maxLon": -0.7335
      },
      "totalPopulation": 9740,
      "totalSurface": 19125
    },
    "53250": {
      "communes": [
        "Charchigné",
        "Chevaigné-du-Maine",
        "Couptrain",
        "Le Ham",
        "Javron-les-Chapelles",
        "Madré",
        "Neuilly-le-Vendin",
        "Saint-Aignan-de-Couptrain",
        "Villepail"
      ],
      "communeCount": 9,
      "center": [-0.347, 48.4313],
      "coverageRadius": 7.2,
      "boundingBox": {
        "minLat": 48.3804,
        "maxLat": 48.4951,
        "minLon": -0.408,
        "maxLon": -0.2671
      },
      "totalPopulation": 3578,
      "totalSurface": 15778
    },
    "53260": {
      "communes": ["Entrammes", "Forcé", "Parné-sur-Roc"],
      "communeCount": 3,
      "center": [-0.699, 48.0093],
      "coverageRadius": 2.9,
      "boundingBox": {
        "minLat": 47.9995,
        "maxLat": 48.0344,
        "minLon": -0.7156,
        "maxLon": -0.6693
      },
      "totalPopulation": 4758,
      "totalSurface": 5584
    },
    "53270": {
      "communes": [
        "Blandouet-Saint Jean",
        "Saint-Pierre-sur-Erve",
        "Sainte-Suzanne-et-Chammes",
        "Thorigné-en-Charnie",
        "Torcé-Viviers-en-Charnie"
      ],
      "communeCount": 5,
      "center": [-0.3359, 48.075],
      "coverageRadius": 8.6,
      "boundingBox": {
        "minLat": 48.0001,
        "maxLat": 48.0988,
        "minLon": -0.394,
        "maxLon": -0.2616
      },
      "totalPopulation": 2845,
      "totalSurface": 15644
    },
    "53290": {
      "communes": [
        "Beaumont-Pied-de-Bœuf",
        "Bierné-les-Villages",
        "Bouère",
        "Bouessay",
        "Grez-en-Bouère",
        "Saint-Brice",
        "Saint-Denis-d'Anjou",
        "Saint-Loup-du-Dorat"
      ],
      "communeCount": 8,
      "center": [-0.4725, 47.8415],
      "coverageRadius": 7.7,
      "boundingBox": {
        "minLat": 47.7906,
        "maxLat": 47.9051,
        "minLon": -0.5427,
        "maxLon": -0.3943
      },
      "totalPopulation": 6615,
      "totalSurface": 20520
    },
    "53300": {
      "communes": [
        "Ambrières-les-Vallées",
        "Chantrigné",
        "Couesmes-Vaucé",
        "La Haie-Traversaine",
        "Oisseau",
        "Le Pas",
        "Saint-Fraimbault-de-Prières",
        "Saint-Loup-du-Gast",
        "Saint-Mars-sur-Colmont",
        "Soucé"
      ],
      "communeCount": 10,
      "center": [-0.6349, 48.3922],
      "coverageRadius": 9.3,
      "boundingBox": {
        "minLat": 48.3503,
        "maxLat": 48.4733,
        "minLon": -0.7112,
        "maxLon": -0.5644
      },
      "totalPopulation": 7547,
      "totalSurface": 19118
    },
    "53320": {
      "communes": ["Beaulieu-sur-Oudon", "Loiron-Ruillé", "Montjean", "Saint-Cyr-le-Gravelais"],
      "communeCount": 4,
      "center": [-0.9578, 48.0397],
      "coverageRadius": 5.3,
      "boundingBox": {
        "minLat": 48.0044,
        "maxLat": 48.06,
        "minLon": -1.0285,
        "maxLon": -0.9358
      },
      "totalPopulation": 4813,
      "totalSurface": 10086
    },
    "53340": {
      "communes": ["Val-du-Maine", "Bannes", "Chémeré-le-Roi", "Cossé-en-Champagne", "Préaux", "Saulges"],
      "communeCount": 6,
      "center": [-0.4087, 47.9548],
      "coverageRadius": 5.7,
      "boundingBox": {
        "minLat": 47.9328,
        "maxLat": 47.9823,
        "minLon": -0.4657,
        "maxLon": -0.3344
      },
      "totalPopulation": 2319,
      "totalSurface": 10065
    },
    "53350": {
      "communes": ["Ballots", "Brains-sur-les-Marches", "Fontaine-Couverte", "La Roë", "Saint-Michel-de-la-Roë"],
      "communeCount": 5,
      "center": [-1.0944, 47.8953],
      "coverageRadius": 6.6,
      "boundingBox": {
        "minLat": 47.8807,
        "maxLat": 47.9081,
        "minLon": -1.1817,
        "maxLon": -1.0503
      },
      "totalPopulation": 2502,
      "totalSurface": 8749
    },
    "53360": {
      "communes": ["Houssay", "La Roche-Neuville", "Origné", "Peuton", "Quelaines-Saint-Gault", "Simplé"],
      "communeCount": 6,
      "center": [-0.7809, 47.9076],
      "coverageRadius": 6.3,
      "boundingBox": {
        "minLat": 47.8733,
        "maxLat": 47.9526,
        "minLon": -0.8505,
        "maxLon": -0.7305
      },
      "totalPopulation": 4872,
      "totalSurface": 11542
    },
    "53370": {
      "communes": ["Boulay-les-Ifs", "Champfrémont", "Gesvres", "Ravigny", "Saint-Pierre-des-Nids"],
      "communeCount": 5,
      "center": [-0.1071, 48.4006],
      "coverageRadius": 5.9,
      "boundingBox": {
        "minLat": 48.3691,
        "maxLat": 48.4452,
        "minLon": -0.1454,
        "maxLon": -0.0653
      },
      "totalPopulation": 2950,
      "totalSurface": 8738
    },
    "53380": {
      "communes": ["La Croixille", "Juvigné", "Saint-Hilaire-du-Maine"],
      "communeCount": 3,
      "center": [-1.0089, 48.2235],
      "coverageRadius": 5.9,
      "boundingBox": {
        "minLat": 48.2051,
        "maxLat": 48.2306,
        "minLon": -1.0579,
        "maxLon": -0.9299
      },
      "totalPopulation": 2773,
      "totalSurface": 11316
    },
    "53390": {
      "communes": ["La Rouaudière", "Saint-Aignan-sur-Roë", "Saint-Erblon", "Senonnes"],
      "communeCount": 4,
      "center": [-1.1636, 47.8247],
      "coverageRadius": 4.3,
      "boundingBox": {
        "minLat": 47.7879,
        "maxLat": 47.8397,
        "minLon": -1.2042,
        "maxLon": -1.1372
      },
      "totalPopulation": 1775,
      "totalSurface": 5630
    },
    "53400": {
      "communes": [
        "Athée",
        "Chérancé",
        "Craon",
        "Denazé",
        "Livré-la-Touche",
        "Mée",
        "Niafles",
        "Pommerieux",
        "Saint-Quentin-les-Anges"
      ],
      "communeCount": 9,
      "center": [-0.9424, 47.8454],
      "coverageRadius": 9.2,
      "boundingBox": {
        "minLat": 47.7731,
        "maxLat": 47.8876,
        "minLon": -1.0022,
        "maxLon": -0.8616
      },
      "totalPopulation": 7646,
      "totalSurface": 14734
    },
    "53410": {
      "communes": [
        "Le Bourgneuf-la-Forêt",
        "Bourgon",
        "La Brûlatte",
        "La Gravelle",
        "Launay-Villiers",
        "Olivet",
        "Port-Brillet",
        "Saint-Ouën-des-Toits",
        "Saint-Pierre-la-Cour"
      ],
      "communeCount": 9,
      "center": [-0.9788, 48.1267],
      "coverageRadius": 8.1,
      "boundingBox": {
        "minLat": 48.073,
        "maxLat": 48.1677,
        "minLon": -1.0675,
        "maxLon": -0.9075
      },
      "totalPopulation": 10263,
      "totalSurface": 13685
    },
    "53420": {
      "communes": ["Chailland"],
      "communeCount": 1,
      "center": [-0.8735, 48.2239],
      "coverageRadius": 3.38,
      "totalPopulation": 1173,
      "totalSurface": 3581
    },