{
  "departmentCode": "76",
  "departmentName": "Seine-Maritime",
  "stats": {
    "communeCount": 707,
    "totalPopulation": 1259955,
    "totalSurface": 630282
  },
  "communes": [
    {
      "nom": "Allouville-Bellefosse",
      "code": "76001",
      "codesPostaux": ["76190"],
      "centre": {
        "type": "Point",
        "coordinates": [0.6636, 49.5956]
      },
      "mairie": {
        "type": "Point",
        "coordinates": [0.677, 49.5972]
      },
      "population": 1147,
      "surface": 1499.97,
      "radius": 2.19
    },
    {
      "nom": "Alvimare",
      "code": "76002",
      "codesPostaux": ["76640"],
      "centre": {
        "type": "Point",
        "coordinates": [0.6306, 49.6066]
      },
      "mairie": {
        "type": "Point",
        "coordinates": [0.6301, 49.6043]
      },
      "population": 595,
      "surface": 667.9,
      "radius": 1.46
    },
    {
      "nom": "Ambrumesnil",
      "code": "76004",
      "codesPostaux": ["76550"],
      "centre": {
        "type": "Point",
        "coordinates": [0.983, 49.8591]
      },
      "mairie": {
        "type": "Point",
        "coordinates": [0.9946, 49.8575]
      },
      "population": 504,
      "surface": 525.52,
      "radius": 1.29
    },
    {
      "nom": "Amfreville-la-Mi-Voie",
      "code": "76005",
      "codesPostaux": ["76920"],
      "centre": {
        "type": "Point",
        "coordinates": [1.1275, 49.4053]
      },
      "mairie": {
        "type": "Point",
        "coordinates": [1.1221, 49.4067]
      },
      "population": 3280,
      "surface": 395.74,
      "radius": 1.12
    },
    {
      "nom": "Amfreville-les-Champs",
      "code": "76006",
      "codesPostaux": ["76560"],
      "centre": {
        "type": "Point",
        "coordinates": [0.8269, 49.698]
      },
      "mairie": {
        "type": "Point",
        "coordinates": [0.8175, 49.6975]
      },
      "population": 190,
      "surface": 454.18,
      "radius": 1.2
    },
    {
      "nom": "Anceaumeville",
      "code": "76007",
      "codesPostaux": ["76710"],
      "centre": {
        "type": "Point",
        "coordinates": [1.0621, 49.5692]
      },
      "mairie": {
        "type": "Point",
        "coordinates": [1.0634, 49.5748]
      },
      "population": 693,
      "surface": 468.1,
      "radius": 1.22
    },
    {
      "nom": "Ancourt",
      "code": "76008",
      "codesPostaux": ["76370"],
      "centre": {
        "type": "Point",
        "coordinates": [1.1835, 49.911]
      },
      "mairie": {
        "type": "Point",
        "coordinates": [1.1799, 49.9091]
      },
      "population": 627,
      "surface": 1239.09,
      "radius": 1.99
    },
    {
      "nom": "Ancourteville-sur-Héricourt",
      "code": "76009",
      "codesPostaux": ["76560"],
      "centre": {
        "type": "Point",
        "coordinates": [0.6613, 49.6914]
      },
      "mairie": {
        "type": "Point",
        "coordinates": [0.661, 49.6963]
      },
      "population": 353,
      "surface": 353.59,
      "radius": 1.06
    },
    {
      "nom": "Ancretiéville-Saint-Victor",
      "code": "76010",
      "codesPostaux": ["76760"],
      "centre": {
        "type": "Point",
        "coordinates": [0.9681, 49.6555]
      },
      "mairie": {
        "type": "Point",
        "coordinates": [0.981, 49.6587]
      },
      "population": 374,
      "surface": 1165.01,
      "radius": 1.93
    },
    {
      "nom": "Ancretteville-sur-Mer",
      "code": "76011",
      "codesPostaux": ["76540"],
      "centre": {
        "type": "Point",
        "coordinates": [0.5037, 49.7891]
      },
      "mairie": {
        "type": "Point",
        "coordinates": [0.5086, 49.7902]
      },
      "population": 149,
      "surface": 316.34,
      "radius": 1
    },
    {
      "nom": "Angerville-Bailleul",
      "code": "76012",
      "codesPostaux": ["76110"],
      "centre": {
        "type": "Point",
        "coordinates": [0.4527, 49.6681]
      },
      "mairie": {
        "type": "Point",
        "coordinates": [0.457, 49.6663]
      },
      "population": 184,
      "surface": 456.26,
      "radius": 1.21
    },
    {
      "nom": "Angerville-l'Orcher",
      "code": "76014",
      "codesPostaux": ["76280"],
      "centre": {
        "type": "Point",
        "coordinates": [0.2951, 49.5847]
      },
      "mairie": {
        "type": "Point",
        "coordinates": [0.2824, 49.5879]
      },
      "population": 1398,
      "surface": 987.52,
      "radius": 1.77
    },
    {
      "nom": "Angerville-la-Martel",
      "code": "76013",
      "codesPostaux": ["76540"],
      "centre": {
        "type": "Point",
        "coordinates": [0.5037, 49.7672]
      },
      "mairie": {
        "type": "Point",
        "coordinates": [0.5011, 49.7616]
      },
      "population": 1081,
      "surface": 1016.91,
      "radius": 1.8
    },
    {
      "nom": "Angiens",
      "code": "76015",
      "codesPostaux": ["76740"],
      "centre": {
        "type": "Point",
        "coordinates": [0.8021, 49.8336]
      },
      "mairie": {
        "type": "Point",
        "coordinates": [0.7906, 49.8287]
      },
      "population": 518,
      "surface": 694.88,
      "radius": 1.49
    },
    {
      "nom": "Anglesqueville-l'Esneval",
      "code": "76017",
      "codesPostaux": ["76280"],
      "centre": {
        "type": "Point",
        "coordinates": [0.2346, 49.6318]
      },
      "mairie": {
        "type": "Point",
        "coordinates": [0.2359, 49.6326]
      },
      "population": 674,
      "surface": 427.71,
      "radius": 1.17
    },
    {
      "nom": "Anglesqueville-la-Bras-Long",
      "code": "76016",
      "codesPostaux": ["76740"],
      "centre": {
        "type": "Point",
        "coordinates": [0.7827, 49.7797]
      },
      "mairie": {
        "type": "Point",
        "coordinates": [0.7851, 49.7797]
      },
      "population": 126,
      "surface": 357.33,
      "radius": 1.07
    },
    {
      "nom": "Anneville-Ambourville",
      "code": "76020",
      "codesPostaux": ["76480"],
      "centre": {
        "type": "Point",
        "coordinates": [0.896, 49.4518]
      },
      "mairie": {
        "type": "Point",
        "coordinates": [0.8852, 49.4622]
      },
      "population": 1161,
      "surface": 2051.37,
      "radius": 2.56
    },
    {
      "nom": "Anneville-sur-Scie",
      "code": "76019",
      "codesPostaux": ["76590"],
      "centre": {
        "type": "Point",
        "coordinates": [1.0935, 49.8394]
      },
      "mairie": {
        "type": "Point",
        "coordinates": [1.0863, 49.8305]
      },
      "population": 411,
      "surface": 548,
      "radius": 1.32
    },
    {
      "nom": "Annouville-Vilmesnil",
      "code": "76021",
      "codesPostaux": ["76110"],
      "centre": {
        "type": "Point",
        "coordinates": [0.4335, 49.6789]
      },
      "mairie": {
        "type": "Point",
        "coordinates": [0.4324, 49.6775]
      },
      "population": 449,
      "surface": 584.43,
      "radius": 1.36
    },
    {
      "nom": "Anquetierville",
      "code": "76022",
      "codesPostaux": ["76490"],
      "centre": {
        "type": "Point",
        "coordinates": [0.6356, 49.5369]
      },
      "mairie": {
        "type": "Point",
        "coordinates": [0.6331, 49.5338]
      },
      "population": 329,
      "surface": 417.17,
      "radius": 1.15
    },
    {
      "nom": "Anvéville",
      "code": "76023",
      "codesPostaux": ["76560"],
      "centre": {
        "type": "Point",
        "coordinates": [0.751, 49.7003]
      },
      "mairie": {
        "type": "Point",
        "coordinates": [0.74, 49.6998]
      },
      "population": 298,
      "surface": 425.97,
      "radius": 1.16
    },
    {
      "nom": "Ardouval",
      "code": "76024",
      "codesPostaux": ["76680"],
      "centre": {
        "type": "Point",
        "coordinates": [1.2729, 49.7397]
      },
      "mairie": {
        "type": "Point",
        "coordinates": [1.2735, 49.7459]
      },
      "population": 154,
      "surface": 1038.56,
      "radius": 1.82
    },
    {
      "nom": "Arelaune-en-Seine",
      "code": "76401",
      "codesPostaux": ["76940"],
      "centre": {
        "type": "Point",
        "coordinates": [0.7492, 49.4654]
      },
      "mairie": {
        "type": "Point",
        "coordinates": [0.7705, 49.4818]
      },
      "population": 2500,
      "surface": 5390.53,
      "radius": 4.14
    },
    {
      "nom": "Argueil",
      "code": "76025",
      "codesPostaux": ["76780"],
      "centre": {
        "type": "Point",
        "coordinates": [1.5331, 49.548]
      },
      "mairie": {
        "type": "Point",
        "coordinates": [1.5146, 49.5424]
      },
      "population": 348,
      "surface": 695.46,
      "radius": 1.49
    },
    {
      "nom": "Arques-la-Bataille",
      "code": "76026",
      "codesPostaux": ["76880"],
      "centre": {
        "type": "Point",
        "coordinates": [1.1539, 49.8789]
      },
      "mairie": {
        "type": "Point",
        "coordinates": [1.1252, 49.8803]
      },
      "population": 2433,
      "surface": 1476.37,
      "radius": 2.17
    },
    {
      "nom": "Aubéguimont",
      "code": "76028",
      "codesPostaux": ["76390"],
      "centre": {
        "type": "Point",
        "coordinates": [1.6816, 49.8097]
      },
      "mairie": {
        "type": "Point",
        "coordinates": [1.6734, 49.8078]
      },
      "population": 177,
      "surface": 488.48,
      "radius": 1.25
    },
    {
      "nom": "Aubermesnil-aux-Érables",
      "code": "76029",
      "codesPostaux": ["76340"],
      "centre": {
        "type": "Point",
        "coordinates": [1.569, 49.81]
      },
      "mairie": {
        "type": "Point",
        "coordinates": [1.5681, 49.8269]
      },
      "population": 201,
      "surface": 840.78,
      "radius": 1.64
    },
    {
      "nom": "Aubermesnil-Beaumais",
      "code": "76030",
      "codesPostaux": ["76550"],
      "centre": {
        "type": "Point",
        "coordinates": [1.1208, 49.8493]
      },
      "mairie": {
        "type": "Point",
        "coordinates": [1.1216, 49.8523]
      },
      "population": 524,
      "surface": 496.98,
      "radius": 1.26
    },
    {
      "nom": "Auberville-la-Manuel",
      "code": "76032",
      "codesPostaux": ["76450"],
      "centre": {
        "type": "Point",
        "coordinates": [0.5835, 49.8288]
      },
      "mairie": {
        "type": "Point",
        "coordinates": [0.5904, 49.8276]
      },
      "population": 138,
      "surface": 302.75,
      "radius": 0.98
    },
    {
      "nom": "Auberville-la-Renault",
      "code": "76033",
      "codesPostaux": ["76110"],
      "centre": {
        "type": "Point",
        "coordinates": [0.3797, 49.6868]
      },
      "mairie": {
        "type": "Point",
        "coordinates": [0.3675, 49.6814]
      },
      "population": 451,
      "surface": 499.35,
      "radius": 1.26
    },
    {
      "nom": "Aumale",
      "code": "76035",
      "codesPostaux": ["76390"],
      "centre": {
        "type": "Point",
        "coordinates": [1.7555, 49.7725]
      },
      "mairie": {
        "type": "Point",
        "coordinates": [1.7521, 49.7686]
      },
      "population": 1985,
      "surface": 899.66,
      "radius": 1.69
    },
    {
      "nom": "Auppegard",
      "code": "76036",
      "codesPostaux": ["76730"],
      "centre": {
        "type": "Point",
        "coordinates": [1.0279, 49.8323]
      },
      "mairie": {
        "type": "Point",
        "coordinates": [1.0286, 49.8288]
      },
      "population": 688,
      "surface": 732.54,
      "radius": 1.53
    },
    {
      "nom": "Authieux-Ratiéville",
      "code": "76038",
      "codesPostaux": ["76690"],
      "centre": {
        "type": "Point",
        "coordinates": [1.1471, 49.5972]
      },
      "mairie": {
        "type": "Point",
        "coordinates": [1.1464, 49.6032]
      },
      "population": 405,
      "surface": 524.37,
      "radius": 1.29
    },
    {
      "nom": "Autigny",
      "code": "76040",
      "codesPostaux": ["76740"],
      "centre": {
        "type": "Point",
        "coordinates": [0.854, 49.7963]
      },
      "mairie": {
        "type": "Point",
        "coordinates": [0.8582, 49.7931]
      },
      "population": 320,
      "surface": 406.91,
      "radius": 1.14
    },
    {
      "nom": "Auvilliers",
      "code": "76042",
      "codesPostaux": ["76270"],
      "centre": {
        "type": "Point",
        "coordinates": [1.5739, 49.7572]
      },
      "mairie": {
        "type": "Point",
        "coordinates": [1.5776, 49.7598]
      },
      "population": 103,
      "surface": 484.84,
      "radius": 1.24
    },
    {
      "nom": "Auzebosc",
      "code": "76043",
      "codesPostaux": ["76190"],
      "centre": {
        "type": "Point",
        "coordinates": [0.7331, 49.6013]
      },
      "mairie": {
        "type": "Point",
        "coordinates": [0.7272, 49.596]
      },
      "population": 1120,
      "surface": 474.71,
      "radius": 1.23
    },
    {
      "nom": "Auzouville-l'Esneval",
      "code": "76045",
      "codesPostaux": ["76760"],
      "centre": {
        "type": "Point",
        "coordinates": [0.8862, 49.6315]
      },
      "mairie": {
        "type": "Point",
        "coordinates": [0.8867, 49.6436]
      },
      "population": 360,
      "surface": 566.61,
      "radius": 1.34
    },
    {
      "nom": "Auzouville-sur-Ry",
      "code": "76046",
      "codesPostaux": ["76116"],
      "centre": {
        "type": "Point",
        "coordinates": [1.3071, 49.4387]
      },
      "mairie": {
        "type": "Point",
        "coordinates": [1.3113, 49.4432]
      },
      "population": 681,
      "surface": 792.45,
      "radius": 1.59
    },
    {
      "nom": "Auzouville-sur-Saâne",
      "code": "76047",
      "codesPostaux": ["76730"],
      "centre": {
        "type": "Point",
        "coordinates": [0.9314, 49.7422]
      },
      "mairie": {
        "type": "Point",
        "coordinates": [0.9334, 49.7452]
      },
      "population": 146,
      "surface": 311.11,
      "radius": 1
    },
    {
      "nom": "Avesnes-en-Bray",
      "code": "76048",
      "codesPostaux": ["76220"],
      "centre": {
        "type": "Point",
        "coordinates": [1.6749, 49.4737]
      },
      "mairie": {
        "type": "Point",
        "coordinates": [1.6727, 49.4698]
      },
      "population": 284,
      "surface": 1187.24,
      "radius": 1.94
    },
    {
      "nom": "Avesnes-en-Val",
      "code": "76049",
      "codesPostaux": ["76630"],
      "centre": {
        "type": "Point",
        "coordinates": [1.4052, 49.9157]
      },
      "mairie": {
        "type": "Point",
        "coordinates": [1.3992, 49.9201]
      },
      "population": 264,
      "surface": 1660.94,
      "radius": 2.3
    },
    {
      "nom": "Avremesnil",
      "code": "76050",
      "codesPostaux": ["76730"],
      "centre": {
        "type": "Point",
        "coordinates": [0.9336, 49.8503]
      },
      "mairie": {
        "type": "Point",
        "coordinates": [0.9247, 49.8489]
      },
      "population": 1000,
      "surface": 544.33,
      "radius": 1.32
    },
    {
      "nom": "Bacqueville-en-Caux",
      "code": "76051",
      "codesPostaux": ["76730"],
      "centre": {
        "type": "Point",
        "coordinates": [1.0055, 49.7932]
      },
      "mairie": {
        "type": "Point",
        "coordinates": [0.9981, 49.7861]
      },
      "population": 1897,
      "surface": 1213.18,
      "radius": 1.97
    },
    {
      "nom": "Bailleul-Neuville",
      "code": "76052",
      "codesPostaux": ["76660"],
      "centre": {
        "type": "Point",
        "coordinates": [1.4282, 49.8082]
      },
      "mairie": {
        "type": "Point",
        "coordinates": [1.4229, 49.8076]
      },
      "population": 221,
      "surface": 1315.71,
      "radius": 2.05
    },
    {
      "nom": "Baillolet",
      "code": "76053",
      "codesPostaux": ["76660"],
      "centre": {
        "type": "Point",
        "coordinates": [1.4322, 49.7903]
      },
      "mairie": {
        "type": "Point",
        "coordinates": [1.437, 49.7934]
      },
      "population": 116,
      "surface": 872.79,
      "radius": 1.67
    },
    {
      "nom": "Bailly-en-Rivière",
      "code": "76054",
      "codesPostaux": ["76630"],
      "centre": {
        "type": "Point",
        "coordinates": [1.3534, 49.9061]
      },
      "mairie": {
        "type": "Point",
        "coordinates": [1.3387, 49.9131]
      },
      "population": 514,
      "surface": 2037.06,
      "radius": 2.55
    },
    {
      "nom": "Baons-le-Comte",
      "code": "76055",
      "codesPostaux": ["76190"],
      "centre": {
        "type": "Point",
        "coordinates": [0.7594, 49.6403]
      },
      "mairie": {
        "type": "Point",
        "coordinates": [0.775, 49.6412]
      },
      "population": 336,
      "surface": 537.61,
      "radius": 1.31
    },
    {
      "nom": "Bardouville",
      "code": "76056",
      "codesPostaux": ["76480"],
      "centre": {
        "type": "Point",
        "coordinates": [0.9223, 49.4293]
      },
      "mairie": {
        "type": "Point",
        "coordinates": [0.9279, 49.4358]
      },
      "population": 602,
      "surface": 846.09,
      "radius": 1.64
    },
    {
      "nom": "Barentin",
      "code": "76057",
      "codesPostaux": ["76360"],
      "centre": {
        "type": "Point",
        "coordinates": [0.9549, 49.5431]
      },
      "mairie": {
        "type": "Point",
        "coordinates": [0.9526, 49.5455]
      },
      "population": 12227,
      "surface": 1271.55,
      "radius": 2.01
    },
    {
      "nom": "Baromesnil",
      "code": "76058",
      "codesPostaux": ["76260"],
      "centre": {
        "type": "Point",
        "coordinates": [1.411, 49.9846]
      },
      "mairie": {
        "type": "Point",
        "coordinates": [1.4092, 49.9853]
      },
      "population": 212,
      "surface": 804.29,
      "radius": 1.6
    },
    {
      "nom": "Bazinval",
      "code": "76059",
      "codesPostaux": ["76340"],
      "centre": {
        "type": "Point",
        "coordinates": [1.5457, 49.9481]
      },
      "mairie": {
        "type": "Point",
        "coordinates": [1.5504, 49.9545]
      },
      "population": 410,
      "surface": 714.06,
      "radius": 1.51
    },
    {
      "nom": "Beaubec-la-Rosière",
      "code": "76060",
      "codesPostaux": ["76440"],
      "centre": {
        "type": "Point",
        "coordinates": [1.5098, 49.6471]
      },
      "mairie": {
        "type": "Point",
        "coordinates": [1.5322, 49.6453]
      },
      "population": 462,
      "surface": 1302.25,
      "radius": 2.04
    },
    {
      "nom": "Beaumont-le-Hareng",
      "code": "76062",
      "codesPostaux": ["76850"],
      "centre": {
        "type": "Point",
        "coordinates": [1.2196, 49.6652]
      },
      "mairie": {
        "type": "Point",
        "coordinates": [1.2218, 49.6701]
      },
      "population": 259,
      "surface": 570.72,
      "radius": 1.35
    },
    {
      "nom": "Beaurepaire",
      "code": "76064",
      "codesPostaux": ["76280"],
      "centre": {
        "type": "Point",
        "coordinates": [0.2136, 49.6599]
      },
      "mairie": {
        "type": "Point",
        "coordinates": [0.2202, 49.6658]
      },
      "population": 492,
      "surface": 287.63,
      "radius": 0.96
    },
    {
      "nom": "Beaussault",
      "code": "76065",
      "codesPostaux": ["76870"],
      "centre": {
        "type": "Point",
        "coordinates": [1.5701, 49.6873]
      },
      "mairie": {
        "type": "Point",
        "coordinates": [1.5629, 49.6847]
      },
      "population": 411,
      "surface": 1846.5,
      "radius": 2.42
    },
    {
      "nom": "Beautot",
      "code": "76066",
      "codesPostaux": ["76890"],
      "centre": {
        "type": "Point",
        "coordinates": [1.048, 49.6348]
      },
      "mairie": {
        "type": "Point",
        "coordinates": [1.0375, 49.6426]
      },
      "population": 155,
      "surface": 350.29,
      "radius": 1.06
    },
    {
      "nom": "Beauval-en-Caux",
      "code": "76063",
      "codesPostaux": ["76890"],
      "centre": {
        "type": "Point",
        "coordinates": [1.0275, 49.7374]
      },
      "mairie": {
        "type": "Point",
        "coordinates": [1.0188, 49.7442]
      },
      "population": 464,
      "surface": 1526.41,
      "radius": 2.2
    },
    {
      "nom": "Beauvoir-en-Lyons",
      "code": "76067",
      "codesPostaux": ["76220"],
      "centre": {
        "type": "Point",
        "coordinates": [1.5852, 49.487]
      },
      "mairie": {
        "type": "Point",
        "coordinates": [1.5858, 49.5035]
      },
      "population": 630,
      "surface": 3366.45,
      "radius": 3.27
    },
    {
      "nom": "Bec-de-Mortagne",
      "code": "76068",
      "codesPostaux": ["76110"],
      "centre": {
        "type": "Point",
        "coordinates": [0.4507, 49.7039]
      },
      "mairie": {
        "type": "Point",
        "coordinates": [0.4491, 49.703]
      },
      "population": 676,
      "surface": 1207.47,
      "radius": 1.96
    },
    {
      "nom": "Belbeuf",
      "code": "76069",
      "codesPostaux": ["76240"],
      "centre": {
        "type": "Point",
        "coordinates": [1.1415, 49.382]
      },
      "mairie": {
        "type": "Point",
        "coordinates": [1.1391, 49.3883]
      },
      "population": 2257,
      "surface": 652.54,
      "radius": 1.44
    },
    {
      "nom": "Bellencombre",
      "code": "76070",
      "codesPostaux": ["76680"],
      "centre": {
        "type": "Point",
        "coordinates": [1.2361, 49.7183]
      },
      "mairie": {
        "type": "Point",
        "coordinates": [1.227, 49.7062]
      },
      "population": 577,
      "surface": 1284.39,
      "radius": 2.02
    },
    {
      "nom": "Bellengreville",
      "code": "76071",
      "codesPostaux": ["76630"],
      "centre": {
        "type": "Point",
        "coordinates": [1.2294, 49.9091]
      },
      "mairie": {
        "type": "Point",
        "coordinates": [1.2186, 49.9069]
      },
      "population": 471,
      "surface": 758.52,
      "radius": 1.55
    },
    {
      "nom": "Belleville-en-Caux",
      "code": "76072",
      "codesPostaux": ["76890"],
      "centre": {
        "type": "Point",
        "coordinates": [0.9861, 49.7048]
      },
      "mairie": {
        "type": "Point",
        "coordinates": [0.9909, 49.7032]
      },
      "population": 746,
      "surface": 449.18,
      "radius": 1.2
    },
    {
      "nom": "Belmesnil",
      "code": "76075",
      "codesPostaux": ["76590"],
      "centre": {
        "type": "Point",
        "coordinates": [1.0473, 49.7671]
      },
      "mairie": {
        "type": "Point",
        "coordinates": [1.0484, 49.7695]
      },
      "population": 446,
      "surface": 309.62,
      "radius": 0.99
    },
    {
      "nom": "Bénarville",
      "code": "76076",
      "codesPostaux": ["76110"],
      "centre": {
        "type": "Point",
        "coordinates": [0.4881, 49.6726]
      },
      "mairie": {
        "type": "Point",
        "coordinates": [0.4925, 49.6733]
      },
      "population": 262,
      "surface": 442.38,
      "radius": 1.19
    },
    {
      "nom": "Bénesville",
      "code": "76077",
      "codesPostaux": ["76560"],
      "centre": {
        "type": "Point",
        "coordinates": [0.8277, 49.7536]
      },
      "mairie": {
        "type": "Point",
        "coordinates": [0.8348, 49.7545]
      },
      "population": 162,
      "surface": 548.79,
      "radius": 1.32
    },
    {
      "nom": "Bénouville",
      "code": "76079",
      "codesPostaux": ["76790"],
      "centre": {
        "type": "Point",
        "coordinates": [0.2452, 49.7197]
      },
      "mairie": {
        "type": "Point",
        "coordinates": [0.2511, 49.7175]
      },
      "population": 168,
      "surface": 293.83,
      "radius": 0.97
    },
    {
      "nom": "Bernières",
      "code": "76082",
      "codesPostaux": ["76210"],
      "centre": {
        "type": "Point",
        "coordinates": [0.4756, 49.6227]
      },
      "mairie": {
        "type": "Point",
        "coordinates": [0.4766, 49.6188]
      },
      "population": 638,
      "surface": 666.9,
      "radius": 1.46
    },
    {
      "nom": "Bertheauville",
      "code": "76083",
      "codesPostaux": ["76450"],
      "centre": {
        "type": "Point",
        "coordinates": [0.5915, 49.7553]
      },
      "mairie": {
        "type": "Point",
        "coordinates": [0.588, 49.7547]
      },
      "population": 101,
      "surface": 240.41,
      "radius": 0.87
    },
    {
      "nom": "Bertreville",
      "code": "76084",
      "codesPostaux": ["76450"],
      "centre": {
        "type": "Point",
        "coordinates": [0.5784, 49.7664]
      },
      "mairie": {
        "type": "Point",
        "coordinates": [0.5802, 49.7674]
      },
      "population": 121,
      "surface": 324.3,
      "radius": 1.02
    },
    {
      "nom": "Bertreville-Saint-Ouen",
      "code": "76085",
      "codesPostaux": ["76590"],
      "centre": {
        "type": "Point",
        "coordinates": [1.042, 49.8128]
      },
      "mairie": {
        "type": "Point",
        "coordinates": [1.0526, 49.8055]
      },
      "population": 339,
      "surface": 667.38,
      "radius": 1.46
    },
    {
      "nom": "Bertrimont",
      "code": "76086",
      "codesPostaux": ["76890"],
      "centre": {
        "type": "Point",
        "coordinates": [0.9976, 49.6702]
      },
      "mairie": {
        "type": "Point",
        "coordinates": [0.9995, 49.6664]
      },
      "population": 218,
      "surface": 476.7,
      "radius": 1.23
    },
    {
      "nom": "Berville-en-Caux",
      "code": "76087",
      "codesPostaux": ["76560"],
      "centre": {
        "type": "Point",
        "coordinates": [0.8378, 49.713]
      },
      "mairie": {
        "type": "Point",
        "coordinates": [0.8329, 49.7073]
      },
      "population": 709,
      "surface": 678.09,
      "radius": 1.47
    },
    {
      "nom": "Berville-sur-Seine",
      "code": "76088",
      "codesPostaux": ["76480"],
      "centre": {
        "type": "Point",
        "coordinates": [0.8952, 49.4728]
      },
      "mairie": {
        "type": "Point",
        "coordinates": [0.9016, 49.4723]
      },
      "population": 542,
      "surface": 699.83,
      "radius": 1.49
    },
    {
      "nom": "Beuzeville-la-Grenier",
      "code": "76090",
      "codesPostaux": ["76210"],
      "centre": {
        "type": "Point",
        "coordinates": [0.4203, 49.5934]
      },
      "mairie": {
        "type": "Point",
        "coordinates": [0.428, 49.5912]
      },
      "population": 1216,
      "surface": 624.86,
      "radius": 1.41
    },
    {
      "nom": "Beuzeville-la-Guérard",
      "code": "76091",
      "codesPostaux": ["76450"],
      "centre": {
        "type": "Point",
        "coordinates": [0.6121, 49.7089]
      },
      "mairie": {
        "type": "Point",
        "coordinates": [0.6135, 49.7135]
      },
      "population": 236,
      "surface": 645.45,
      "radius": 1.43
    },
    {
      "nom": "Beuzevillette",
      "code": "76092",
      "codesPostaux": ["76210"],
      "centre": {
        "type": "Point",
        "coordinates": [0.5501, 49.5734]
      },
      "mairie": {
        "type": "Point",
        "coordinates": [0.5356, 49.5714]
      },
      "population": 612,
      "surface": 566.7,
      "radius": 1.34
    },
    {
      "nom": "Bézancourt",
      "code": "76093",
      "codesPostaux": ["76220"],
      "centre": {
        "type": "Point",
        "coordinates": [1.6113, 49.4342]
      },
      "mairie": {
        "type": "Point",
        "coordinates": [1.6229, 49.4417]
      },
      "population": 362,
      "surface": 1768.09,
      "radius": 2.37
    },
    {
      "nom": "Bierville",
      "code": "76094",
      "codesPostaux": ["76750"],
      "centre": {
        "type": "Point",
        "coordinates": [1.275, 49.5369]
      },
      "mairie": {
        "type": "Point",
        "coordinates": [1.2703, 49.5381]
      },
      "population": 320,
      "surface": 213.58,
      "radius": 0.82
    },
    {
      "nom": "Bihorel",
      "code": "76095",
      "codesPostaux": ["76420"],
      "centre": {
        "type": "Point",
        "coordinates": [1.1288, 49.4634]
      },
      "mairie": {
        "type": "Point",
        "coordinates": [1.1163, 49.4544]
      },
      "population": 8299,
      "surface": 250.64,
      "radius": 0.89
    },
    {
      "nom": "Biville-la-Baignarde",
      "code": "76096",
      "codesPostaux": ["76890"],
      "centre": {
        "type": "Point",
        "coordinates": [1.047, 49.7223]
      },
      "mairie": {
        "type": "Point",
        "coordinates": [1.0482, 49.7211]
      },
      "population": 658,
      "surface": 693.06,
      "radius": 1.49
    },
    {
      "nom": "Biville-la-Rivière",
      "code": "76097",
      "codesPostaux": ["76730"],
      "centre": {
        "type": "Point",
        "coordinates": [0.918, 49.776]
      },
      "mairie": {
        "type": "Point",
        "coordinates": [0.9291, 49.7735]
      },
      "population": 104,
      "surface": 224.33,
      "radius": 0.85
    },
    {
      "nom": "Blacqueville",
      "code": "76099",
      "codesPostaux": ["76190"],
      "centre": {
        "type": "Point",
        "coordinates": [0.8457, 49.5599]
      },
      "mairie": {
        "type": "Point",
        "coordinates": [0.8651, 49.5624]
      },
      "population": 683,
      "surface": 995.2,
      "radius": 1.78
    },
    {
      "nom": "Blainville-Crevon",
      "code": "76100",
      "codesPostaux": ["76116"],
      "centre": {
        "type": "Point",
        "coordinates": [1.293, 49.5071]
      },
      "mairie": {
        "type": "Point",
        "coordinates": [1.3, 49.5039]
      },
      "population": 1227,
      "surface": 1476.48,
      "radius": 2.17
    },
    {
      "nom": "Blangy-sur-Bresle",
      "code": "76101",
      "codesPostaux": ["76340"],
      "centre": {
        "type": "Point",
        "coordinates": [1.6316, 49.9163]
      },
      "mairie": {
        "type": "Point",
        "coordinates": [1.6301, 49.9323]
      },
      "population": 2844,
      "surface": 1742.58,
      "radius": 2.36
    },
    {
      "nom": "Blosseville",
      "code": "76104",
      "codesPostaux": ["76460"],
      "centre": {
        "type": "Point",
        "coordinates": [0.8047, 49.8536]
      },
      "mairie": {
        "type": "Point",
        "coordinates": [0.7929, 49.8547]
      },
      "population": 257,
      "surface": 705.59,
      "radius": 1.5
    },
    {
      "nom": "Bois-d'Ennebourg",
      "code": "76106",
      "codesPostaux": ["76160"],
      "centre": {
        "type": "Point",
        "coordinates": [1.2575, 49.4259]
      },
      "mairie": {
        "type": "Point",
        "coordinates": [1.2564, 49.4333]
      },
      "population": 576,
      "surface": 709.22,
      "radius": 1.5
    },
    {
      "nom": "Bois-Guilbert",
      "code": "76107",
      "codesPostaux": ["76750"],
      "centre": {
        "type": "Point",
        "coordinates": [1.4155, 49.5389]
      },
      "mairie": {
        "type": "Point",
        "coordinates": [1.4143, 49.5463]
      },
      "population": 290,
      "surface": 809.92,
      "radius": 1.61
    },
    {
      "nom": "Bois-Guillaume",
      "code": "76108",
      "codesPostaux": ["76230"],
      "centre": {
        "type": "Point",
        "coordinates": [1.1194, 49.4729]
      },
      "mairie": {
        "type": "Point",
        "coordinates": [1.1195, 49.4703]
      },
      "population": 14497,
      "surface": 885.9,
      "radius": 1.68
    },
    {
      "nom": "Bois-Héroult",
      "code": "76109",
      "codesPostaux": ["76750"],
      "centre": {
        "type": "Point",
        "coordinates": [1.4093, 49.5691]
      },
      "mairie": {
        "type": "Point",
        "coordinates": [1.409, 49.5646]
      },
      "population": 168,
      "surface": 647.67,
      "radius": 1.44
    },
    {
      "nom": "Bois-Himont",
      "code": "76110",
      "codesPostaux": ["76190"],
      "centre": {
        "type": "Point",
        "coordinates": [0.686, 49.58]
      },
      "mairie": {
        "type": "Point",
        "coordinates": [0.6975, 49.5816]
      },
      "population": 447,
      "surface": 584.62,
      "radius": 1.36
    },
    {
      "nom": "Bois-l'Évêque",
      "code": "76111",
      "codesPostaux": ["76160"],
      "centre": {
        "type": "Point",
        "coordinates": [1.2525, 49.4543]
      },
      "mairie": {
        "type": "Point",
        "coordinates": [1.2639, 49.4495]
      },
      "population": 616,
      "surface": 732.66,
      "radius": 1.53
    },
    {
      "nom": "Boissay",
      "code": "76113",
      "codesPostaux": ["76750"],
      "centre": {
        "type": "Point",
        "coordinates": [1.3602, 49.5191]
      },
      "mairie": {
        "type": "Point",
        "coordinates": [1.3575, 49.5202]
      },
      "population": 426,
      "surface": 666.74,
      "radius": 1.46
    },
    {
      "nom": "Bolbec",
      "code": "76114",
      "codesPostaux": ["76210"],
      "centre": {
        "type": "Point",
        "coordinates": [0.483, 49.5755]
      },
      "mairie": {
        "type": "Point",
        "coordinates": [0.4743, 49.574]
      },
      "population": 11618,
      "surface": 1229.37,
      "radius": 1.98
    },
    {
      "nom": "Bolleville",
      "code": "76115",
      "codesPostaux": ["76210"],
      "centre": {
        "type": "Point",
        "coordinates": [0.5662, 49.6065]
      },
      "mairie": {
        "type": "Point",
        "coordinates": [0.5626, 49.5991]
      },
      "population": 590,
      "surface": 986.06,
      "radius": 1.77
    },
    {
      "nom": "Bonsecours",
      "code": "76103",
      "codesPostaux": ["76240"],
      "centre": {
        "type": "Point",
        "coordinates": [1.1353, 49.4251]
      },
      "mairie": {
        "type": "Point",
        "coordinates": [1.1266, 49.4223]
      },
      "population": 6444,
      "surface": 374.79,
      "radius": 1.09
    },
    {
      "nom": "Boos",
      "code": "76116",
      "codesPostaux": ["76520"],
      "centre": {
        "type": "Point",
        "coordinates": [1.2047, 49.3762]
      },
      "mairie": {
        "type": "Point",
        "coordinates": [1.2011, 49.3892]
      },
      "population": 3975,
      "surface": 1411.1,
      "radius": 2.12
    },
    {
      "nom": "Bordeaux-Saint-Clair",
      "code": "76117",
      "codesPostaux": ["76790"],
      "centre": {
        "type": "Point",
        "coordinates": [0.2445, 49.6953]
      },
      "mairie": {
        "type": "Point",
        "coordinates": [0.2575, 49.7005]
      },
      "population": 650,
      "surface": 1020.98,
      "radius": 1.8
    },
    {
      "nom": "Bornambusc",
      "code": "76118",
      "codesPostaux": ["76110"],
      "centre": {
        "type": "Point",
        "coordinates": [0.3532, 49.6251]
      },
      "mairie": {
        "type": "Point",
        "coordinates": [0.3537, 49.6259]
      },
      "population": 243,
      "surface": 413.98,
      "radius": 1.15
    },
    {
      "nom": "Bosc-Bérenger",
      "code": "76119",
      "codesPostaux": ["76680"],
      "centre": {
        "type": "Point",
        "coordinates": [1.2532, 49.6359]
      },
      "mairie": {
        "type": "Point",
        "coordinates": [1.2566, 49.6346]
      },
      "population": 198,
      "surface": 343.92,
      "radius": 1.05
    },
    {
      "nom": "Bosc-Bordel",
      "code": "76120",
      "codesPostaux": ["76750"],
      "centre": {
        "type": "Point",
        "coordinates": [1.4121, 49.6075]
      },
      "mairie": {
        "type": "Point",
        "coordinates": [1.4096, 49.5925]
      },
      "population": 453,
      "surface": 1197.79,
      "radius": 1.95
    },
    {
      "nom": "Bosc-Édeline",
      "code": "76121",
      "codesPostaux": ["76750"],
      "centre": {
        "type": "Point",
        "coordinates": [1.429, 49.5751]
      },
      "mairie": {
        "type": "Point",
        "coordinates": [1.428, 49.5694]
      },
      "population": 371,
      "surface": 624.77,
      "radius": 1.41
    },
    {
      "nom": "Bosc-Guérard-Saint-Adrien",
      "code": "76123",
      "codesPostaux": ["76710"],
      "centre": {
        "type": "Point",
        "coordinates": [1.1232, 49.5412]
      },
      "mairie": {
        "type": "Point",
        "coordinates": [1.1148, 49.5427]
      },
      "population": 1085,
      "surface": 1040.31,
      "radius": 1.82
    },
    {
      "nom": "Bosc-Hyons",
      "code": "76124",
      "codesPostaux": ["76220"],
      "centre": {
        "type": "Point",
        "coordinates": [1.6491, 49.4516]
      },
      "mairie": {
        "type": "Point",
        "coordinates": [1.6546, 49.4509]
      },
      "population": 420,
      "surface": 564.45,
      "radius": 1.34
    },
    {
      "nom": "Bosc-le-Hard",
      "code": "76125",
      "codesPostaux": ["76850"],
      "centre": {
        "type": "Point",
        "coordinates": [1.187, 49.6217]
      },
      "mairie": {
        "type": "Point",
        "coordinates": [1.1759, 49.6259]
      },
      "population": 1589,
      "surface": 1058.25,
      "radius": 1.84
    },
    {
      "nom": "Bosc-Mesnil",
      "code": "76126",
      "codesPostaux": ["76680"],
      "centre": {
        "type": "Point",
        "coordinates": [1.3458, 49.6688]
      },
      "mairie": {
        "type": "Point",
        "coordinates": [1.3497, 49.6623]
      },
      "population": 329,
      "surface": 934.73,
      "radius": 1.72
    },
    {
      "nom": "Bosville",
      "code": "76128",
      "codesPostaux": ["76450"],
      "centre": {
        "type": "Point",
        "coordinates": [0.681, 49.7603]
      },
      "mairie": {
        "type": "Point",
        "coordinates": [0.6893, 49.7544]
      },
      "population": 585,
      "surface": 875.18,
      "radius": 1.67
    },
    {
      "nom": "Boudeville",
      "code": "76129",
      "codesPostaux": ["76560"],
      "centre": {
        "type": "Point",
        "coordinates": [0.8728, 49.7204]
      },
      "mairie": {
        "type": "Point",
        "coordinates": [0.8799, 49.7245]
      },
      "population": 220,
      "surface": 467.01,
      "radius": 1.22
    },
    {
      "nom": "Bouelles",
      "code": "76130",
      "codesPostaux": ["76270"],
      "centre": {
        "type": "Point",
        "coordinates": [1.4968, 49.7216]
      },
      "mairie": {
        "type": "Point",
        "coordinates": [1.4966, 49.7155]
      },
      "population": 264,
      "surface": 796.4,
      "radius": 1.59
    },
    {
      "nom": "Bourdainville",
      "code": "76132",
      "codesPostaux": ["76760"],
      "centre": {
        "type": "Point",
        "coordinates": [0.9385, 49.6751]
      },
      "mairie": {
        "type": "Point",
        "coordinates": [0.946, 49.6748]
      },
      "population": 476,
      "surface": 534.36,
      "radius": 1.3
    },
    {
      "nom": "Bourville",
      "code": "76134",
      "codesPostaux": ["76740"],
      "centre": {
        "type": "Point",
        "coordinates": [0.8222, 49.7955]
      },
      "mairie": {
        "type": "Point",
        "coordinates": [0.8219, 49.7948]
      },
      "population": 278,
      "surface": 663.46,
      "radius": 1.45
    },
    {
      "nom": "Bouville",
      "code": "76135",
      "codesPostaux": ["76360"],
      "centre": {
        "type": "Point",
        "coordinates": [0.8943, 49.5599]
      },
      "mairie": {
        "type": "Point",
        "coordinates": [0.8941, 49.5614]
      },
      "population": 1029,
      "surface": 1252.37,
      "radius": 2
    },
    {
      "nom": "Brachy",
      "code": "76136",
      "codesPostaux": ["76730"],
      "centre": {
        "type": "Point",
        "coordinates": [0.9487, 49.8168]
      },
      "mairie": {
        "type": "Point",
        "coordinates": [0.9498, 49.8142]
      },
      "population": 676,
      "surface": 1109.47,
      "radius": 1.88
    },
    {
      "nom": "Bracquetuit",
      "code": "76138",
      "codesPostaux": ["76850"],
      "centre": {
        "type": "Point",
        "coordinates": [1.171, 49.665]
      },
      "mairie": {
        "type": "Point",
        "coordinates": [1.1666, 49.6656]
      },
      "population": 333,
      "surface": 844.19,
      "radius": 1.64
    },
    {
      "nom": "Bradiancourt",
      "code": "76139",
      "codesPostaux": ["76680"],
      "centre": {
        "type": "Point",
        "coordinates": [1.386, 49.6592]
      },
      "mairie": {
        "type": "Point",
        "coordinates": [1.3888, 49.6562]
      },
      "population": 222,
      "surface": 409.51,
      "radius": 1.14
    },
    {
      "nom": "Brametot",
      "code": "76140",
      "codesPostaux": ["76740"],
      "centre": {
        "type": "Point",
        "coordinates": [0.8715, 49.7811]
      },
      "mairie": {
        "type": "Point",
        "coordinates": [0.8662, 49.7853]
      },
      "population": 198,
      "surface": 323.01,
      "radius": 1.01
    },
    {
      "nom": "Bréauté",
      "code": "76141",
      "codesPostaux": ["76110"],
      "centre": {
        "type": "Point",
        "coordinates": [0.402, 49.6252]
      },
      "mairie": {
        "type": "Point",
        "coordinates": [0.4009, 49.6286]
      },
      "population": 1363,
      "surface": 1389.73,
      "radius": 2.1
    },
    {
      "nom": "Brémontier-Merval",
      "code": "76142",
      "codesPostaux": ["76220"],
      "centre": {
        "type": "Point",
        "coordinates": [1.6195, 49.5141]
      },
      "mairie": {
        "type": "Point",
        "coordinates": [1.6096, 49.5062]
      },
      "population": 430,
      "surface": 1719.37,
      "radius": 2.34
    },
    {
      "nom": "Bretteville-du-Grand-Caux",
      "code": "76143",
      "codesPostaux": ["76110"],
      "centre": {
        "type": "Point",
        "coordinates": [0.3878, 49.6636]
      },
      "mairie": {
        "type": "Point",
        "coordinates": [0.3909, 49.6641]
      },
      "population": 1373,
      "surface": 1141.47,
      "radius": 1.91
    },
    {
      "nom": "Bretteville-Saint-Laurent",
      "code": "76144",
      "codesPostaux": ["76560"],
      "centre": {
        "type": "Point",
        "coordinates": [0.8667, 49.7682]
      },
      "mairie": {
        "type": "Point",
        "coordinates": [0.873, 49.7635]
      },
      "population": 164,
      "surface": 402.54,
      "radius": 1.13
    },
    {
      "nom": "Buchy",
      "code": "76146",
      "codesPostaux": ["76750"],
      "centre": {
        "type": "Point",
        "coordinates": [1.3394, 49.5859]
      },
      "mairie": {
        "type": "Point",
        "coordinates": [1.3581, 49.585]
      },
      "population": 2789,
      "surface": 2634.89,
      "radius": 2.9
    },
    {
      "nom": "Bully",
      "code": "76147",
      "codesPostaux": ["76270"],
      "centre": {
        "type": "Point",
        "coordinates": [1.3582, 49.7183]
      },
      "mairie": {
        "type": "Point",
        "coordinates": [1.3711, 49.7277]
      },
      "population": 868,
      "surface": 1960.18,
      "radius": 2.5
    },
    {
      "nom": "Bures-en-Bray",
      "code": "76148",
      "codesPostaux": ["76660"],
      "centre": {
        "type": "Point",
        "coordinates": [1.3356, 49.7777]
      },
      "mairie": {
        "type": "Point",
        "coordinates": [1.3356, 49.7802]
      },
      "population": 315,
      "surface": 1089.53,
      "radius": 1.86
    },
    {
      "nom": "Butot",
      "code": "76149",
      "codesPostaux": ["76890"],
      "centre": {
        "type": "Point",
        "coordinates": [1.024, 49.6123]
      },
      "mairie": {
        "type": "Point",
        "coordinates": [1.0291, 49.6153]
      },
      "population": 281,
      "surface": 551.42,
      "radius": 1.32
    },
    {
      "nom": "Butot-Vénesville",
      "code": "76732",
      "codesPostaux": ["76450"],
      "centre": {
        "type": "Point",
        "coordinates": [0.5866, 49.8147]
      },
      "mairie": {
        "type": "Point",
        "coordinates": [0.5864, 49.814]
      },
      "population": 237,
      "surface": 353.62,
      "radius": 1.06
    },
    {
      "nom": "Cailleville",
      "code": "76151",
      "codesPostaux": ["76460"],
      "centre": {
        "type": "Point",
        "coordinates": [0.7358, 49.8368]
      },
      "mairie": {
        "type": "Point",
        "coordinates": [0.733, 49.8311]
      },
      "population": 247,
      "surface": 506.16,
      "radius": 1.27
    },
    {
      "nom": "Cailly",
      "code": "76152",
      "codesPostaux": ["76690"],
      "centre": {
        "type": "Point",
        "coordinates": [1.2299, 49.5869]
      },
      "mairie": {
        "type": "Point",
        "coordinates": [1.2282, 49.5781]
      },
      "population": 736,
      "surface": 551.09,
      "radius": 1.32
    },
    {
      "nom": "Callengeville",
      "code": "76122",
      "codesPostaux": ["76270"],
      "centre": {
        "type": "Point",
        "coordinates": [1.5214, 49.8283]
      },
      "mairie": {
        "type": "Point",
        "coordinates": [1.5205, 49.812]
      },
      "population": 501,
      "surface": 1718.87,
      "radius": 2.34
    },
    {
      "nom": "Calleville-les-Deux-Églises",
      "code": "76153",
      "codesPostaux": ["76890"],
      "centre": {
        "type": "Point",
        "coordinates": [1.02, 49.7026]
      },
      "mairie": {
        "type": "Point",
        "coordinates": [1.027, 49.7049]
      },
      "population": 329,
      "surface": 562.16,
      "radius": 1.34
    },
    {
      "nom": "Campneuseville",
      "code": "76154",
      "codesPostaux": ["76340"],
      "centre": {
        "type": "Point",
        "coordinates": [1.6608, 49.8629]
      },
      "mairie": {
        "type": "Point",
        "coordinates": [1.6575, 49.8578]
      },
      "population": 443,
      "surface": 1242.66,
      "radius": 1.99
    },
    {
      "nom": "Canehan",
      "code": "76155",
      "codesPostaux": ["76260"],
      "centre": {
        "type": "Point",
        "coordinates": [1.3434, 49.9788]
      },
      "mairie": {
        "type": "Point",
        "coordinates": [1.3486, 49.9829]
      },
      "population": 380,
      "surface": 621.01,
      "radius": 1.41
    },
    {
      "nom": "Canouville",
      "code": "76156",
      "codesPostaux": ["76450"],
      "centre": {
        "type": "Point",
        "coordinates": [0.5945, 49.808]
      },
      "mairie": {
        "type": "Point",
        "coordinates": [0.6018, 49.807]
      },
      "population": 344,
      "surface": 450.21,
      "radius": 1.2
    },
    {
      "nom": "Canteleu",
      "code": "76157",
      "codesPostaux": ["76380"],
      "centre": {
        "type": "Point",
        "coordinates": [1.0173, 49.4323]
      },
      "mairie": {
        "type": "Point",
        "coordinates": [1.0361, 49.4512]
      },
      "population": 14420,
      "surface": 1761.38,
      "radius": 2.37
    },
    {
      "nom": "Canville-les-Deux-Églises",
      "code": "76158",
      "codesPostaux": ["76560"],
      "centre": {
        "type": "Point",
        "coordinates": [0.8354, 49.7729]
      },
      "mairie": {
        "type": "Point",
        "coordinates": [0.8411, 49.7704]
      },
      "population": 307,
      "surface": 582.41,
      "radius": 1.36
    },
    {
      "nom": "Cany-Barville",
      "code": "76159",
      "codesPostaux": ["76450"],
      "centre": {
        "type": "Point",
        "coordinates": [0.6314, 49.78]
      },
      "mairie": {
        "type": "Point",
        "coordinates": [0.6386, 49.7869]
      },
      "population": 2898,
      "surface": 1358.27,
      "radius": 2.08
    },
    {
      "nom": "Carville-la-Folletière",
      "code": "76160",
      "codesPostaux": ["76190"],
      "centre": {
        "type": "Point",
        "coordinates": [0.8181, 49.5599]
      },
      "mairie": {
        "type": "Point",
        "coordinates": [0.8181, 49.5579]
      },
      "population": 419,
      "surface": 434.73,
      "radius": 1.18
    },
    {
      "nom": "Carville-Pot-de-Fer",
      "code": "76161",
      "codesPostaux": ["76560"],
      "centre": {
        "type": "Point",
        "coordinates": [0.723, 49.7198]
      },
      "mairie": {
        "type": "Point",
        "coordinates": [0.7236, 49.7159]
      },
      "population": 103,
      "surface": 527.95,
      "radius": 1.3
    },
    {
      "nom": "Catenay",
      "code": "76163",
      "codesPostaux": ["76116"],
      "centre": {
        "type": "Point",
        "coordinates": [1.3279, 49.5102]
      },
      "mairie": {
        "type": "Point",
        "coordinates": [1.3209, 49.5137]
      },
      "population": 697,
      "surface": 587.65,
      "radius": 1.37
    },
    {
      "nom": "Caudebec-lès-Elbeuf",
      "code": "76165",
      "codesPostaux": ["76320"],
      "centre": {
        "type": "Point",
        "coordinates": [1.0227, 49.2821]
      },
      "mairie": {
        "type": "Point",
        "coordinates": [1.0181, 49.2832]
      },
      "population": 10414,
      "surface": 365.58,
      "radius": 1.08
    },
    {
      "nom": "Cauville-sur-Mer",
      "code": "76167",
      "codesPostaux": ["76930"],
      "centre": {
        "type": "Point",
        "coordinates": [0.1421, 49.594]
      },
      "mairie": {
        "type": "Point",
        "coordinates": [0.1307, 49.5954]
      },
      "population": 1679,
      "surface": 1129.59,
      "radius": 1.9
    },
    {
      "nom": "Cideville",
      "code": "76174",
      "codesPostaux": ["76570"],
      "centre": {
        "type": "Point",
        "coordinates": [0.8863, 49.6117]
      },
      "mairie": {
        "type": "Point",
        "coordinates": [0.8938, 49.6152]
      },
      "population": 423,
      "surface": 509.71,
      "radius": 1.27
    },
    {
      "nom": "Clais",
      "code": "76175",
      "codesPostaux": ["76660"],
      "centre": {
        "type": "Point",
        "coordinates": [1.4702, 49.8137]
      },
      "mairie": {
        "type": "Point",
        "coordinates": [1.4527, 49.8065]
      },
      "population": 263,
      "surface": 1251.59,
      "radius": 2
    },
    {
      "nom": "Clasville",
      "code": "76176",
      "codesPostaux": ["76450"],
      "centre": {
        "type": "Point",
        "coordinates": [0.6208, 49.7933]
      },
      "mairie": {
        "type": "Point",
        "coordinates": [0.6193, 49.7897]
      },
      "population": 348,
      "surface": 317.02,
      "radius": 1
    },
    {
      "nom": "Claville-Motteville",
      "code": "76177",
      "codesPostaux": ["76690"],
      "centre": {
        "type": "Point",
        "coordinates": [1.1838, 49.5848]
      },
      "mairie": {
        "type": "Point",
        "coordinates": [1.1855, 49.6007]
      },
      "population": 259,
      "surface": 929.27,
      "radius": 1.72
    },
    {
      "nom": "Cléon",
      "code": "76178",
      "codesPostaux": ["76410"],
      "centre": {
        "type": "Point",
        "coordinates": [1.0393, 49.3155]
      },
      "mairie": {
        "type": "Point",
        "coordinates": [1.0326, 49.3139]
      },
      "population": 4863,
      "surface": 651.3,
      "radius": 1.44
    },
    {
      "nom": "Clères",
      "code": "76179",
      "codesPostaux": ["76690"],
      "centre": {
        "type": "Point",
        "coordinates": [1.1007, 49.5902]
      },
      "mairie": {
        "type": "Point",
        "coordinates": [1.1105, 49.5998]
      },
      "population": 1380,
      "surface": 1144.89,
      "radius": 1.91
    },
    {
      "nom": "Cleuville",
      "code": "76180",
      "codesPostaux": ["76450"],
      "centre": {
        "type": "Point",
        "coordinates": [0.65, 49.7046]
      },
      "mairie": {
        "type": "Point",
        "coordinates": [0.6336, 49.7101]
      },
      "population": 188,
      "surface": 410.95,
      "radius": 1.14
    },
    {
      "nom": "Cléville",
      "code": "76181",
      "codesPostaux": ["76640"],
      "centre": {
        "type": "Point",
        "coordinates": [0.6184, 49.6202]
      },
      "mairie": {
        "type": "Point",
        "coordinates": [0.6167, 49.6212]
      },
      "population": 139,
      "surface": 543.22,
      "radius": 1.31
    },
    {
      "nom": "Cliponville",
      "code": "76182",
      "codesPostaux": ["76640"],
      "centre": {
        "type": "Point",
        "coordinates": [0.6599, 49.6708]
      },
      "mairie": {
        "type": "Point",
        "coordinates": [0.659, 49.6765]
      },
      "population": 247,
      "surface": 746.37,
      "radius": 1.54
    },
    {
      "nom": "Colleville",
      "code": "76183",
      "codesPostaux": ["76400"],
      "centre": {
        "type": "Point",
        "coordinates": [0.4595, 49.7538]
      },
      "mairie": {
        "type": "Point",
        "coordinates": [0.4491, 49.7495]
      },
      "population": 766,
      "surface": 739.64,
      "radius": 1.53
    },
    {
      "nom": "Colmesnil-Manneville",
      "code": "76184",
      "codesPostaux": ["76550"],
      "centre": {
        "type": "Point",
        "coordinates": [1.0289, 49.8473]
      },
      "mairie": {
        "type": "Point",
        "coordinates": [1.034, 49.8488]
      },
      "population": 107,
      "surface": 196.03,
      "radius": 0.79
    },
    {
      "nom": "Compainville",
      "code": "76185",
      "codesPostaux": ["76440"],
      "centre": {
        "type": "Point",
        "coordinates": [1.5636, 49.6569]
      },
      "mairie": {
        "type": "Point",
        "coordinates": [1.5611, 49.6636]
      },
      "population": 166,
      "surface": 643.41,
      "radius": 1.43
    },
    {
      "nom": "Conteville",
      "code": "76186",
      "codesPostaux": ["76390"],
      "centre": {
        "type": "Point",
        "coordinates": [1.6389, 49.6962]
      },
      "mairie": {
        "type": "Point",
        "coordinates": [1.6371, 49.6928]
      },
      "population": 504,
      "surface": 1377.65,
      "radius": 2.09
    },
    {
      "nom": "Contremoulins",
      "code": "76187",
      "codesPostaux": ["76400"],
      "centre": {
        "type": "Point",
        "coordinates": [0.4378, 49.7256]
      },
      "mairie": {
        "type": "Point",
        "coordinates": [0.4295, 49.7271]
      },
      "population": 167,
      "surface": 437.84,
      "radius": 1.18
    },
    {
      "nom": "Cottévrard",
      "code": "76188",
      "codesPostaux": ["76850"],
      "centre": {
        "type": "Point",
        "coordinates": [1.2245, 49.6385]
      },
      "mairie": {
        "type": "Point",
        "coordinates": [1.222, 49.632]
      },
      "population": 474,
      "surface": 788.65,
      "radius": 1.58
    },
    {
      "nom": "Crasville-la-Mallet",
      "code": "76189",
      "codesPostaux": ["76450"],
      "centre": {
        "type": "Point",
        "coordinates": [0.7169, 49.8044]
      },
      "mairie": {
        "type": "Point",
        "coordinates": [0.7124, 49.8047]
      },
      "population": 189,
      "surface": 321.33,
      "radius": 1.01
    },
    {
      "nom": "Crasville-la-Rocquefort",
      "code": "76190",
      "codesPostaux": ["76740"],
      "centre": {
        "type": "Point",
        "coordinates": [0.8752, 49.8024]
      },
      "mairie": {
        "type": "Point",
        "coordinates": [0.8809, 49.8068]
      },
      "population": 207,
      "surface": 530.04,
      "radius": 1.3
    },
    {
      "nom": "Criel-sur-Mer",
      "code": "76192",
      "codesPostaux": ["76910"],
      "centre": {
        "type": "Point",
        "coordinates": [1.3215, 50.0221]
      },
      "mairie": {
        "type": "Point",
        "coordinates": [1.316, 50.0174]
      },
      "population": 2592,
      "surface": 2091.21,
      "radius": 2.58
    },
    {
      "nom": "Criquebeuf-en-Caux",
      "code": "76194",
      "codesPostaux": ["76111"],
      "centre": {
        "type": "Point",
        "coordinates": [0.3332, 49.7401]
      },
      "mairie": {
        "type": "Point",
        "coordinates": [0.3307, 49.7391]
      },
      "population": 404,
      "surface": 212.49,
      "radius": 0.82
    },
    {
      "nom": "Criquetot-l'Esneval",
      "code": "76196",
      "codesPostaux": ["76280"],
      "centre": {
        "type": "Point",
        "coordinates": [0.2689, 49.6344]
      },
      "mairie": {
        "type": "Point",
        "coordinates": [0.2659, 49.6436]
      },
      "population": 2578,
      "surface": 1364.54,
      "radius": 2.08
    },
    {
      "nom": "Criquetot-le-Mauconduit",
      "code": "76195",
      "codesPostaux": ["76540"],
      "centre": {
        "type": "Point",
        "coordinates": [0.5623, 49.7901]
      },
      "mairie": {
        "type": "Point",
        "coordinates": [0.5604, 49.7934]
      },
      "population": 195,
      "surface": 415.38,
      "radius": 1.15
    },
    {
      "nom": "Criquetot-sur-Longueville",
      "code": "76197",
      "codesPostaux": ["76590"],
      "centre": {
        "type": "Point",
        "coordinates": [1.0752, 49.782]
      },
      "mairie": {
        "type": "Point",
        "coordinates": [1.0774, 49.7779]
      },
      "population": 219,
      "surface": 738.79,
      "radius": 1.53
    },
    {
      "nom": "Criquetot-sur-Ouville",
      "code": "76198",
      "codesPostaux": ["76760"],
      "centre": {
        "type": "Point",
        "coordinates": [0.8484, 49.6712]
      },
      "mairie": {
        "type": "Point",
        "coordinates": [0.8472, 49.6785]
      },
      "population": 803,
      "surface": 587.3,
      "radius": 1.37
    },
    {
      "nom": "Criquiers",
      "code": "76199",
      "codesPostaux": ["76390"],
      "centre": {
        "type": "Point",
        "coordinates": [1.7052, 49.6758]
      },
      "mairie": {
        "type": "Point",
        "coordinates": [1.7086, 49.675]
      },
      "population": 714,
      "surface": 2278.93,
      "radius": 2.69
    },
    {
      "nom": "Critot",
      "code": "76200",
      "codesPostaux": ["76680"],
      "centre": {
        "type": "Point",
        "coordinates": [1.2445, 49.6127]
      },
      "mairie": {
        "type": "Point",
        "coordinates": [1.2518, 49.6101]
      },
      "population": 528,
      "surface": 704.22,
      "radius": 1.5
    },
    {
      "nom": "Croisy-sur-Andelle",
      "code": "76201",
      "codesPostaux": ["76780"],
      "centre": {
        "type": "Point",
        "coordinates": [1.4085, 49.46]
      },
      "mairie": {
        "type": "Point",
        "coordinates": [1.3937, 49.4597]
      },
      "population": 517,
      "surface": 374.57,
      "radius": 1.09
    },
    {
      "nom": "Croix-Mare",
      "code": "76203",
      "codesPostaux": ["76190"],
      "centre": {
        "type": "Point",
        "coordinates": [0.8341, 49.5996]
      },
      "mairie": {
        "type": "Point",
        "coordinates": [0.8507, 49.6003]
      },
      "population": 713,
      "surface": 869.57,
      "radius": 1.66
    },
    {
      "nom": "Croixdalle",
      "code": "76202",
      "codesPostaux": ["76660"],
      "centre": {
        "type": "Point",
        "coordinates": [1.3731, 49.8021]
      },
      "mairie": {
        "type": "Point",
        "coordinates": [1.3637, 49.8147]
      },
      "population": 337,
      "surface": 1116.4,
      "radius": 1.89
    },
    {
      "nom": "Cropus",
      "code": "76204",
      "codesPostaux": ["76720"],
      "centre": {
        "type": "Point",
        "coordinates": [1.1474, 49.7339]
      },
      "mairie": {
        "type": "Point",
        "coordinates": [1.1448, 49.7399]
      },
      "population": 251,
      "surface": 486.77,
      "radius": 1.24
    },
    {
      "nom": "Crosville-sur-Scie",
      "code": "76205",
      "codesPostaux": ["76590"],
      "centre": {
        "type": "Point",
        "coordinates": [1.0835, 49.8199]
      },
      "mairie": {
        "type": "Point",
        "coordinates": [1.0909, 49.8241]
      },
      "population": 233,
      "surface": 356.19,
      "radius": 1.06
    },
    {
      "nom": "Cuverville",
      "code": "76206",
      "codesPostaux": ["76280"],
      "centre": {
        "type": "Point",
        "coordinates": [0.2666, 49.6666]
      },
      "mairie": {
        "type": "Point",
        "coordinates": [0.2633, 49.6644]
      },
      "population": 341,
      "surface": 453.4,
      "radius": 1.2
    },
    {
      "nom": "Cuverville-sur-Yères",
      "code": "76207",
      "codesPostaux": ["76260"],
      "centre": {
        "type": "Point",
        "coordinates": [1.3893, 49.9516]
      },
      "mairie": {
        "type": "Point",
        "coordinates": [1.3992, 49.9599]
      },
      "population": 193,
      "surface": 1112.64,
      "radius": 1.88
    },
    {
      "nom": "Cuy-Saint-Fiacre",
      "code": "76208",
      "codesPostaux": ["76220"],
      "centre": {
        "type": "Point",
        "coordinates": [1.6865, 49.5113]
      },
      "mairie": {
        "type": "Point",
        "coordinates": [1.6974, 49.5139]
      },
      "population": 631,
      "surface": 965.91,
      "radius": 1.75
    },
    {
      "nom": "Dampierre-en-Bray",
      "code": "76209",
      "codesPostaux": ["76220"],
      "centre": {
        "type": "Point",
        "coordinates": [1.6618, 49.5341]
      },
      "mairie": {
        "type": "Point",
        "coordinates": [1.6582, 49.5325]
      },
      "population": 448,
      "surface": 1285.19,
      "radius": 2.02
    },
    {
      "nom": "Dampierre-Saint-Nicolas",
      "code": "76210",
      "codesPostaux": ["76510"],
      "centre": {
        "type": "Point",
        "coordinates": [1.2053, 49.8556]
      },
      "mairie": {
        "type": "Point",
        "coordinates": [1.2, 49.8596]
      },
      "population": 447,
      "surface": 393.87,
      "radius": 1.12
    },
    {
      "nom": "Dancourt",
      "code": "76211",
      "codesPostaux": ["76340"],
      "centre": {
        "type": "Point",
        "coordinates": [1.5432, 49.8998]
      },
      "mairie": {
        "type": "Point",
        "coordinates": [1.5468, 49.893]
      },
      "population": 234,
      "surface": 1832.38,
      "radius": 2.42
    },
    {
      "nom": "Darnétal",
      "code": "76212",
      "codesPostaux": ["76160"],
      "centre": {
        "type": "Point",
        "coordinates": [1.1534, 49.4468]
      },
      "mairie": {
        "type": "Point",
        "coordinates": [1.1449, 49.4403]
      },
      "population": 9652,
      "surface": 489.69,
      "radius": 1.25
    },
    {
      "nom": "Daubeuf-Serville",
      "code": "76213",
      "codesPostaux": ["76110"],
      "centre": {
        "type": "Point",
        "coordinates": [0.4854, 49.6951]
      },
      "mairie": {
        "type": "Point",
        "coordinates": [0.4769, 49.6954]
      },
      "population": 396,
      "surface": 777.69,
      "radius": 1.57
    },
    {
      "nom": "Dénestanville",
      "code": "76214",
      "codesPostaux": ["76590"],
      "centre": {
        "type": "Point",
        "coordinates": [1.0915, 49.808]
      },
      "mairie": {
        "type": "Point",
        "coordinates": [1.097, 49.8115]
      },
      "population": 283,
      "surface": 263.69,
      "radius": 0.92
    },
    {
      "nom": "Déville-lès-Rouen",
      "code": "76216",
      "codesPostaux": ["76250"],
      "centre": {
        "type": "Point",
        "coordinates": [1.0495, 49.4673]
      },
      "mairie": {
        "type": "Point",
        "coordinates": [1.0496, 49.4697]
      },
      "population": 10690,
      "surface": 316.2,
      "radius": 1
    },
    {
      "nom": "Dieppe",
      "code": "76217",
      "codesPostaux": ["76200", "76370"],
      "centre": {
        "type": "Point",
        "coordinates": [1.0838, 49.9199]
      },
      "mairie": {
        "type": "Point",
        "coordinates": [1.0776, 49.9228]
      },
      "population": 28599,
      "surface": 1181.75,
      "radius": 1.94
    },
    {
      "nom": "Doudeauville",
      "code": "76218",
      "codesPostaux": ["76220"],
      "centre": {
        "type": "Point",
        "coordinates": [1.6978, 49.5671]
      },
      "mairie": {
        "type": "Point",
        "coordinates": [1.7042, 49.5704]
      },
      "population": 110,
      "surface": 396.97,
      "radius": 1.12
    },
    {
      "nom": "Doudeville",
      "code": "76219",
      "codesPostaux": ["76560"],
      "centre": {
        "type": "Point",
        "coordinates": [0.7843, 49.7273]
      },
      "mairie": {
        "type": "Point",
        "coordinates": [0.7853, 49.7215]
      },
      "population": 2440,
      "surface": 1453.04,
      "radius": 2.15
    },
    {
      "nom": "Douvrend",
      "code": "76220",
      "codesPostaux": ["76630"],
      "centre": {
        "type": "Point",
        "coordinates": [1.317, 49.8709]
      },
      "mairie": {
        "type": "Point",
        "coordinates": [1.3223, 49.868]
      },
      "population": 511,
      "surface": 1799.12,
      "radius": 2.39
    },
    {
      "nom": "Drosay",
      "code": "76221",
      "codesPostaux": ["76460"],
      "centre": {
        "type": "Point",
        "coordinates": [0.7366, 49.7945]
      },
      "mairie": {
        "type": "Point",
        "coordinates": [0.743, 49.7937]
      },
      "population": 192,
      "surface": 644.6,
      "radius": 1.43
    },
    {
      "nom": "Duclair",
      "code": "76222",
      "codesPostaux": ["76480"],
      "centre": {
        "type": "Point",
        "coordinates": [0.8701, 49.4859]
      },
      "mairie": {
        "type": "Point",
        "coordinates": [0.8755, 49.4823]
      },
      "population": 4017,
      "surface": 1010.73,
      "radius": 1.79
    },
    {
      "nom": "Écalles-Alix",
      "code": "76223",
      "codesPostaux": ["76190"],
      "centre": {
        "type": "Point",
        "coordinates": [0.8102, 49.6172]
      },
      "mairie": {
        "type": "Point",
        "coordinates": [0.8254, 49.6152]
      },
      "population": 547,
      "surface": 751.36,
      "radius": 1.55
    },
    {
      "nom": "Écrainville",
      "code": "76224",
      "codesPostaux": ["76110"],
      "centre": {
        "type": "Point",
        "coordinates": [0.3122, 49.6473]
      },
      "mairie": {
        "type": "Point",
        "coordinates": [0.3249, 49.6499]
      },
      "population": 985,
      "surface": 1296.12,
      "radius": 2.03
    },
    {
      "nom": "Écretteville-lès-Baons",
      "code": "76225",
      "codesPostaux": ["76190"],
      "centre": {
        "type": "Point",
        "coordinates": [0.6713, 49.6299]
      },
      "mairie": {
        "type": "Point",
        "coordinates": [0.6825, 49.6266]
      },
      "population": 352,
      "surface": 937.13,
      "radius": 1.73
    },
    {
      "nom": "Écretteville-sur-Mer",
      "code": "76226",
      "codesPostaux": ["76540"],
      "centre": {
        "type": "Point",
        "coordinates": [0.4851, 49.7917]
      },
      "mairie": {
        "type": "Point",
        "coordinates": [0.4866, 49.7953]
      },
      "population": 147,
      "surface": 190.12,
      "radius": 0.78
    },
    {
      "nom": "Ectot-l'Auber",
      "code": "76227",
      "codesPostaux": ["76760"],
      "centre": {
        "type": "Point",
        "coordinates": [0.9287, 49.6539]
      },
      "mairie": {
        "type": "Point",
        "coordinates": [0.929, 49.6497]
      },
      "population": 706,
      "surface": 502.18,
      "radius": 1.26
    },
    {
      "nom": "Ectot-lès-Baons",
      "code": "76228",
      "codesPostaux": ["76970"],
      "centre": {
        "type": "Point",
        "coordinates": [0.8072, 49.6443]
      },
      "mairie": {
        "type": "Point",
        "coordinates": [0.8053, 49.6406]
      },
      "population": 398,
      "surface": 503.57,
      "radius": 1.27
    },
    {
      "nom": "Elbeuf",
      "code": "76231",
      "codesPostaux": ["76500"],
      "centre": {
        "type": "Point",
        "coordinates": [0.9974, 49.2773]
      },
      "mairie": {
        "type": "Point",
        "coordinates": [1.0071, 49.2921]
      },
      "population": 15774,
      "surface": 1631.32,
      "radius": 2.28
    },
    {
      "nom": "Elbeuf-en-Bray",
      "code": "76229",
      "codesPostaux": ["76220"],
      "centre": {
        "type": "Point",
        "coordinates": [1.6582, 49.4946]
      },
      "mairie": {
        "type": "Point",
        "coordinates": [1.6426, 49.4881]
      },
      "population": 393,
      "surface": 1088.04,
      "radius": 1.86
    },
    {
      "nom": "Elbeuf-sur-Andelle",
      "code": "76230",
      "codesPostaux": ["76780"],
      "centre": {
        "type": "Point",
        "coordinates": [1.3824, 49.4788]
      },
      "mairie": {
        "type": "Point",
        "coordinates": [1.3985, 49.468]
      },
      "population": 446,
      "surface": 597.96,
      "radius": 1.38
    },
    {
      "nom": "Életot",
      "code": "76232",
      "codesPostaux": ["76540"],
      "centre": {
        "type": "Point",
        "coordinates": [0.4566, 49.792]
      },
      "mairie": {
        "type": "Point",
        "coordinates": [0.452, 49.7878]
      },
      "population": 630,
      "surface": 690.9,
      "radius": 1.48
    },
    {
      "nom": "Ellecourt",
      "code": "76233",
      "codesPostaux": ["76390"],
      "centre": {
        "type": "Point",
        "coordinates": [1.7273, 49.8017]
      },
      "mairie": {
        "type": "Point",
        "coordinates": [1.714, 49.798]
      },
      "population": 156,
      "surface": 440.16,
      "radius": 1.18
    },
    {
      "nom": "Émanville",
      "code": "76234",
      "codesPostaux": ["76570"],
      "centre": {
        "type": "Point",
        "coordinates": [0.9583, 49.6218]
      },
      "mairie": {
        "type": "Point",
        "coordinates": [0.9599, 49.6207]
      },
      "population": 768,
      "surface": 640.53,
      "radius": 1.43
    },
    {
      "nom": "Envermeu",
      "code": "76235",
      "codesPostaux": ["76630"],
      "centre": {
        "type": "Point",
        "coordinates": [1.2634, 49.898]
      },
      "mairie": {
        "type": "Point",
        "coordinates": [1.265, 49.897]
      },
      "population": 1973,
      "surface": 1442.47,
      "radius": 2.14
    },
    {
      "nom": "Envronville",
      "code": "76236",
      "codesPostaux": ["76640"],
      "centre": {
        "type": "Point",
        "coordinates": [0.6694, 49.6586]
      },
      "mairie": {
        "type": "Point",
        "coordinates": [0.6701, 49.6603]
      },
      "population": 361,
      "surface": 622.06,
      "radius": 1.41
    },
    {
      "nom": "Épinay-sur-Duclair",
      "code": "76237",
      "codesPostaux": ["76480"],
      "centre": {
        "type": "Point",
        "coordinates": [0.8322, 49.5253]
      },
      "mairie": {
        "type": "Point",
        "coordinates": [0.8349, 49.5243]
      },
      "population": 516,
      "surface": 664.19,
      "radius": 1.45
    },
    {
      "nom": "Épouville",
      "code": "76238",
      "codesPostaux": ["76133"],
      "centre": {
        "type": "Point",
        "coordinates": [0.2286, 49.5654]
      },
      "mairie": {
        "type": "Point",
        "coordinates": [0.2265, 49.5653]
      },
      "population": 2624,
      "surface": 559.88,
      "radius": 1.33
    },
    {
      "nom": "Épretot",
      "code": "76239",
      "codesPostaux": ["76430"],
      "centre": {
        "type": "Point",
        "coordinates": [0.3139, 49.5378]
      },
      "mairie": {
        "type": "Point",
        "coordinates": [0.3138, 49.5398]
      },
      "population": 783,
      "surface": 688.12,
      "radius": 1.48
    },
    {
      "nom": "Épreville",
      "code": "76240",
      "codesPostaux": ["76400"],
      "centre": {
        "type": "Point",
        "coordinates": [0.3668, 49.7051]
      },
      "mairie": {
        "type": "Point",
        "coordinates": [0.3669, 49.7077]
      },
      "population": 1068,
      "surface": 648.56,
      "radius": 1.44
    },
    {
      "nom": "Ermenouville",
      "code": "76241",
      "codesPostaux": ["76740"],
      "centre": {
        "type": "Point",
        "coordinates": [0.7843, 49.8041]
      },
      "mairie": {
        "type": "Point",
        "coordinates": [0.7868, 49.7975]
      },
      "population": 128,
      "surface": 370.95,
      "radius": 1.09
    },
    {
      "nom": "Ernemont-la-Villette",
      "code": "76242",
      "codesPostaux": ["76220"],
      "centre": {
        "type": "Point",
        "coordinates": [1.7111, 49.4543]
      },
      "mairie": {
        "type": "Point",
        "coordinates": [1.6972, 49.4609]
      },
      "population": 210,
      "surface": 751.48,
      "radius": 1.55
    },
    {
      "nom": "Ernemont-sur-Buchy",
      "code": "76243",
      "codesPostaux": ["76750"],
      "centre": {
        "type": "Point",
        "coordinates": [1.3607, 49.5421]
      },
      "mairie": {
        "type": "Point",
        "coordinates": [1.3602, 49.5376]
      },
      "population": 293,
      "surface": 406.38,
      "radius": 1.14
    },
    {
      "nom": "Esclavelles",
      "code": "76244",
      "codesPostaux": ["76270"],
      "centre": {
        "type": "Point",
        "coordinates": [1.3882, 49.7042]
      },
      "mairie": {
        "type": "Point",
        "coordinates": [1.3879, 49.707]
      },
      "population": 397,
      "surface": 1012.39,
      "radius": 1.8
    },
    {
      "nom": "Eslettes",
      "code": "76245",
      "codesPostaux": ["76710"],
      "centre": {
        "type": "Point",
        "coordinates": [1.0481, 49.5466]
      },
      "mairie": {
        "type": "Point",
        "coordinates": [1.0477, 49.5449]
      },
      "population": 1630,
      "surface": 504.97,
      "radius": 1.27
    },
    {
      "nom": "Esteville",
      "code": "76247",
      "codesPostaux": ["76690"],
      "centre": {
        "type": "Point",
        "coordinates": [1.2167, 49.6085]
      },
      "mairie": {
        "type": "Point",
        "coordinates": [1.2237, 49.6052]
      },
      "population": 538,
      "surface": 530.71,
      "radius": 1.3
    },
    {
      "nom": "Étaimpuis",
      "code": "76249",
      "codesPostaux": ["76850"],
      "centre": {
        "type": "Point",
        "coordinates": [1.1422, 49.6379]
      },
      "mairie": {
        "type": "Point",
        "coordinates": [1.1595, 49.6418]
      },
      "population": 861,
      "surface": 1050.5,
      "radius": 1.83
    },
    {
      "nom": "Étainhus",
      "code": "76250",
      "codesPostaux": ["76430"],
      "centre": {
        "type": "Point",
        "coordinates": [0.3062, 49.5665]
      },
      "mairie": {
        "type": "Point",
        "coordinates": [0.3122, 49.5662]
      },
      "population": 1209,
      "surface": 833.03,
      "radius": 1.63
    },
    {
      "nom": "Étalleville",
      "code": "76251",
      "codesPostaux": ["76560"],
      "centre": {
        "type": "Point",
        "coordinates": [0.826, 49.7322]
      },
      "mairie": {
        "type": "Point",
        "coordinates": [0.8248, 49.7369]
      },
      "population": 428,
      "surface": 360.88,
      "radius": 1.07
    },
    {
      "nom": "Étalondes",
      "code": "76252",
      "codesPostaux": ["76260"],
      "centre": {
        "type": "Point",
        "coordinates": [1.3902, 50.0325]
      },
      "mairie": {
        "type": "Point",
        "coordinates": [1.3861, 50.0298]
      },
      "population": 1071,
      "surface": 460.14,
      "radius": 1.21
    },
    {
      "nom": "Étoutteville",
      "code": "76253",
      "codesPostaux": ["76190"],
      "centre": {
        "type": "Point",
        "coordinates": [0.7825, 49.6704]
      },
      "mairie": {
        "type": "Point",
        "coordinates": [0.7836, 49.6761]
      },
      "population": 837,
      "surface": 1171.12,
      "radius": 1.93
    },
    {
      "nom": "Étretat",
      "code": "76254",
      "codesPostaux": ["76790"],
      "centre": {
        "type": "Point",
        "coordinates": [0.2038, 49.7048]
      },
      "mairie": {
        "type": "Point",
        "coordinates": [0.2055, 49.7076]
      },
      "population": 1167,
      "surface": 412.69,
      "radius": 1.15
    },
    {
      "nom": "Eu",
      "code": "76255",
      "codesPostaux": ["76260"],
      "centre": {
        "type": "Point",
        "coordinates": [1.4303, 50.042]
      },
      "mairie": {
        "type": "Point",
        "coordinates": [1.4171, 50.0493]
      },
      "population": 6541,
      "surface": 1791.85,
      "radius": 2.39
    },
    {
      "nom": "Fallencourt",
      "code": "76257",
      "codesPostaux": ["76340"],
      "centre": {
        "type": "Point",
        "coordinates": [1.5652, 49.8673]
      },
      "mairie": {
        "type": "Point",
        "coordinates": [1.5665, 49.8687]
      },
      "population": 180,
      "surface": 1210.24,
      "radius": 1.96
    },
    {
      "nom": "Fécamp",
      "code": "76259",
      "codesPostaux": ["76400"],
      "centre": {
        "type": "Point",
        "coordinates": [0.4012, 49.7479]
      },
      "mairie": {
        "type": "Point",
        "coordinates": [0.3808, 49.7556]
      },
      "population": 17961,
      "surface": 1502.28,
      "radius": 2.19
    },
    {
      "nom": "Ferrières-en-Bray",
      "code": "76260",
      "codesPostaux": ["76220"],
      "centre": {
        "type": "Point",
        "coordinates": [1.758, 49.4863]
      },
      "mairie": {
        "type": "Point",
        "coordinates": [1.7459, 49.4824]
      },
      "population": 1675,
      "surface": 1585.89,
      "radius": 2.25
    },
    {
      "nom": "Fesques",
      "code": "76262",
      "codesPostaux": ["76270"],
      "centre": {
        "type": "Point",
        "coordinates": [1.4912, 49.7894]
      },
      "mairie": {
        "type": "Point",
        "coordinates": [1.4778, 49.7902]
      },
      "population": 145,
      "surface": 883.63,
      "radius": 1.68
    },
    {
      "nom": "Flamanville",
      "code": "76264",
      "codesPostaux": ["76970"],
      "centre": {
        "type": "Point",
        "coordinates": [0.8313, 49.6304]
      },
      "mairie": {
        "type": "Point",
        "coordinates": [0.8385, 49.6346]
      },
      "population": 466,
      "surface": 452.43,
      "radius": 1.2
    },
    {
      "nom": "Flamets-Frétils",
      "code": "76265",
      "codesPostaux": ["76270"],
      "centre": {
        "type": "Point",
        "coordinates": [1.5792, 49.7288]
      },
      "mairie": {
        "type": "Point",
        "coordinates": [1.5787, 49.7331]
      },
      "population": 160,
      "surface": 1228.68,
      "radius": 1.98
    },
    {
      "nom": "Flocques",
      "code": "76266",
      "codesPostaux": ["76260"],
      "centre": {
        "type": "Point",
        "coordinates": [1.3589, 50.0345]
      },
      "mairie": {
        "type": "Point",
        "coordinates": [1.3629, 50.0372]
      },
      "population": 720,
      "surface": 495.6,
      "radius": 1.26
    },
    {
      "nom": "Fongueusemare",
      "code": "76268",
      "codesPostaux": ["76280"],
      "centre": {
        "type": "Point",
        "coordinates": [0.3081, 49.6726]
      },
      "mairie": {
        "type": "Point",
        "coordinates": [0.3056, 49.6779]
      },
      "population": 176,
      "surface": 1196.29,
      "radius": 1.95
    },
    {
      "nom": "Fontaine-en-Bray",
      "code": "76269",
      "codesPostaux": ["76440"],
      "centre": {
        "type": "Point",
        "coordinates": [1.4226, 49.6777]
      },
      "mairie": {
        "type": "Point",
        "coordinates": [1.4249, 49.6751]
      },
      "population": 167,
      "surface": 604.26,
      "radius": 1.39
    },
    {
      "nom": "Fontaine-la-Mallet",
      "code": "76270",
      "codesPostaux": ["76290"],
      "centre": {
        "type": "Point",
        "coordinates": [0.1399, 49.5415]
      },
      "mairie": {
        "type": "Point",
        "coordinates": [0.1466, 49.5341]
      },
      "population": 2713,
      "surface": 637.51,
      "radius": 1.42
    },
    {
      "nom": "Fontaine-le-Bourg",
      "code": "76271",
      "codesPostaux": ["76690"],
      "centre": {
        "type": "Point",
        "coordinates": [1.1489, 49.5724]
      },
      "mairie": {
        "type": "Point",
        "coordinates": [1.163, 49.5634]
      },
      "population": 1883,
      "surface": 1224.14,
      "radius": 1.97
    },
    {
      "nom": "Fontaine-le-Dun",
      "code": "76272",
      "codesPostaux": ["76740"],
      "centre": {
        "type": "Point",
        "coordinates": [0.8467, 49.8126]
      },
      "mairie": {
        "type": "Point",
        "coordinates": [0.8499, 49.813]
      },
      "population": 876,
      "surface": 540.68,
      "radius": 1.31
    },
    {
      "nom": "Fontaine-sous-Préaux",
      "code": "76273",
      "codesPostaux": ["76160"],
      "centre": {
        "type": "Point",
        "coordinates": [1.168, 49.4874]
      },
      "mairie": {
        "type": "Point",
        "coordinates": [1.1667, 49.4818]
      },
      "population": 562,
      "surface": 355.73,
      "radius": 1.06
    },
    {
      "nom": "Fontenay",
      "code": "76275",
      "codesPostaux": ["76290"],
      "centre": {
        "type": "Point",
        "coordinates": [0.1761, 49.5697]
      },
      "mairie": {
        "type": "Point",
        "coordinates": [0.1836, 49.5623]
      },
      "population": 1783,
      "surface": 560.77,
      "radius": 1.34
    },
    {
      "nom": "Forges-les-Eaux",
      "code": "76276",
      "codesPostaux": ["76440"],
      "centre": {
        "type": "Point",
        "coordinates": [1.5644, 49.6104]
      },
      "mairie": {
        "type": "Point",
        "coordinates": [1.546, 49.6131]
      },
      "population": 3653,
      "surface": 1544.83,
      "radius": 2.22
    },
    {
      "nom": "Foucarmont",
      "code": "76278",
      "codesPostaux": ["76340"],
      "centre": {
        "type": "Point",
        "coordinates": [1.5595, 49.8474]
      },
      "mairie": {
        "type": "Point",
        "coordinates": [1.5686, 49.8478]
      },
      "population": 804,
      "surface": 731.82,
      "radius": 1.53
    },
    {
      "nom": "Foucart",
      "code": "76279",
      "codesPostaux": ["76640"],
      "centre": {
        "type": "Point",
        "coordinates": [0.5907, 49.6175]
      },
      "mairie": {
        "type": "Point",
        "coordinates": [0.5929, 49.6142]
      },
      "population": 339,
      "surface": 425.88,
      "radius": 1.16
    },
    {
      "nom": "Franqueville-Saint-Pierre",
      "code": "76475",
      "codesPostaux": ["76520"],
      "centre": {
        "type": "Point",
        "coordinates": [1.1861, 49.4038]
      },
      "mairie": {
        "type": "Point",
        "coordinates": [1.1727, 49.4029]
      },
      "population": 6081,
      "surface": 855.9,
      "radius": 1.65
    },
    {
      "nom": "Fréauville",
      "code": "76280",
      "codesPostaux": ["76660"],
      "centre": {
        "type": "Point",
        "coordinates": [1.4135, 49.8264]
      },
      "mairie": {
        "type": "Point",
        "coordinates": [1.4152, 49.8255]
      },
      "population": 144,
      "surface": 534.08,
      "radius": 1.3
    },
    {
      "nom": "Freneuse",
      "code": "76282",
      "codesPostaux": ["76410"],
      "centre": {
        "type": "Point",
        "coordinates": [1.0681, 49.308]
      },
      "mairie": {
        "type": "Point",
        "coordinates": [1.0707, 49.31]
      },
      "population": 993,
      "surface": 325.61,
      "radius": 1.02
    },
    {
      "nom": "Fresles",
      "code": "76283",
      "codesPostaux": ["76270"],
      "centre": {
        "type": "Point",
        "coordinates": [1.3441, 49.7476]
      },
      "mairie": {
        "type": "Point",
        "coordinates": [1.3494, 49.7431]
      },
      "population": 229,
      "surface": 1091.04,
      "radius": 1.86
    },
    {
      "nom": "Fresnay-le-Long",
      "code": "76284",
      "codesPostaux": ["76850"],
      "centre": {
        "type": "Point",
        "coordinates": [1.0919, 49.6518]
      },
      "mairie": {
        "type": "Point",
        "coordinates": [1.0936, 49.6496]
      },
      "population": 333,
      "surface": 498.8,
      "radius": 1.26
    },
    {
      "nom": "Fresne-le-Plan",
      "code": "76285",
      "codesPostaux": ["76520"],
      "centre": {
        "type": "Point",
        "coordinates": [1.2931, 49.4115]
      },
      "mairie": {
        "type": "Point",
        "coordinates": [1.2959, 49.4126]
      },
      "population": 547,
      "surface": 696.57,
      "radius": 1.49
    },
    {
      "nom": "Fresnoy-Folny",
      "code": "76286",
      "codesPostaux": ["76660"],
      "centre": {
        "type": "Point",
        "coordinates": [1.4344, 49.8935]
      },
      "mairie": {
        "type": "Point",
        "coordinates": [1.4312, 49.8875]
      },
      "population": 689,
      "surface": 1315.3,
      "radius": 2.05
    },
    {
      "nom": "Fresquiennes",
      "code": "76287",
      "codesPostaux": ["76570"],
      "centre": {
        "type": "Point",
        "coordinates": [1.0151, 49.5642]
      },
      "mairie": {
        "type": "Point",
        "coordinates": [1.0055, 49.5643]
      },
      "population": 1079,
      "surface": 1342.77,
      "radius": 2.07
    },
    {
      "nom": "Freulleville",
      "code": "76288",
      "codesPostaux": ["76510"],
      "centre": {
        "type": "Point",
        "coordinates": [1.2193, 49.8173]
      },
      "mairie": {
        "type": "Point",
        "coordinates": [1.2408, 49.8234]
      },
      "population": 378,
      "surface": 1117.5,
      "radius": 1.89
    },
    {
      "nom": "Frichemesnil",
      "code": "76290",
      "codesPostaux": ["76690"],
      "centre": {
        "type": "Point",
        "coordinates": [1.1325, 49.621]
      },
      "mairie": {
        "type": "Point",
        "coordinates": [1.1387, 49.6223]
      },
      "population": 392,
      "surface": 813.7,
      "radius": 1.61
    },
    {
      "nom": "Froberville",
      "code": "76291",
      "codesPostaux": ["76400"],
      "centre": {
        "type": "Point",
        "coordinates": [0.3346, 49.7178]
      },
      "mairie": {
        "type": "Point",
        "coordinates": [0.3314, 49.7217]
      },
      "population": 1157,
      "surface": 592.46,
      "radius": 1.37
    },
    {
      "nom": "Fry",
      "code": "76292",
      "codesPostaux": ["76780"],
      "centre": {
        "type": "Point",
        "coordinates": [1.5388, 49.5243]
      },
      "mairie": {
        "type": "Point",
        "coordinates": [1.5267, 49.5296]
      },
      "population": 140,
      "surface": 802.69,
      "radius": 1.6
    },
    {
      "nom": "Fultot",
      "code": "76293",
      "codesPostaux": ["76560"],
      "centre": {
        "type": "Point",
        "coordinates": [0.7797, 49.7592]
      },
      "mairie": {
        "type": "Point",
        "coordinates": [0.786, 49.7589]
      },
      "population": 246,
      "surface": 372.2,
      "radius": 1.09
    },
    {
      "nom": "Gaillefontaine",
      "code": "76295",
      "codesPostaux": ["76870"],
      "centre": {
        "type": "Point",
        "coordinates": [1.6225, 49.6524]
      },
      "mairie": {
        "type": "Point",
        "coordinates": [1.6151, 49.6527]
      },
      "population": 1161,
      "surface": 2643.96,
      "radius": 2.9
    },
    {
      "nom": "Gainneville",
      "code": "76296",
      "codesPostaux": ["76700"],
      "centre": {
        "type": "Point",
        "coordinates": [0.2574, 49.5176]
      },
      "mairie": {
        "type": "Point",
        "coordinates": [0.2648, 49.5174]
      },
      "population": 2529,
      "surface": 460.97,
      "radius": 1.21
    },
    {
      "nom": "Gancourt-Saint-Étienne",
      "code": "76297",
      "codesPostaux": ["76220"],
      "centre": {
        "type": "Point",
        "coordinates": [1.7134, 49.5465]
      },
      "mairie": {
        "type": "Point",
        "coordinates": [1.7078, 49.5468]
      },
      "population": 226,
      "surface": 1260.56,
      "radius": 2
    },
    {
      "nom": "Ganzeville",
      "code": "76298",
      "codesPostaux": ["76400"],
      "centre": {
        "type": "Point",
        "coordinates": [0.4052, 49.7315]
      },
      "mairie": {
        "type": "Point",
        "coordinates": [0.4125, 49.7351]
      },
      "population": 459,
      "surface": 398.9,
      "radius": 1.13
    },
    {
      "nom": "Gerponville",
      "code": "76299",
      "codesPostaux": ["76540"],
      "centre": {
        "type": "Point",
        "coordinates": [0.5623, 49.7489]
      },
      "mairie": {
        "type": "Point",
        "coordinates": [0.5645, 49.7511]
      },
      "population": 381,
      "surface": 491.5,
      "radius": 1.25
    },
    {
      "nom": "Gerville",
      "code": "76300",
      "codesPostaux": ["76790"],
      "centre": {
        "type": "Point",
        "coordinates": [0.3279, 49.6982]
      },
      "mairie": {
        "type": "Point",
        "coordinates": [0.328, 49.6955]
      },
      "population": 421,
      "surface": 304.94,
      "radius": 0.99
    },
    {
      "nom": "Goderville",
      "code": "76302",
      "codesPostaux": ["76110"],
      "centre": {
        "type": "Point",
        "coordinates": [0.356, 49.6465]
      },
      "mairie": {
        "type": "Point",
        "coordinates": [0.3679, 49.6457]
      },
      "population": 2829,
      "surface": 800.33,
      "radius": 1.6
    },
    {
      "nom": "Gommerville",
      "code": "76303",
      "codesPostaux": ["76430"],
      "centre": {
        "type": "Point",
        "coordinates": [0.3609, 49.5532]
      },
      "mairie": {
        "type": "Point",
        "coordinates": [0.3678, 49.556]
      },
      "population": 740,
      "surface": 747.22,
      "radius": 1.54
    },
    {
      "nom": "Gonfreville-Caillot",
      "code": "76304",
      "codesPostaux": ["76110"],
      "centre": {
        "type": "Point",
        "coordinates": [0.4423, 49.6523]
      },
      "mairie": {
        "type": "Point",
        "coordinates": [0.4365, 49.6517]
      },
      "population": 397,
      "surface": 420.52,
      "radius": 1.16
    },
    {
      "nom": "Gonfreville-l'Orcher",
      "code": "76305",
      "codesPostaux": ["76700"],
      "centre": {
        "type": "Point",
        "coordinates": [0.2223, 49.487]
      },
      "mairie": {
        "type": "Point",
        "coordinates": [0.2329, 49.5029]
      },
      "population": 8939,
      "surface": 2627.24,
      "radius": 2.89
    },
    {
      "nom": "Gonnetot",
      "code": "76306",
      "codesPostaux": ["76730"],
      "centre": {
        "type": "Point",
        "coordinates": [0.8962, 49.7626]
      },
      "mairie": {
        "type": "Point",
        "coordinates": [0.8968, 49.7663]
      },
      "population": 170,
      "surface": 233.45,
      "radius": 0.86
    },
    {
      "nom": "Gonneville-la-Mallet",
      "code": "76307",
      "codesPostaux": ["76280"],
      "centre": {
        "type": "Point",
        "coordinates": [0.2144, 49.6298]
      },
      "mairie": {
        "type": "Point",
        "coordinates": [0.2227, 49.6392]
      },
      "population": 1351,
      "surface": 727.95,
      "radius": 1.52
    },
    {
      "nom": "Gonneville-sur-Scie",
      "code": "76308",
      "codesPostaux": ["76590"],
      "centre": {
        "type": "Point",
        "coordinates": [1.0906, 49.7579]
      },
      "mairie": {
        "type": "Point",
        "coordinates": [1.0729, 49.7565]
      },
      "population": 548,
      "surface": 861.09,
      "radius": 1.66
    },
    {
      "nom": "Gonzeville",
      "code": "76309",
      "codesPostaux": ["76560"],
      "centre": {
        "type": "Point",
        "coordinates": [0.809, 49.7579]
      },
      "mairie": {
        "type": "Point",
        "coordinates": [0.8073, 49.7662]
      },
      "population": 121,
      "surface": 487.37,
      "radius": 1.25
    },
    {
      "nom": "Goupillières",
      "code": "76311",
      "codesPostaux": ["76570"],
      "centre": {
        "type": "Point",
        "coordinates": [0.9839, 49.5836]
      },
      "mairie": {
        "type": "Point",
        "coordinates": [0.9786, 49.5828]
      },
      "population": 434,
      "surface": 411.62,
      "radius": 1.14
    },
    {
      "nom": "Gournay-en-Bray",
      "code": "76312",
      "codesPostaux": ["76220"],
      "centre": {
        "type": "Point",
        "coordinates": [1.7168, 49.4763]
      },
      "mairie": {
        "type": "Point",
        "coordinates": [1.7246, 49.4802]
      },
      "population": 5834,
      "surface": 1041.48,
      "radius": 1.82
    },
    {
      "nom": "Gouy",
      "code": "76313",
      "codesPostaux": ["76520"],
      "centre": {
        "type": "Point",
        "coordinates": [1.1439, 49.3571]
      },
      "mairie": {
        "type": "Point",
        "coordinates": [1.1478, 49.3545]
      },
      "population": 893,
      "surface": 503.96,
      "radius": 1.27
    },
    {
      "nom": "Graimbouville",
      "code": "76314",
      "codesPostaux": ["76430"],
      "centre": {
        "type": "Point",
        "coordinates": [0.3325, 49.5808]
      },
      "mairie": {
        "type": "Point",
        "coordinates": [0.3325, 49.5751]
      },
      "population": 608,
      "surface": 646.31,
      "radius": 1.43
    },
    {
      "nom": "Grainville-la-Teinturière",
      "code": "76315",
      "codesPostaux": ["76450"],
      "centre": {
        "type": "Point",
        "coordinates": [0.6449, 49.7404]
      },
      "mairie": {
        "type": "Point",
        "coordinates": [0.6415, 49.7479]
      },
      "population": 1060,
      "surface": 1848.67,
      "radius": 2.43
    },
    {
      "nom": "Grainville-sur-Ry",
      "code": "76316",
      "codesPostaux": ["76116"],
      "centre": {
        "type": "Point",
        "coordinates": [1.3003, 49.4728]
      },
      "mairie": {
        "type": "Point",
        "coordinates": [1.3012, 49.4765]
      },
      "population": 437,
      "surface": 544.3,
      "radius": 1.32
    },
    {
      "nom": "Grainville-Ymauville",
      "code": "76317",
      "codesPostaux": ["76110"],
      "centre": {
        "type": "Point",
        "coordinates": [0.4085, 49.6532]
      },
      "mairie": {
        "type": "Point",
        "coordinates": [0.4165, 49.6575]
      },
      "population": 423,
      "surface": 633.53,
      "radius": 1.42
    },
    {
      "nom": "Grand-Camp",
      "code": "76318",
      "codesPostaux": ["76170"],
      "centre": {
        "type": "Point",
        "coordinates": [0.5975, 49.5499]
      },
      "mairie": {
        "type": "Point",
        "coordinates": [0.5982, 49.5531]
      },
      "population": 763,
      "surface": 493.28,
      "radius": 1.25
    },
    {
      "nom": "Grand-Couronne",
      "code": "76319",
      "codesPostaux": ["76530"],
      "centre": {
        "type": "Point",
        "coordinates": [1.0097, 49.3508]
      },
      "mairie": {
        "type": "Point",
        "coordinates": [1.0081, 49.3579]
      },
      "population": 9722,
      "surface": 1690.66,
      "radius": 2.32
    },
    {
      "nom": "Grandcourt",
      "code": "76320",
      "codesPostaux": ["76660"],
      "centre": {
        "type": "Point",
        "coordinates": [1.4867, 49.9166]
      },
      "mairie": {
        "type": "Point",
        "coordinates": [1.4919, 49.915]
      },
      "population": 295,
      "surface": 2251.81,
      "radius": 2.68
    },
    {
      "nom": "Graval",
      "code": "76323",
      "codesPostaux": ["76270"],
      "centre": {
        "type": "Point",
        "coordinates": [1.5529, 49.7289]
      },
      "mairie": {
        "type": "Point",
        "coordinates": [1.5423, 49.7299]
      },
      "population": 156,
      "surface": 396.36,
      "radius": 1.12
    },
    {
      "nom": "Grèges",
      "code": "76324",
      "codesPostaux": ["76370"],
      "centre": {
        "type": "Point",
        "coordinates": [1.1496, 49.9234]
      },
      "mairie": {
        "type": "Point",
        "coordinates": [1.1491, 49.921]
      },
      "population": 840,
      "surface": 319.29,
      "radius": 1.01
    },
    {
      "nom": "Grémonville",
      "code": "76325",
      "codesPostaux": ["76970"],
      "centre": {
        "type": "Point",
        "coordinates": [0.8317, 49.6619]
      },
      "mairie": {
        "type": "Point",
        "coordinates": [0.8271, 49.6697]
      },
      "population": 447,
      "surface": 829.73,
      "radius": 1.63
    },
    {
      "nom": "Greuville",
      "code": "76327",
      "codesPostaux": ["76810"],
      "centre": {
        "type": "Point",
        "coordinates": [0.9092, 49.8072]
      },
      "mairie": {
        "type": "Point",
        "coordinates": [0.9132, 49.8111]
      },
      "population": 374,
      "surface": 298.58,
      "radius": 0.97
    },
    {
      "nom": "Grigneuseville",
      "code": "76328",
      "codesPostaux": ["76850"],
      "centre": {
        "type": "Point",
        "coordinates": [1.1915, 49.6559]
      },
      "mairie": {
        "type": "Point",
        "coordinates": [1.1901, 49.6538]
      },
      "population": 373,
      "surface": 737.09,
      "radius": 1.53
    },
    {
      "nom": "Gruchet-le-Valasse",
      "code": "76329",
      "codesPostaux": ["76210"],
      "centre": {
        "type": "Point",
        "coordinates": [0.5149, 49.5473]
      },
      "mairie": {
        "type": "Point",
        "coordinates": [0.4843, 49.5575]
      },
      "population": 3026,
      "surface": 1421.76,
      "radius": 2.13
    },
    {
      "nom": "Gruchet-Saint-Siméon",
      "code": "76330",
      "codesPostaux": ["76810"],
      "centre": {
        "type": "Point",
        "coordinates": [0.8919, 49.8228]
      },
      "mairie": {
        "type": "Point",
        "coordinates": [0.8922, 49.8177]
      },
      "population": 687,
      "surface": 259.63,
      "radius": 0.91
    },
    {
      "nom": "Grugny",
      "code": "76331",
      "codesPostaux": ["76690"],
      "centre": {
        "type": "Point",
        "coordinates": [1.1053, 49.6189]
      },
      "mairie": {
        "type": "Point",
        "coordinates": [1.1101, 49.6183]
      },
      "population": 1009,
      "surface": 318.04,
      "radius": 1.01
    },
    {
      "nom": "Grumesnil",
      "code": "76332",
      "codesPostaux": ["76440"],
      "centre": {
        "type": "Point",
        "coordinates": [1.6891, 49.62]
      },
      "mairie": {
        "type": "Point",
        "coordinates": [1.6925, 49.6102]
      },
      "population": 480,
      "surface": 1122.41,
      "radius": 1.89
    },