{
  "departmentCode": "58",
  "departmentName": "Nièvre",
  "stats": {
    "communeCount": 309,
    "totalPopulation": 202299,
    "totalSurface": 687210
  },
  "communes": [
    {
      "nom": "Achun",
      "code": "58001",
      "codesPostaux": ["58110"],
      "centre": {
        "type": "Point",
        "coordinates": [3.6605, 47.1317]
      },
      "mairie": {
        "type": "Point",
        "coordinates": [3.6803, 47.1245]
      },
      "population": 160,
      "surface": 2468.88,
      "radius": 2.8
    },
    {
      "nom": "Alligny-Cosne",
      "code": "58002",
      "codesPostaux": ["58200"],
      "centre": {
        "type": "Point",
        "coordinates": [3.0726, 47.4463]
      },
      "mairie": {
        "type": "Point",
        "coordinates": [3.0605, 47.4542]
      },
      "population": 922,
      "surface": 3471.73,
      "radius": 3.32
    },
    {
      "nom": "Alligny-en-Morvan",
      "code": "58003",
      "codesPostaux": ["58230"],
      "centre": {
        "type": "Point",
        "coordinates": [4.1674, 47.2102]
      },
      "mairie": {
        "type": "Point",
        "coordinates": [4.1767, 47.1985]
      },
      "population": 603,
      "surface": 4890.72,
      "radius": 3.95
    },
    {
      "nom": "Alluy",
      "code": "58004",
      "codesPostaux": ["58110"],
      "centre": {
        "type": "Point",
        "coordinates": [3.6417, 47.036]
      },
      "mairie": {
        "type": "Point",
        "coordinates": [3.6404, 47.0356]
      },
      "population": 368,
      "surface": 2758.53,
      "radius": 2.96
    },
    {
      "nom": "Amazy",
      "code": "58005",
      "codesPostaux": ["58190"],
      "centre": {
        "type": "Point",
        "coordinates": [3.5697, 47.384]
      },
      "mairie": {
        "type": "Point",
        "coordinates": [3.5779, 47.3767]
      },
      "population": 214,
      "surface": 1389.12,
      "radius": 2.1
    },
    {
      "nom": "Anlezy",
      "code": "58006",
      "codesPostaux": ["58270"],
      "centre": {
        "type": "Point",
        "coordinates": [3.4925, 46.9688]
      },
      "mairie": {
        "type": "Point",
        "coordinates": [3.5075, 46.957]
      },
      "population": 241,
      "surface": 2157.46,
      "radius": 2.62
    },
    {
      "nom": "Annay",
      "code": "58007",
      "codesPostaux": ["58450"],
      "centre": {
        "type": "Point",
        "coordinates": [2.9415, 47.5297]
      },
      "mairie": {
        "type": "Point",
        "coordinates": [2.9328, 47.5356]
      },
      "population": 345,
      "surface": 2658.39,
      "radius": 2.91
    },
    {
      "nom": "Anthien",
      "code": "58008",
      "codesPostaux": ["58800"],
      "centre": {
        "type": "Point",
        "coordinates": [3.7265, 47.3087]
      },
      "mairie": {
        "type": "Point",
        "coordinates": [3.7379, 47.3146]
      },
      "population": 168,
      "surface": 1970.18,
      "radius": 2.5
    },
    {
      "nom": "Arbourse",
      "code": "58009",
      "codesPostaux": ["58350"],
      "centre": {
        "type": "Point",
        "coordinates": [3.2275, 47.2478]
      },
      "mairie": {
        "type": "Point",
        "coordinates": [3.2269, 47.2522]
      },
      "population": 123,
      "surface": 922.7,
      "radius": 1.71
    },
    {
      "nom": "Arleuf",
      "code": "58010",
      "codesPostaux": ["58430"],
      "centre": {
        "type": "Point",
        "coordinates": [4.0175, 47.0388]
      },
      "mairie": {
        "type": "Point",
        "coordinates": [4.0219, 47.0448]
      },
      "population": 641,
      "surface": 6011.61,
      "radius": 4.37
    },
    {
      "nom": "Armes",
      "code": "58011",
      "codesPostaux": ["58500"],
      "centre": {
        "type": "Point",
        "coordinates": [3.5591, 47.464]
      },
      "mairie": {
        "type": "Point",
        "coordinates": [3.5474, 47.4582]
      },
      "population": 272,
      "surface": 858.69,
      "radius": 1.65
    },
    {
      "nom": "Arquian",
      "code": "58012",
      "codesPostaux": ["58310"],
      "centre": {
        "type": "Point",
        "coordinates": [3.0008, 47.5313]
      },
      "mairie": {
        "type": "Point",
        "coordinates": [2.9917, 47.541]
      },
      "population": 550,
      "surface": 3388.91,
      "radius": 3.28
    },
    {
      "nom": "Arthel",
      "code": "58013",
      "codesPostaux": ["58700"],
      "centre": {
        "type": "Point",
        "coordinates": [3.4104, 47.243]
      },
      "mairie": {
        "type": "Point",
        "coordinates": [3.4091, 47.2443]
      },
      "population": 90,
      "surface": 779.48,
      "radius": 1.58
    },
    {
      "nom": "Arzembouy",
      "code": "58014",
      "codesPostaux": ["58700"],
      "centre": {
        "type": "Point",
        "coordinates": [3.3596, 47.2452]
      },
      "mairie": {
        "type": "Point",
        "coordinates": [3.3682, 47.2461]
      },
      "population": 69,
      "surface": 1296.63,
      "radius": 2.03
    },
    {
      "nom": "Asnan",
      "code": "58015",
      "codesPostaux": ["58420"],
      "centre": {
        "type": "Point",
        "coordinates": [3.5519, 47.3105]
      },
      "mairie": {
        "type": "Point",
        "coordinates": [3.5542, 47.3092]
      },
      "population": 119,
      "surface": 483.6,
      "radius": 1.24
    },
    {
      "nom": "Asnois",
      "code": "58016",
      "codesPostaux": ["58190"],
      "centre": {
        "type": "Point",
        "coordinates": [3.5868, 47.4011]
      },
      "mairie": {
        "type": "Point",
        "coordinates": [3.5978, 47.3981]
      },
      "population": 140,
      "surface": 575.84,
      "radius": 1.35
    },
    {
      "nom": "Aunay-en-Bazois",
      "code": "58017",
      "codesPostaux": ["58110"],
      "centre": {
        "type": "Point",
        "coordinates": [3.724, 47.1268]
      },
      "mairie": {
        "type": "Point",
        "coordinates": [3.6978, 47.1141]
      },
      "population": 228,
      "surface": 4525.46,
      "radius": 3.8
    },
    {
      "nom": "Authiou",
      "code": "58018",
      "codesPostaux": ["58700"],
      "centre": {
        "type": "Point",
        "coordinates": [3.4145, 47.2676]
      },
      "mairie": {
        "type": "Point",
        "coordinates": [3.417, 47.2707]
      },
      "population": 40,
      "surface": 739.21,
      "radius": 1.53
    },
    {
      "nom": "Avrée",
      "code": "58019",
      "codesPostaux": ["58170"],
      "centre": {
        "type": "Point",
        "coordinates": [3.8801, 46.8251]
      },
      "mairie": {
        "type": "Point",
        "coordinates": [3.87, 46.8185]
      },
      "population": 84,
      "surface": 1304.34,
      "radius": 2.04
    },
    {
      "nom": "Avril-sur-Loire",
      "code": "58020",
      "codesPostaux": ["58300"],
      "centre": {
        "type": "Point",
        "coordinates": [3.3654, 46.8041]
      },
      "mairie": {
        "type": "Point",
        "coordinates": [3.3574, 46.8203]
      },
      "population": 247,
      "surface": 2495.78,
      "radius": 2.82
    },
    {
      "nom": "Azy-le-Vif",
      "code": "58021",
      "codesPostaux": ["58240"],
      "centre": {
        "type": "Point",
        "coordinates": [3.2268, 46.7873]
      },
      "mairie": {
        "type": "Point",
        "coordinates": [3.229, 46.785]
      },
      "population": 195,
      "surface": 4709.79,
      "radius": 3.87
    },
    {
      "nom": "Bazoches",
      "code": "58023",
      "codesPostaux": ["58190"],
      "centre": {
        "type": "Point",
        "coordinates": [3.7938, 47.3686]
      },
      "mairie": {
        "type": "Point",
        "coordinates": [3.7862, 47.3771]
      },
      "population": 165,
      "surface": 1476.29,
      "radius": 2.17
    },
    {
      "nom": "Bazolles",
      "code": "58024",
      "codesPostaux": ["58110"],
      "centre": {
        "type": "Point",
        "coordinates": [3.6075, 47.145]
      },
      "mairie": {
        "type": "Point",
        "coordinates": [3.6178, 47.1436]
      },
      "population": 284,
      "surface": 2862.74,
      "radius": 3.02
    },
    {
      "nom": "Béard",
      "code": "58025",
      "codesPostaux": ["58160"],
      "centre": {
        "type": "Point",
        "coordinates": [3.3238, 46.8682]
      },
      "mairie": {
        "type": "Point",
        "coordinates": [3.3282, 46.8617]
      },
      "population": 161,
      "surface": 762.12,
      "radius": 1.56
    },
    {
      "nom": "Beaulieu",
      "code": "58026",
      "codesPostaux": ["58420"],
      "centre": {
        "type": "Point",
        "coordinates": [3.536, 47.2593]
      },
      "mairie": {
        "type": "Point",
        "coordinates": [3.5249, 47.2551]
      },
      "population": 143,
      "surface": 1566.2,
      "radius": 2.23
    },
    {
      "nom": "Beaumont-la-Ferrière",
      "code": "58027",
      "codesPostaux": ["58700"],
      "centre": {
        "type": "Point",
        "coordinates": [3.2364, 47.1847]
      },
      "mairie": {
        "type": "Point",
        "coordinates": [3.2258, 47.1901]
      },
      "population": 119,
      "surface": 2853.87,
      "radius": 3.01
    },
    {
      "nom": "Beaumont-Sardolles",
      "code": "58028",
      "codesPostaux": ["58270"],
      "centre": {
        "type": "Point",
        "coordinates": [3.3987, 46.9358]
      },
      "mairie": {
        "type": "Point",
        "coordinates": [3.3978, 46.9261]
      },
      "population": 116,
      "surface": 2956.79,
      "radius": 3.07
    },
    {
      "nom": "Beuvron",
      "code": "58029",
      "codesPostaux": ["58210"],
      "centre": {
        "type": "Point",
        "coordinates": [3.4997, 47.351]
      },
      "mairie": {
        "type": "Point",
        "coordinates": [3.4929, 47.3592]
      },
      "population": 86,
      "surface": 958.7,
      "radius": 1.75
    },
    {
      "nom": "Biches",
      "code": "58030",
      "codesPostaux": ["58110"],
      "centre": {
        "type": "Point",
        "coordinates": [3.6583, 46.9936]
      },
      "mairie": {
        "type": "Point",
        "coordinates": [3.6499, 47.0069]
      },
      "population": 254,
      "surface": 2461.75,
      "radius": 2.8
    },
    {
      "nom": "Billy-Chevannes",
      "code": "58031",
      "codesPostaux": ["58270"],
      "centre": {
        "type": "Point",
        "coordinates": [3.4662, 47.0108]
      },
      "mairie": {
        "type": "Point",
        "coordinates": [3.4524, 47.0155]
      },
      "population": 316,
      "surface": 2386.52,
      "radius": 2.76
    },
    {
      "nom": "Billy-sur-Oisy",
      "code": "58032",
      "codesPostaux": ["58500"],
      "centre": {
        "type": "Point",
        "coordinates": [3.3962, 47.4836]
      },
      "mairie": {
        "type": "Point",
        "coordinates": [3.4146, 47.4805]
      },
      "population": 367,
      "surface": 2671.83,
      "radius": 2.92
    },
    {
      "nom": "Bitry",
      "code": "58033",
      "codesPostaux": ["58310"],
      "centre": {
        "type": "Point",
        "coordinates": [3.0891, 47.4908]
      },
      "mairie": {
        "type": "Point",
        "coordinates": [3.0775, 47.4897]
      },
      "population": 311,
      "surface": 1767.3,
      "radius": 2.37
    },
    {
      "nom": "Blismes",
      "code": "58034",
      "codesPostaux": ["58120"],
      "centre": {
        "type": "Point",
        "coordinates": [3.8227, 47.1296]
      },
      "mairie": {
        "type": "Point",
        "coordinates": [3.8203, 47.1315]
      },
      "population": 187,
      "surface": 2692.78,
      "radius": 2.93
    },
    {
      "nom": "Bona",
      "code": "58035",
      "codesPostaux": ["58330"],
      "centre": {
        "type": "Point",
        "coordinates": [3.426, 47.0636]
      },
      "mairie": {
        "type": "Point",
        "coordinates": [3.4217, 47.0625]
      },
      "population": 297,
      "surface": 2359.05,
      "radius": 2.74
    },
    {
      "nom": "Bouhy",
      "code": "58036",
      "codesPostaux": ["58310"],
      "centre": {
        "type": "Point",
        "coordinates": [3.1831, 47.4897]
      },
      "mairie": {
        "type": "Point",
        "coordinates": [3.1643, 47.4854]
      },
      "population": 427,
      "surface": 3669.07,
      "radius": 3.42
    },
    {
      "nom": "Brassy",
      "code": "58037",
      "codesPostaux": ["58140"],
      "centre": {
        "type": "Point",
        "coordinates": [3.9374, 47.2584]
      },
      "mairie": {
        "type": "Point",
        "coordinates": [3.937, 47.2619]
      },
      "population": 594,
      "surface": 5663.2,
      "radius": 4.25
    },
    {
      "nom": "Breugnon",
      "code": "58038",
      "codesPostaux": ["58460"],
      "centre": {
        "type": "Point",
        "coordinates": [3.4576, 47.4281]
      },
      "mairie": {
        "type": "Point",
        "coordinates": [3.4529, 47.4281]
      },
      "population": 152,
      "surface": 1349.24,
      "radius": 2.07
    },
    {
      "nom": "Brèves",
      "code": "58039",
      "codesPostaux": ["58530"],
      "centre": {
        "type": "Point",
        "coordinates": [3.6223, 47.4299]
      },
      "mairie": {
        "type": "Point",
        "coordinates": [3.6048, 47.4177]
      },
      "population": 249,
      "surface": 1659.32,
      "radius": 2.3
    },
    {
      "nom": "Brinay",
      "code": "58040",
      "codesPostaux": ["58110"],
      "centre": {
        "type": "Point",
        "coordinates": [3.7058, 47.0113]
      },
      "mairie": {
        "type": "Point",
        "coordinates": [3.695, 47.0063]
      },
      "population": 145,
      "surface": 1609.43,
      "radius": 2.26
    },
    {
      "nom": "Brinon-sur-Beuvron",
      "code": "58041",
      "codesPostaux": ["58420"],
      "centre": {
        "type": "Point",
        "coordinates": [3.4912, 47.2844]
      },
      "mairie": {
        "type": "Point",
        "coordinates": [3.4909, 47.2811]
      },
      "population": 166,
      "surface": 808.3,
      "radius": 1.6
    },
    {
      "nom": "Bulcy",
      "code": "58042",
      "codesPostaux": ["58400"],
      "centre": {
        "type": "Point",
        "coordinates": [3.0271, 47.2405]
      },
      "mairie": {
        "type": "Point",
        "coordinates": [3.0276, 47.2423]
      },
      "population": 144,
      "surface": 846.8,
      "radius": 1.64
    },
    {
      "nom": "Bussy-la-Pesle",
      "code": "58043",
      "codesPostaux": ["58420"],
      "centre": {
        "type": "Point",
        "coordinates": [3.4746, 47.2547]
      },
      "mairie": {
        "type": "Point",
        "coordinates": [3.4758, 47.2626]
      },
      "population": 53,
      "surface": 520.65,
      "radius": 1.29
    },
    {
      "nom": "Cercy-la-Tour",
      "code": "58046",
      "codesPostaux": ["58340"],
      "centre": {
        "type": "Point",
        "coordinates": [3.6457, 46.8492]
      },
      "mairie": {
        "type": "Point",
        "coordinates": [3.6454, 46.8698]
      },
      "population": 1683,
      "surface": 4563.27,
      "radius": 3.81
    },
    {
      "nom": "Cervon",
      "code": "58047",
      "codesPostaux": ["58800"],
      "centre": {
        "type": "Point",
        "coordinates": [3.744, 47.2415]
      },
      "mairie": {
        "type": "Point",
        "coordinates": [3.7565, 47.2409]
      },
      "population": 594,
      "surface": 5413.18,
      "radius": 4.15
    },
    {
      "nom": "Cessy-les-Bois",
      "code": "58048",
      "codesPostaux": ["58220"],
      "centre": {
        "type": "Point",
        "coordinates": [3.2194, 47.3332]
      },
      "mairie": {
        "type": "Point",
        "coordinates": [3.2055, 47.336]
      },
      "population": 114,
      "surface": 1763.51,
      "radius": 2.37
    },
    {
      "nom": "Chalaux",
      "code": "58049",
      "codesPostaux": ["58140"],
      "centre": {
        "type": "Point",
        "coordinates": [3.9129, 47.3348]
      },
      "mairie": {
        "type": "Point",
        "coordinates": [3.9112, 47.3391]
      },
      "population": 83,
      "surface": 1016.5,
      "radius": 1.8
    },
    {
      "nom": "Challement",
      "code": "58050",
      "codesPostaux": ["58420"],
      "centre": {
        "type": "Point",
        "coordinates": [3.5974, 47.3124]
      },
      "mairie": {
        "type": "Point",
        "coordinates": [3.5867, 47.3148]
      },
      "population": 45,
      "surface": 958.77,
      "radius": 1.75
    },
    {
      "nom": "Challuy",
      "code": "58051",
      "codesPostaux": ["58000"],
      "centre": {
        "type": "Point",
        "coordinates": [3.1368, 46.9446]
      },
      "mairie": {
        "type": "Point",
        "coordinates": [3.1482, 46.9502]
      },
      "population": 1468,
      "surface": 1898.29,
      "radius": 2.46
    },
    {
      "nom": "Champallement",
      "code": "58052",
      "codesPostaux": ["58420"],
      "centre": {
        "type": "Point",
        "coordinates": [3.4795, 47.2297]
      },
      "mairie": {
        "type": "Point",
        "coordinates": [3.4899, 47.2317]
      },
      "population": 55,
      "surface": 812.59,
      "radius": 1.61
    },
    {
      "nom": "Champlemy",
      "code": "58053",
      "codesPostaux": ["58210"],
      "centre": {
        "type": "Point",
        "coordinates": [3.3328, 47.2869]
      },
      "mairie": {
        "type": "Point",
        "coordinates": [3.3534, 47.287]
      },
      "population": 326,
      "surface": 3700.51,
      "radius": 3.43
    },
    {
      "nom": "Champlin",
      "code": "58054",
      "codesPostaux": ["58700"],
      "centre": {
        "type": "Point",
        "coordinates": [3.4506, 47.2449]
      },
      "mairie": {
        "type": "Point",
        "coordinates": [3.4477, 47.2419]
      },
      "population": 42,
      "surface": 797.7,
      "radius": 1.59
    },
    {
      "nom": "Champvert",
      "code": "58055",
      "codesPostaux": ["58300"],
      "centre": {
        "type": "Point",
        "coordinates": [3.5305, 46.8535]
      },
      "mairie": {
        "type": "Point",
        "coordinates": [3.5116, 46.8412]
      },
      "population": 744,
      "surface": 4647.8,
      "radius": 3.85
    },
    {
      "nom": "Champvoux",
      "code": "58056",
      "codesPostaux": ["58400"],
      "centre": {
        "type": "Point",
        "coordinates": [3.0718, 47.1459]
      },
      "mairie": {
        "type": "Point",
        "coordinates": [3.0818, 47.1559]
      },
      "population": 285,
      "surface": 1080.01,
      "radius": 1.85
    },
    {
      "nom": "Chantenay-Saint-Imbert",
      "code": "58057",
      "codesPostaux": ["58240"],
      "centre": {
        "type": "Point",
        "coordinates": [3.1681, 46.7394]
      },
      "mairie": {
        "type": "Point",
        "coordinates": [3.1818, 46.734]
      },
      "population": 1090,
      "surface": 4193.18,
      "radius": 3.65
    },
    {
      "nom": "Charrin",
      "code": "58060",
      "codesPostaux": ["58300"],
      "centre": {
        "type": "Point",
        "coordinates": [3.599, 46.7993]
      },
      "mairie": {
        "type": "Point",
        "coordinates": [3.5991, 46.7898]
      },
      "population": 606,
      "surface": 2620.63,
      "radius": 2.89
    },
    {
      "nom": "Chasnay",
      "code": "58061",
      "codesPostaux": ["58350"],
      "centre": {
        "type": "Point",
        "coordinates": [3.1738, 47.2351]
      },
      "mairie": {
        "type": "Point",
        "coordinates": [3.1835, 47.2458]
      },
      "population": 128,
      "surface": 1185.33,
      "radius": 1.94
    },
    {
      "nom": "Château-Chinon (Campagne)",
      "code": "58063",
      "codesPostaux": ["58120"],
      "centre": {
        "type": "Point",
        "coordinates": [3.9408, 47.0559]
      },
      "mairie": {
        "type": "Point",
        "coordinates": [3.9338, 47.0643]
      },
      "population": 555,
      "surface": 2854.15,
      "radius": 3.01
    },
    {
      "nom": "Château-Chinon (Ville)",
      "code": "58062",
      "codesPostaux": ["58120"],
      "centre": {
        "type": "Point",
        "coordinates": [3.9261, 47.066]
      },
      "mairie": {
        "type": "Point",
        "coordinates": [3.9323, 47.0645]
      },
      "population": 1857,
      "surface": 417.55,
      "radius": 1.15
    },
    {
      "nom": "Châteauneuf-Val-de-Bargis",
      "code": "58064",
      "codesPostaux": ["58350"],
      "centre": {
        "type": "Point",
        "coordinates": [3.2129, 47.2807]
      },
      "mairie": {
        "type": "Point",
        "coordinates": [3.2262, 47.2822]
      },
      "population": 479,
      "surface": 4804.1,
      "radius": 3.91
    },
    {
      "nom": "Châtillon-en-Bazois",
      "code": "58065",
      "codesPostaux": ["58110"],
      "centre": {
        "type": "Point",
        "coordinates": [3.6546, 47.0554]
      },
      "mairie": {
        "type": "Point",
        "coordinates": [3.6557, 47.0524]
      },
      "population": 835,
      "surface": 1932.74,
      "radius": 2.48
    },
    {
      "nom": "Châtin",
      "code": "58066",
      "codesPostaux": ["58120"],
      "centre": {
        "type": "Point",
        "coordinates": [3.8858, 47.1048]
      },
      "mairie": {
        "type": "Point",
        "coordinates": [3.8736, 47.0966]
      },
      "population": 83,
      "surface": 1300.96,
      "radius": 2.03
    },
    {
      "nom": "Chaulgnes",
      "code": "58067",
      "codesPostaux": ["58400"],
      "centre": {
        "type": "Point",
        "coordinates": [3.1104, 47.1242]
      },
      "mairie": {
        "type": "Point",
        "coordinates": [3.1024, 47.1282]
      },
      "population": 1503,
      "surface": 2535.01,
      "radius": 2.84
    },
    {
      "nom": "Chaumard",
      "code": "58068",
      "codesPostaux": ["58120"],
      "centre": {
        "type": "Point",
        "coordinates": [3.9151, 47.1447]
      },
      "mairie": {
        "type": "Point",
        "coordinates": [3.9119, 47.1441]
      },
      "population": 196,
      "surface": 1987.7,
      "radius": 2.52
    },
    {
      "nom": "Chaumot",
      "code": "58069",
      "codesPostaux": ["58800"],
      "centre": {
        "type": "Point",
        "coordinates": [3.6425, 47.2506]
      },
      "mairie": {
        "type": "Point",
        "coordinates": [3.6465, 47.2571]
      },
      "population": 164,
      "surface": 791.85,
      "radius": 1.59
    },
    {
      "nom": "Chazeuil",
      "code": "58070",
      "codesPostaux": ["58700"],
      "centre": {
        "type": "Point",
        "coordinates": [3.4034, 47.2743]
      },
      "mairie": {
        "type": "Point",
        "coordinates": [3.4021, 47.2768]
      },
      "population": 61,
      "surface": 465.64,
      "radius": 1.22
    },
    {
      "nom": "Chevannes-Changy",
      "code": "58071",
      "codesPostaux": ["58420"],
      "centre": {
        "type": "Point",
        "coordinates": [3.4547, 47.2889]
      },
      "mairie": {
        "type": "Point",
        "coordinates": [3.4515, 47.2884]
      },
      "population": 136,
      "surface": 1893.79,
      "radius": 2.46
    },
    {
      "nom": "Chevenon",
      "code": "58072",
      "codesPostaux": ["58160"],
      "centre": {
        "type": "Point",
        "coordinates": [3.2288, 46.9128]
      },
      "mairie": {
        "type": "Point",
        "coordinates": [3.2287, 46.9201]
      },
      "population": 632,
      "surface": 3300.07,
      "radius": 3.24
    },
    {
      "nom": "Chevroches",
      "code": "58073",
      "codesPostaux": ["58500"],
      "centre": {
        "type": "Point",
        "coordinates": [3.5445, 47.4458]
      },
      "mairie": {
        "type": "Point",
        "coordinates": [3.5451, 47.4502]
      },
      "population": 114,
      "surface": 326.95,
      "radius": 1.02
    },
    {
      "nom": "Chiddes",
      "code": "58074",
      "codesPostaux": ["58170"],
      "centre": {
        "type": "Point",
        "coordinates": [3.9318, 46.863]
      },
      "mairie": {
        "type": "Point",
        "coordinates": [3.9419, 46.8616]
      },
      "population": 353,
      "surface": 2611.84,
      "radius": 2.88
    },
    {
      "nom": "Chitry-les-Mines",
      "code": "58075",
      "codesPostaux": ["58800"],
      "centre": {
        "type": "Point",
        "coordinates": [3.6623, 47.2748]
      },
      "mairie": {
        "type": "Point",
        "coordinates": [3.6511, 47.2602]
      },
      "population": 218,
      "surface": 582.96,
      "radius": 1.36
    },
    {
      "nom": "Chougny",
      "code": "58076",
      "codesPostaux": ["58110"],
      "centre": {
        "type": "Point",
        "coordinates": [3.759, 47.0876]
      },
      "mairie": {
        "type": "Point",
        "coordinates": [3.7617, 47.0876]
      },
      "population": 84,
      "surface": 1490,
      "radius": 2.18
    },
    {
      "nom": "Ciez",
      "code": "58077",
      "codesPostaux": ["58220"],
      "centre": {
        "type": "Point",
        "coordinates": [3.1643, 47.443]
      },
      "mairie": {
        "type": "Point",
        "coordinates": [3.1588, 47.442]
      },
      "population": 376,
      "surface": 2830.08,
      "radius": 3
    },
    {
      "nom": "Cizely",
      "code": "58078",
      "codesPostaux": ["58270"],
      "centre": {
        "type": "Point",
        "coordinates": [3.4656, 46.985]
      },
      "mairie": {
        "type": "Point",
        "coordinates": [3.4847, 46.9888]
      },
      "population": 52,
      "surface": 715.83,
      "radius": 1.51
    },
    {
      "nom": "Clamecy",
      "code": "58079",
      "codesPostaux": ["58500"],
      "centre": {
        "type": "Point",
        "coordinates": [3.5188, 47.4588]
      },
      "mairie": {
        "type": "Point",
        "coordinates": [3.5189, 47.4595]
      },
      "population": 3597,
      "surface": 3088.42,
      "radius": 3.14
    },
    {
      "nom": "Colméry",
      "code": "58081",
      "codesPostaux": ["58350"],
      "centre": {
        "type": "Point",
        "coordinates": [3.2441, 47.346]
      },
      "mairie": {
        "type": "Point",
        "coordinates": [3.249, 47.3465]
      },
      "population": 269,
      "surface": 2427.84,
      "radius": 2.78
    },
    {
      "nom": "Corancy",
      "code": "58082",
      "codesPostaux": ["58120"],
      "centre": {
        "type": "Point",
        "coordinates": [3.9638, 47.1092]
      },
      "mairie": {
        "type": "Point",
        "coordinates": [3.9495, 47.1015]
      },
      "population": 281,
      "surface": 3013.14,
      "radius": 3.1
    },
    {
      "nom": "Corbigny",
      "code": "58083",
      "codesPostaux": ["58800"],
      "centre": {
        "type": "Point",
        "coordinates": [3.6947, 47.2553]
      },
      "mairie": {
        "type": "Point",
        "coordinates": [3.6844, 47.2575]
      },
      "population": 1330,
      "surface": 2017.14,
      "radius": 2.53
    },
    {
      "nom": "Corvol-d'Embernard",
      "code": "58084",
      "codesPostaux": ["58210"],
      "centre": {
        "type": "Point",
        "coordinates": [3.4002, 47.2943]
      },
      "mairie": {
        "type": "Point",
        "coordinates": [3.3972, 47.2906]
      },
      "population": 116,
      "surface": 988.88,
      "radius": 1.77
    },
    {
      "nom": "Corvol-l'Orgueilleux",
      "code": "58085",
      "codesPostaux": ["58460"],
      "centre": {
        "type": "Point",
        "coordinates": [3.3716, 47.4342]
      },
      "mairie": {
        "type": "Point",
        "coordinates": [3.405, 47.4312]
      },
      "population": 725,
      "surface": 3033.91,
      "radius": 3.11
    },
    {
      "nom": "Cosne-Cours-sur-Loire",
      "code": "58086",
      "codesPostaux": ["58200"],
      "centre": {
        "type": "Point",
        "coordinates": [2.9419, 47.414]
      },
      "mairie": {
        "type": "Point",
        "coordinates": [2.9248, 47.4103]
      },
      "population": 9786,
      "surface": 5375.46,
      "radius": 4.14
    },
    {
      "nom": "Cossaye",
      "code": "58087",
      "codesPostaux": ["58300"],
      "centre": {
        "type": "Point",
        "coordinates": [3.511, 46.7556]
      },
      "mairie": {
        "type": "Point",
        "coordinates": [3.4844, 46.75]
      },
      "population": 657,
      "surface": 5177.76,
      "radius": 4.06
    },
    {
      "nom": "Coulanges-lès-Nevers",
      "code": "58088",
      "codesPostaux": ["58660"],
      "centre": {
        "type": "Point",
        "coordinates": [3.2005, 47.0157]
      },
      "mairie": {
        "type": "Point",
        "coordinates": [3.1884, 47.0057]
      },
      "population": 3678,
      "surface": 1060.79,
      "radius": 1.84
    },
    {
      "nom": "Couloutre",
      "code": "58089",
      "codesPostaux": ["58220"],
      "centre": {
        "type": "Point",
        "coordinates": [3.2232, 47.3989]
      },
      "mairie": {
        "type": "Point",
        "coordinates": [3.2271, 47.4094]
      },
      "population": 220,
      "surface": 2120.13,
      "radius": 2.6
    },
    {
      "nom": "Courcelles",
      "code": "58090",
      "codesPostaux": ["58210"],
      "centre": {
        "type": "Point",
        "coordinates": [3.3924, 47.4013]
      },
      "mairie": {
        "type": "Point",
        "coordinates": [3.4005, 47.4028]
      },
      "population": 228,
      "surface": 965.11,
      "radius": 1.75
    },
    {
      "nom": "Crux-la-Ville",
      "code": "58092",
      "codesPostaux": ["58330"],
      "centre": {
        "type": "Point",
        "coordinates": [3.53, 47.1556]
      },
      "mairie": {
        "type": "Point",
        "coordinates": [3.5193, 47.1608]
      },
      "population": 399,
      "surface": 4602.31,
      "radius": 3.83
    },
    {
      "nom": "Cuncy-lès-Varzy",
      "code": "58093",
      "codesPostaux": ["58210"],
      "centre": {
        "type": "Point",
        "coordinates": [3.4585, 47.3619]
      },
      "mairie": {
        "type": "Point",
        "coordinates": [3.4544, 47.3716]
      },
      "population": 122,
      "surface": 1530.73,
      "radius": 2.21
    },
    {
      "nom": "Dampierre-sous-Bouhy",
      "code": "58094",
      "codesPostaux": ["58310"],
      "centre": {
        "type": "Point",
        "coordinates": [3.1323, 47.5061]
      },
      "mairie": {
        "type": "Point",
        "coordinates": [3.1323, 47.4994]
      },
      "population": 456,
      "surface": 2717,
      "radius": 2.94
    },
    {
      "nom": "Decize",
      "code": "58095",
      "codesPostaux": ["58300"],
      "centre": {
        "type": "Point",
        "coordinates": [3.4695, 46.809]
      },
      "mairie": {
        "type": "Point",
        "coordinates": [3.4613, 46.8284]
      },
      "population": 5025,
      "surface": 4832.56,
      "radius": 3.92
    },
    {
      "nom": "Devay",
      "code": "58096",
      "codesPostaux": ["58300"],
      "centre": {
        "type": "Point",
        "coordinates": [3.5375, 46.8022]
      },
      "mairie": {
        "type": "Point",
        "coordinates": [3.5496, 46.807]
      },
      "population": 472,
      "surface": 1259.72,
      "radius": 2
    },
    {
      "nom": "Diennes-Aubigny",
      "code": "58097",
      "codesPostaux": ["58340"],
      "centre": {
        "type": "Point",
        "coordinates": [3.5751, 46.9185]
      },
      "mairie": {
        "type": "Point",
        "coordinates": [3.5804, 46.9208]
      },
      "population": 91,
      "surface": 3736.7,
      "radius": 3.45
    },
    {
      "nom": "Dirol",
      "code": "58098",
      "codesPostaux": ["58190"],
      "centre": {
        "type": "Point",
        "coordinates": [3.6424, 47.3223]
      },
      "mairie": {
        "type": "Point",
        "coordinates": [3.6541, 47.3154]
      },
      "population": 106,
      "surface": 962.24,
      "radius": 1.75
    },
    {
      "nom": "Dommartin",
      "code": "58099",
      "codesPostaux": ["58120"],
      "centre": {
        "type": "Point",
        "coordinates": [3.8479, 47.0709]
      },
      "mairie": {
        "type": "Point",
        "coordinates": [3.8448, 47.068]
      },
      "population": 156,
      "surface": 1354.37,
      "radius": 2.08
    },
    {
      "nom": "Dompierre-sur-Nièvre",
      "code": "58101",
      "codesPostaux": ["58350"],
      "centre": {
        "type": "Point",
        "coordinates": [3.2556, 47.2327]
      },
      "mairie": {
        "type": "Point",
        "coordinates": [3.2514, 47.2387]
      },
      "population": 183,
      "surface": 1860.54,
      "radius": 2.43
    },
    {
      "nom": "Donzy",
      "code": "58102",
      "codesPostaux": ["58220"],
      "centre": {
        "type": "Point",
        "coordinates": [3.1171, 47.3798]
      },
      "mairie": {
        "type": "Point",
        "coordinates": [3.1221, 47.3711]
      },
      "population": 1542,
      "surface": 6346.83,
      "radius": 4.49
    },
    {
      "nom": "Dornecy",
      "code": "58103",
      "codesPostaux": ["58530"],
      "centre": {
        "type": "Point",
        "coordinates": [3.5891, 47.4428]
      },
      "mairie": {
        "type": "Point",
        "coordinates": [3.5852, 47.4349]
      },
      "population": 457,
      "surface": 1742.29,
      "radius": 2.35
    },
    {
      "nom": "Dornes",
      "code": "58104",
      "codesPostaux": ["58390"],
      "centre": {
        "type": "Point",
        "coordinates": [3.3373, 46.7196]
      },
      "mairie": {
        "type": "Point",
        "coordinates": [3.3523, 46.7149]
      },
      "population": 1458,
      "surface": 4007.31,
      "radius": 3.57
    },
    {
      "nom": "Druy-Parigny",
      "code": "58105",
      "codesPostaux": ["58160"],
      "centre": {
        "type": "Point",
        "coordinates": [3.3749, 46.8771]
      },
      "mairie": {
        "type": "Point",
        "coordinates": [3.3671, 46.8691]
      },
      "population": 303,
      "surface": 2513.03,
      "radius": 2.83
    },
    {
      "nom": "Dun-les-Places",
      "code": "58106",
      "codesPostaux": ["58230"],
      "centre": {
        "type": "Point",
        "coordinates": [4.0174, 47.2868]
      },
      "mairie": {
        "type": "Point",
        "coordinates": [4.0159, 47.286]
      },
      "population": 362,
      "surface": 4518.59,
      "radius": 3.79
    },
    {
      "nom": "Dun-sur-Grandry",
      "code": "58107",
      "codesPostaux": ["58110"],
      "centre": {
        "type": "Point",
        "coordinates": [3.7996, 47.0877]
      },
      "mairie": {
        "type": "Point",
        "coordinates": [3.7904, 47.0848]
      },
      "population": 148,
      "surface": 1189.33,
      "radius": 1.95
    },
    {
      "nom": "Empury",
      "code": "58108",
      "codesPostaux": ["58140"],
      "centre": {
        "type": "Point",
        "coordinates": [3.8207, 47.3484]
      },
      "mairie": {
        "type": "Point",
        "coordinates": [3.8242, 47.3494]
      },
      "population": 77,
      "surface": 1180.33,
      "radius": 1.94
    },
    {
      "nom": "Entrains-sur-Nohain",
      "code": "58109",
      "codesPostaux": ["58410"],
      "centre": {
        "type": "Point",
        "coordinates": [3.2763, 47.4559]
      },
      "mairie": {
        "type": "Point",
        "coordinates": [3.257, 47.4632]
      },
      "population": 738,
      "surface": 5978.13,
      "radius": 4.36
    },
    {
      "nom": "Epiry",
      "code": "58110",
      "codesPostaux": ["58800"],
      "centre": {
        "type": "Point",
        "coordinates": [3.7308, 47.1718]
      },
      "mairie": {
        "type": "Point",
        "coordinates": [3.7242, 47.1845]
      },
      "population": 227,
      "surface": 1220.78,
      "radius": 1.97
    },
    {
      "nom": "Fâchin",
      "code": "58111",
      "codesPostaux": ["58430"],
      "centre": {
        "type": "Point",
        "coordinates": [3.9683, 47.0019]
      },
      "mairie": {
        "type": "Point",
        "coordinates": [3.9673, 47.006]
      },
      "population": 105,
      "surface": 1394.09,
      "radius": 2.11
    },
    {
      "nom": "Fertrève",
      "code": "58113",
      "codesPostaux": ["58270"],
      "centre": {
        "type": "Point",
        "coordinates": [3.5892, 46.9615]
      },
      "mairie": {
        "type": "Point",
        "coordinates": [3.588, 46.9684]
      },
      "population": 92,
      "surface": 2483.21,
      "radius": 2.81
    },
    {
      "nom": "Fléty",
      "code": "58114",
      "codesPostaux": ["58170"],
      "centre": {
        "type": "Point",
        "coordinates": [3.9095, 46.8006]
      },
      "mairie": {
        "type": "Point",
        "coordinates": [3.904, 46.7918]
      },
      "population": 90,
      "surface": 2025,
      "radius": 2.54
    },
    {
      "nom": "Fleury-sur-Loire",
      "code": "58115",
      "codesPostaux": ["58240"],
      "centre": {
        "type": "Point",
        "coordinates": [3.3173, 46.8307]
      },
      "mairie": {
        "type": "Point",
        "coordinates": [3.3191, 46.8359]
      },
      "population": 228,
      "surface": 1984.58,
      "radius": 2.51
    },
    {
      "nom": "Flez-Cuzy",
      "code": "58116",
      "codesPostaux": ["58190"],
      "centre": {
        "type": "Point",
        "coordinates": [3.6315, 47.3592]
      },
      "mairie": {
        "type": "Point",
        "coordinates": [3.6218, 47.3636]
      },
      "population": 133,
      "surface": 596.28,
      "radius": 1.38
    },
    {
      "nom": "Fourchambault",
      "code": "58117",
      "codesPostaux": ["58600"],
      "centre": {
        "type": "Point",
        "coordinates": [3.0932, 47.0159]
      },
      "mairie": {
        "type": "Point",
        "coordinates": [3.0818, 47.0178]
      },
      "population": 4019,
      "surface": 444.97,
      "radius": 1.19
    },
    {
      "nom": "Fours",
      "code": "58118",
      "codesPostaux": ["58250"],
      "centre": {
        "type": "Point",
        "coordinates": [3.722, 46.8114]
      },
      "mairie": {
        "type": "Point",
        "coordinates": [3.719, 46.8177]
      },
      "population": 602,
      "surface": 2578.56,
      "radius": 2.86
    },
    {
      "nom": "Frasnay-Reugny",
      "code": "58119",
      "codesPostaux": ["58270"],
      "centre": {
        "type": "Point",
        "coordinates": [3.5237, 46.9901]
      },
      "mairie": {
        "type": "Point",
        "coordinates": [3.5095, 46.9977]
      },
      "population": 80,
      "surface": 1393.93,
      "radius": 2.11
    },
    {
      "nom": "Gâcogne",
      "code": "58120",
      "codesPostaux": ["58140"],
      "centre": {
        "type": "Point",
        "coordinates": [3.8788, 47.2321]
      },
      "mairie": {
        "type": "Point",
        "coordinates": [3.8727, 47.2293]
      },
      "population": 209,
      "surface": 2560.73,
      "radius": 2.86
    },
    {
      "nom": "Garchizy",
      "code": "58121",
      "codesPostaux": ["58600"],
      "centre": {
        "type": "Point",
        "coordinates": [3.0944, 47.0445]
      },
      "mairie": {
        "type": "Point",
        "coordinates": [3.0952, 47.0465]
      },
      "population": 3666,
      "surface": 1655.37,
      "radius": 2.3
    },
    {
      "nom": "Garchy",
      "code": "58122",
      "codesPostaux": ["58150"],
      "centre": {
        "type": "Point",
        "coordinates": [3.0476, 47.2776]
      },
      "mairie": {
        "type": "Point",
        "coordinates": [3.0706, 47.263]
      },
      "population": 427,
      "surface": 2138.75,
      "radius": 2.61
    },
    {
      "nom": "Germenay",
      "code": "58123",
      "codesPostaux": ["58800"],
      "centre": {
        "type": "Point",
        "coordinates": [3.5993, 47.2886]
      },
      "mairie": {
        "type": "Point",
        "coordinates": [3.594, 47.2835]
      },
      "population": 120,
      "surface": 1292.63,
      "radius": 2.03
    },
    {
      "nom": "Germigny-sur-Loire",
      "code": "58124",
      "codesPostaux": ["58320"],
      "centre": {
        "type": "Point",
        "coordinates": [3.0479, 47.0762]
      },
      "mairie": {
        "type": "Point",
        "coordinates": [3.0407, 47.0812]
      },
      "population": 748,
      "surface": 1888.84,
      "radius": 2.45
    },
    {
      "nom": "Gien-sur-Cure",
      "code": "58125",
      "codesPostaux": ["58230"],
      "centre": {
        "type": "Point",
        "coordinates": [4.0892, 47.1425]
      },
      "mairie": {
        "type": "Point",
        "coordinates": [4.0988, 47.1367]
      },
      "population": 90,
      "surface": 1102.38,
      "radius": 1.87
    },
    {
      "nom": "Gimouille",
      "code": "58126",
      "codesPostaux": ["58470"],
      "centre": {
        "type": "Point",
        "coordinates": [3.0942, 46.9397]
      },
      "mairie": {
        "type": "Point",
        "coordinates": [3.0847, 46.9433]
      },
      "population": 414,
      "surface": 1419.23,
      "radius": 2.13
    },
    {
      "nom": "Giry",
      "code": "58127",
      "codesPostaux": ["58700"],
      "centre": {
        "type": "Point",
        "coordinates": [3.3305, 47.2152]
      },
      "mairie": {
        "type": "Point",
        "coordinates": [3.3653, 47.2206]
      },
      "population": 188,
      "surface": 2379.37,
      "radius": 2.75
    },
    {
      "nom": "Glux-en-Glenne",
      "code": "58128",
      "codesPostaux": ["58370"],
      "centre": {
        "type": "Point",
        "coordinates": [4.019, 46.9541]
      },
      "mairie": {
        "type": "Point",
        "coordinates": [4.029, 46.9573]
      },
      "population": 87,
      "surface": 2196.78,
      "radius": 2.64
    },
    {
      "nom": "Gouloux",
      "code": "58129",
      "codesPostaux": ["58230"],
      "centre": {
        "type": "Point",
        "coordinates": [4.0843, 47.2314]
      },
      "mairie": {
        "type": "Point",
        "coordinates": [4.0761, 47.239]
      },
      "population": 161,
      "surface": 2192.74,
      "radius": 2.64
    },
    {
      "nom": "Grenois",
      "code": "58130",
      "codesPostaux": ["58420"],
      "centre": {
        "type": "Point",
        "coordinates": [3.52, 47.3183]
      },
      "mairie": {
        "type": "Point",
        "coordinates": [3.5279, 47.3192]
      },
      "population": 93,
      "surface": 1449.83,
      "radius": 2.15
    },
    {
      "nom": "Guérigny",
      "code": "58131",
      "codesPostaux": ["58130"],
      "centre": {
        "type": "Point",
        "coordinates": [3.2177, 47.0972]
      },
      "mairie": {
        "type": "Point",
        "coordinates": [3.1941, 47.0875]
      },
      "population": 2512,
      "surface": 747.09,
      "radius": 1.54
    },
    {
      "nom": "Guipy",
      "code": "58132",
      "codesPostaux": ["58420"],
      "centre": {
        "type": "Point",
        "coordinates": [3.5825, 47.228]
      },
      "mairie": {
        "type": "Point",
        "coordinates": [3.5787, 47.2293]
      },
      "population": 226,
      "surface": 1845.51,
      "radius": 2.42
    },
    {
      "nom": "Héry",
      "code": "58133",
      "codesPostaux": ["58800"],
      "centre": {
        "type": "Point",
        "coordinates": [3.5932, 47.2617]
      },
      "mairie": {
        "type": "Point",
        "coordinates": [3.5817, 47.2609]
      },
      "population": 73,
      "surface": 779.99,
      "radius": 1.58
    },
    {
      "nom": "Imphy",
      "code": "58134",
      "codesPostaux": ["58160"],
      "centre": {
        "type": "Point",
        "coordinates": [3.2815, 46.9366]
      },
      "mairie": {
        "type": "Point",
        "coordinates": [3.2603, 46.9337]
      },
      "population": 3175,
      "surface": 1659.02,
      "radius": 2.3
    },
    {
      "nom": "Isenay",
      "code": "58135",
      "codesPostaux": ["58290"],
      "centre": {
        "type": "Point",
        "coordinates": [3.7127, 46.9124]
      },
      "mairie": {
        "type": "Point",
        "coordinates": [3.7065, 46.9024]
      },
      "population": 102,
      "surface": 2050.77,
      "radius": 2.55
    },
    {
      "nom": "Jailly",
      "code": "58136",
      "codesPostaux": ["58330"],
      "centre": {
        "type": "Point",
        "coordinates": [3.4693, 47.0853]
      },
      "mairie": {
        "type": "Point",
        "coordinates": [3.4775, 47.0965]
      },
      "population": 67,
      "surface": 1091.8,
      "radius": 1.86
    },
    {
      "nom": "La Celle-sur-Loire",
      "code": "58044",
      "codesPostaux": ["58440"],
      "centre": {
        "type": "Point",
        "coordinates": [2.9403, 47.4835]
      },
      "mairie": {
        "type": "Point",
        "coordinates": [2.9287, 47.4742]
      },
      "population": 786,
      "surface": 2172.39,
      "radius": 2.63
    },
    {
      "nom": "La Celle-sur-Nièvre",
      "code": "58045",
      "codesPostaux": ["58700"],
      "centre": {
        "type": "Point",
        "coordinates": [3.2005, 47.2174]
      },
      "mairie": {
        "type": "Point",
        "coordinates": [3.2195, 47.2061]
      },
      "population": 155,
      "surface": 1303.99,
      "radius": 2.04
    },
    {
      "nom": "La Chapelle-Saint-André",
      "code": "58058",
      "codesPostaux": ["58210"],
      "centre": {
        "type": "Point",
        "coordinates": [3.3254, 47.3998]
      },
      "mairie": {
        "type": "Point",
        "coordinates": [3.3445, 47.3944]
      },
      "population": 305,
      "surface": 2730.23,
      "radius": 2.95
    },
    {
      "nom": "La Charité-sur-Loire",
      "code": "58059",
      "codesPostaux": ["58400"],
      "centre": {
        "type": "Point",
        "coordinates": [3.0291, 47.183]
      },
      "mairie": {
        "type": "Point",
        "coordinates": [3.0183, 47.1771]
      },
      "population": 4701,
      "surface": 1582.66,
      "radius": 2.24
    },
    {
      "nom": "La Collancelle",
      "code": "58080",
      "codesPostaux": ["58800"],
      "centre": {
        "type": "Point",
        "coordinates": [3.6453, 47.1779]
      },
      "mairie": {
        "type": "Point",
        "coordinates": [3.6419, 47.1746]
      },
      "population": 161,
      "surface": 2344.18,
      "radius": 2.73
    },
    {
      "nom": "La Fermeté",
      "code": "58112",
      "codesPostaux": ["58160"],
      "centre": {
        "type": "Point",
        "coordinates": [3.3295, 46.9587]
      },
      "mairie": {
        "type": "Point",
        "coordinates": [3.333, 46.967]
      },
      "population": 622,
      "surface": 3564.61,
      "radius": 3.37
    },
    {
      "nom": "La Machine",
      "code": "58151",
      "codesPostaux": ["58260"],
      "centre": {
        "type": "Point",
        "coordinates": [3.4617, 46.8875]
      },
      "mairie": {
        "type": "Point",
        "coordinates": [3.4671, 46.8889]
      },
      "population": 3213,
      "surface": 1812.68,
      "radius": 2.4
    },
    {
      "nom": "La Maison-Dieu",
      "code": "58154",
      "codesPostaux": ["58190"],
      "centre": {
        "type": "Point",
        "coordinates": [3.6704, 47.4255]
      },
      "mairie": {
        "type": "Point",
        "coordinates": [3.6475, 47.4138]
      },
      "population": 113,
      "surface": 1384.64,
      "radius": 2.1
    },
    {
      "nom": "La Marche",
      "code": "58155",
      "codesPostaux": ["58400"],
      "centre": {
        "type": "Point",
        "coordinates": [3.0453, 47.148]
      },
      "mairie": {
        "type": "Point",
        "coordinates": [3.0354, 47.1388]
      },
      "population": 525,
      "surface": 1084.18,
      "radius": 1.86
    },
    {
      "nom": "La Nocle-Maulaix",
      "code": "58195",
      "codesPostaux": ["58250"],
      "centre": {
        "type": "Point",
        "coordinates": [3.7531, 46.7636]
      },
      "mairie": {
        "type": "Point",
        "coordinates": [3.7816, 46.7639]
      },
      "population": 270,
      "surface": 3263.9,
      "radius": 3.22
    },
    {
      "nom": "Lamenay-sur-Loire",
      "code": "58137",
      "codesPostaux": ["58300"],
      "centre": {
        "type": "Point",
        "coordinates": [3.5788, 46.7459]
      },
      "mairie": {
        "type": "Point",
        "coordinates": [3.5622, 46.762]
      },
      "population": 68,
      "surface": 1202.25,
      "radius": 1.96
    },
    {
      "nom": "Langeron",
      "code": "58138",
      "codesPostaux": ["58240"],
      "centre": {
        "type": "Point",
        "coordinates": [3.0832, 46.818]
      },
      "mairie": {
        "type": "Point",
        "coordinates": [3.0843, 46.8113]
      },
      "population": 343,
      "surface": 2032.62,
      "radius": 2.54
    },
    {
      "nom": "Lanty",
      "code": "58139",
      "codesPostaux": ["58250"],
      "centre": {
        "type": "Point",
        "coordinates": [3.8288, 46.8085]
      },
      "mairie": {
        "type": "Point",
        "coordinates": [3.8394, 46.8089]
      },
      "population": 122,
      "surface": 1209.23,
      "radius": 1.96
    },
    {
      "nom": "Larochemillay",
      "code": "58140",
      "codesPostaux": ["58370"],
      "centre": {
        "type": "Point",
        "coordinates": [3.9836, 46.8855]
      },
      "mairie": {
        "type": "Point",
        "coordinates": [4.0036, 46.8754]
      },
      "population": 228,
      "surface": 4039.16,
      "radius": 3.59
    },
    {
      "nom": "Lavault-de-Frétoy",
      "code": "58141",
      "codesPostaux": ["58230"],
      "centre": {
        "type": "Point",
        "coordinates": [4.0162, 47.1024]
      },
      "mairie": {
        "type": "Point",
        "coordinates": [4.0115, 47.1064]
      },
      "population": 69,
      "surface": 1527.27,
      "radius": 2.2
    },
    {
      "nom": "Limanton",
      "code": "58142",
      "codesPostaux": ["58290"],
      "centre": {
        "type": "Point",
        "coordinates": [3.7344, 46.9835]
      },
      "mairie": {
        "type": "Point",
        "coordinates": [3.7377, 46.9882]
      },
      "population": 241,
      "surface": 4690.82,
      "radius": 3.86
    },
    {
      "nom": "Limon",
      "code": "58143",
      "codesPostaux": ["58270"],
      "centre": {
        "type": "Point",
        "coordinates": [3.3945, 46.9649]
      },
      "mairie": {
        "type": "Point",
        "coordinates": [3.3789, 46.9686]
      },
      "population": 145,
      "surface": 806.79,
      "radius": 1.6
    },
    {
      "nom": "Livry",
      "code": "58144",
      "codesPostaux": ["58240"],
      "centre": {
        "type": "Point",
        "coordinates": [3.072, 46.7714]
      },
      "mairie": {
        "type": "Point",
        "coordinates": [3.0746, 46.7751]
      },
      "population": 646,
      "surface": 2696.53,
      "radius": 2.93
    },
    {
      "nom": "Lormes",
      "code": "58145",
      "codesPostaux": ["58140"],
      "centre": {
        "type": "Point",
        "coordinates": [3.827, 47.2941]
      },
      "mairie": {
        "type": "Point",
        "coordinates": [3.8187, 47.2891]
      },
      "population": 1259,
      "surface": 5197.8,
      "radius": 4.07
    },
    {
      "nom": "Lucenay-lès-Aix",
      "code": "58146",
      "codesPostaux": ["58380"],
      "centre": {
        "type": "Point",
        "coordinates": [3.4947, 46.694]
      },
      "mairie": {
        "type": "Point",
        "coordinates": [3.4842, 46.7034]
      },
      "population": 951,
      "surface": 5593.22,
      "radius": 4.22
    },
    {
      "nom": "Lurcy-le-Bourg",
      "code": "58147",
      "codesPostaux": ["58700"],
      "centre": {
        "type": "Point",
        "coordinates": [3.3962, 47.167]
      },
      "mairie": {
        "type": "Point",
        "coordinates": [3.3855, 47.1607]
      },
      "population": 274,
      "surface": 2278.28,
      "radius": 2.69
    },
    {
      "nom": "Luthenay-Uxeloup",
      "code": "58148",
      "codesPostaux": ["58240"],
      "centre": {
        "type": "Point",
        "coordinates": [3.2686, 46.8583]
      },
      "mairie": {
        "type": "Point",
        "coordinates": [3.2608, 46.8511]
      },
      "population": 607,
      "surface": 3898.46,
      "radius": 3.52
    },
    {
      "nom": "Luzy",
      "code": "58149",
      "codesPostaux": ["58170"],
      "centre": {
        "type": "Point",
        "coordinates": [3.9929, 46.7986]
      },
      "mairie": {
        "type": "Point",
        "coordinates": [3.971, 46.7895]
      },
      "population": 1983,
      "surface": 4196.48,
      "radius": 3.65
    },
    {
      "nom": "Lys",
      "code": "58150",
      "codesPostaux": ["58190"],
      "centre": {
        "type": "Point",
        "coordinates": [3.6003, 47.3361]
      },
      "mairie": {
        "type": "Point",
        "coordinates": [3.5974, 47.3446]
      },
      "population": 105,
      "surface": 1076.44,
      "radius": 1.85
    },
    {
      "nom": "Magny-Cours",
      "code": "58152",
      "codesPostaux": ["58470"],
      "centre": {
        "type": "Point",
        "coordinates": [3.1562, 46.8906]
      },
      "mairie": {
        "type": "Point",
        "coordinates": [3.1519, 46.8824]
      },
      "population": 1417,
      "surface": 3221.75,
      "radius": 3.2
    },
    {
      "nom": "Magny-Lormes",
      "code": "58153",
      "codesPostaux": ["58800"],
      "centre": {
        "type": "Point",
        "coordinates": [3.7479, 47.2904]
      },
      "mairie": {
        "type": "Point",
        "coordinates": [3.7539, 47.2994]
      },
      "population": 68,
      "surface": 843.67,
      "radius": 1.64
    },
    {
      "nom": "Marcy",
      "code": "58156",
      "codesPostaux": ["58210"],
      "centre": {
        "type": "Point",
        "coordinates": [3.3997, 47.3203]
      },
      "mairie": {
        "type": "Point",
        "coordinates": [3.4084, 47.3205]
      },
      "population": 139,
      "surface": 1459.91,
      "radius": 2.16
    },
    {
      "nom": "Marigny-l'Église",
      "code": "58157",
      "codesPostaux": ["58140"],
      "centre": {
        "type": "Point",
        "coordinates": [3.9346, 47.3445]
      },
      "mairie": {
        "type": "Point",
        "coordinates": [3.9367, 47.3558]
      },
      "population": 276,
      "surface": 3990.66,
      "radius": 3.56
    },
    {
      "nom": "Marigny-sur-Yonne",
      "code": "58159",
      "codesPostaux": ["58800"],
      "centre": {
        "type": "Point",
        "coordinates": [3.643, 47.2871]
      },
      "mairie": {
        "type": "Point",
        "coordinates": [3.6507, 47.2831]
      },
      "population": 191,
      "surface": 1131.11,
      "radius": 1.9
    },
    {
      "nom": "Mars-sur-Allier",
      "code": "58158",
      "codesPostaux": ["58240"],
      "centre": {
        "type": "Point",
        "coordinates": [3.0879, 46.8597]
      },
      "mairie": {
        "type": "Point",
        "coordinates": [3.0881, 46.8562]
      },
      "population": 300,
      "surface": 2118.78,
      "radius": 2.6
    },
    {
      "nom": "Marzy",
      "code": "58160",
      "codesPostaux": ["58180"],
      "centre": {
        "type": "Point",
        "coordinates": [3.0942, 46.9865]
      },
      "mairie": {
        "type": "Point",
        "coordinates": [3.0934, 46.9806]
      },
      "population": 3650,
      "surface": 2160.8,
      "radius": 2.62
    },
    {
      "nom": "Maux",
      "code": "58161",
      "codesPostaux": ["58290"],
      "centre": {
        "type": "Point",
        "coordinates": [3.7729, 47.0405]
      },
      "mairie": {
        "type": "Point",
        "coordinates": [3.7787, 47.0501]
      },
      "population": 146,
      "surface": 2279.04,
      "radius": 2.69
    },
    {
      "nom": "Menestreau",
      "code": "58162",
      "codesPostaux": ["58410"],
      "centre": {
        "type": "Point",
        "coordinates": [3.2638, 47.4115]
      },
      "mairie": {
        "type": "Point",
        "coordinates": [3.2544, 47.4167]
      },
      "population": 96,
      "surface": 1944.15,
      "radius": 2.49
    },
    {
      "nom": "Menou",
      "code": "58163",
      "codesPostaux": ["58210"],
      "centre": {
        "type": "Point",
        "coordinates": [3.2817, 47.3664]
      },
      "mairie": {
        "type": "Point",
        "coordinates": [3.2786, 47.3669]
      },
      "population": 182,
      "surface": 1757.99,
      "radius": 2.37
    },
    {
      "nom": "Mesves-sur-Loire",
      "code": "58164",
      "codesPostaux": ["58400"],
      "centre": {
        "type": "Point",
        "coordinates": [3.0089, 47.2329]
      },
      "mairie": {
        "type": "Point",
        "coordinates": [2.9938, 47.2452]
      },
      "population": 656,
      "surface": 1894.23,
      "radius": 2.46
    },
    {
      "nom": "Metz-le-Comte",
      "code": "58165",
      "codesPostaux": ["58190"],
      "centre": {
        "type": "Point",
        "coordinates": [3.6405, 47.3925]
      },
      "mairie": {
        "type": "Point",
        "coordinates": [3.6397, 47.3915]
      },
      "population": 178,
      "surface": 1440.48,
      "radius": 2.14
    },
    {
      "nom": "Mhère",
      "code": "58166",
      "codesPostaux": ["58140"],
      "centre": {
        "type": "Point",
        "coordinates": [3.8611, 47.1946]
      },
      "mairie": {
        "type": "Point",
        "coordinates": [3.8563, 47.2073]
      },
      "population": 229,
      "surface": 2519.36,
      "radius": 2.83
    },
    {
      "nom": "Millay",
      "code": "58168",
      "codesPostaux": ["58170"],
      "centre": {
        "type": "Point",
        "coordinates": [3.9813, 46.8363]
      },
      "mairie": {
        "type": "Point",
        "coordinates": [4.0028, 46.8417]
      },
      "population": 439,
      "surface": 3742.75,
      "radius": 3.45
    },
    {
      "nom": "Moissy-Moulinot",
      "code": "58169",
      "codesPostaux": ["58190"],
      "centre": {
        "type": "Point",
        "coordinates": [3.7053, 47.3275]
      },
      "mairie": {
        "type": "Point",
        "coordinates": [3.698, 47.3311]
      },
      "population": 13,
      "surface": 286.79,
      "radius": 0.96
    },
    {
      "nom": "Monceaux-le-Comte",
      "code": "58170",
      "codesPostaux": ["58190"],
      "centre": {
        "type": "Point",
        "coordinates": [3.6637, 47.331]
      },
      "mairie": {
        "type": "Point",
        "coordinates": [3.6621, 47.3288]
      },
      "population": 126,
      "surface": 334.54,
      "radius": 1.03
    },
    {
      "nom": "Mont-et-Marré",
      "code": "58175",
      "codesPostaux": ["58110"],
      "centre": {
        "type": "Point",
        "coordinates": [3.6432, 47.0902]
      },
      "mairie": {
        "type": "Point",
        "coordinates": [3.6388, 47.0914]
      },
      "population": 152,
      "surface": 1821.33,
      "radius": 2.41
    },
    {
      "nom": "Montambert",
      "code": "58172",
      "codesPostaux": ["58250"],
      "centre": {
        "type": "Point",
        "coordinates": [3.689, 46.7736]
      },
      "mairie": {
        "type": "Point",
        "coordinates": [3.6763, 46.7701]
      },
      "population": 116,
      "surface": 2628.17,
      "radius": 2.89
    },
    {
      "nom": "Montapas",
      "code": "58171",
      "codesPostaux": ["58110"],
      "centre": {
        "type": "Point",
        "coordinates": [3.5852, 47.0816]
      },
      "mairie": {
        "type": "Point",
        "coordinates": [3.6001, 47.0819]
      },
      "population": 275,
      "surface": 2379.01,
      "radius": 2.75
    },
    {
      "nom": "Montaron",
      "code": "58173",
      "codesPostaux": ["58250"],
      "centre": {
        "type": "Point",
        "coordinates": [3.7476, 46.8803]
      },
      "mairie": {
        "type": "Point",
        "coordinates": [3.7462, 46.8866]
      },
      "population": 159,
      "surface": 3392.15,
      "radius": 3.29
    },
    {
      "nom": "Montenoison",
      "code": "58174",
      "codesPostaux": ["58700"],
      "centre": {
        "type": "Point",
        "coordinates": [3.4173, 47.2151]
      },
      "mairie": {
        "type": "Point",
        "coordinates": [3.4272, 47.2153]
      },
      "population": 124,
      "surface": 1680.02,
      "radius": 2.31
    },
    {
      "nom": "Montigny-aux-Amognes",
      "code": "58176",
      "codesPostaux": ["58130"],
      "centre": {
        "type": "Point",
        "coordinates": [3.2792, 47.0243]
      },
      "mairie": {
        "type": "Point",
        "coordinates": [3.2921, 47.0266]
      },
      "population": 632,
      "surface": 2514.69,
      "radius": 2.83
    },
    {
      "nom": "Montigny-en-Morvan",
      "code": "58177",
      "codesPostaux": ["58120"],
      "centre": {
        "type": "Point",
        "coordinates": [3.8603, 47.1422]
      },
      "mairie": {
        "type": "Point",
        "coordinates": [3.8551, 47.1443]
      },
      "population": 297,
      "surface": 2135.59,
      "radius": 2.61
    },
    {
      "nom": "Montigny-sur-Canne",
      "code": "58178",
      "codesPostaux": ["58340"],
      "centre": {
        "type": "Point",
        "coordinates": [3.6504, 46.9458]
      },
      "mairie": {
        "type": "Point",
        "coordinates": [3.6542, 46.9325]
      },
      "population": 154,
      "surface": 3065.38,
      "radius": 3.12
    },
    {
      "nom": "Montreuillon",
      "code": "58179",
      "codesPostaux": ["58800"],
      "centre": {
        "type": "Point",
        "coordinates": [3.7935, 47.168]
      },
      "mairie": {
        "type": "Point",
        "coordinates": [3.7883, 47.1734]
      },
      "population": 248,
      "surface": 3572.25,
      "radius": 3.37
    },
    {
      "nom": "Montsauche-les-Settons",
      "code": "58180",
      "codesPostaux": ["58230"],
      "centre": {
        "type": "Point",
        "coordinates": [4.0395, 47.2179]
      },
      "mairie": {
        "type": "Point",
        "coordinates": [4.0245, 47.216]
      },
      "population": 497,
      "surface": 4634.41,
      "radius": 3.84
    },
    {
      "nom": "Moraches",
      "code": "58181",
      "codesPostaux": ["58420"],
      "centre": {
        "type": "Point",
        "coordinates": [3.5443, 47.2854]
      },
      "mairie": {
        "type": "Point",
        "coordinates": [3.5453, 47.282]
      },
      "population": 130,
      "surface": 1501.76,
      "radius": 2.19
    },
    {
      "nom": "Moulins-Engilbert",
      "code": "58182",
      "codesPostaux": ["58290"],
      "centre": {
        "type": "Point",
        "coordinates": [3.8216, 46.9759]
      },
      "mairie": {
        "type": "Point",
        "coordinates": [3.8095, 46.988]
      },
      "population": 1354,
      "surface": 4146.91,
      "radius": 3.63
    },
    {
      "nom": "Mouron-sur-Yonne",
      "code": "58183",
      "codesPostaux": ["58800"],
      "centre": {
        "type": "Point",
        "coordinates": [3.7372, 47.1965]
      },
      "mairie": {
        "type": "Point",
        "coordinates": [3.74, 47.1901]
      },
      "population": 88,
      "surface": 1101.68,
      "radius": 1.87
    },
    {
      "nom": "Moussy",
      "code": "58184",
      "codesPostaux": ["58700"],
      "centre": {
        "type": "Point",
        "coordinates": [3.4581, 47.197]
      },
      "mairie": {
        "type": "Point",
        "coordinates": [3.4551, 47.1924]
      },
      "population": 108,
      "surface": 1200.43,
      "radius": 1.95
    },
    {
      "nom": "Moux-en-Morvan",
      "code": "58185",
      "codesPostaux": ["58230"],
      "centre": {
        "type": "Point",
        "coordinates": [4.1258, 47.1714]
      },
      "mairie": {
        "type": "Point",
        "coordinates": [4.1534, 47.1717]
      },
      "population": 534,
      "surface": 4460.53,
      "radius": 3.77
    },
    {
      "nom": "Murlin",
      "code": "58186",
      "codesPostaux": ["58700"],
      "centre": {
        "type": "Point",
        "coordinates": [3.1729, 47.1955]
      },
      "mairie": {
        "type": "Point",
        "coordinates": [3.1796, 47.2022]
      },
      "population": 57,
      "surface": 1509.14,
      "radius": 2.19
    },
    {
      "nom": "Myennes",
      "code": "58187",
      "codesPostaux": ["58440"],
      "centre": {
        "type": "Point",
        "coordinates": [2.9449, 47.4549]
      },
      "mairie": {
        "type": "Point",
        "coordinates": [2.9324, 47.4474]
      },
      "population": 536,
      "surface": 716.63,
      "radius": 1.51
    },
    {
      "nom": "Nannay",
      "code": "58188",
      "codesPostaux": ["58350"],
      "centre": {
        "type": "Point",
        "coordinates": [3.1705, 47.2615]
      },
      "mairie": {
        "type": "Point",
        "coordinates": [3.1911, 47.2621]
      },
      "population": 111,
      "surface": 1145.76,
      "radius": 1.91
    },
    {
      "nom": "Narcy",
      "code": "58189",
      "codesPostaux": ["58400"],
      "centre": {
        "type": "Point",
        "coordinates": [3.0989, 47.2308]
      },
      "mairie": {
        "type": "Point",
        "coordinates": [3.0675, 47.2347]
      },
      "population": 467,
      "surface": 2959.72,
      "radius": 3.07
    },
    {
      "nom": "Neuffontaines",
      "code": "58190",
      "codesPostaux": ["58190"],
      "centre": {
        "type": "Point",
        "coordinates": [3.7335, 47.3536]
      },
      "mairie": {
        "type": "Point",
        "coordinates": [3.7382, 47.3394]
      },
      "population": 93,
      "surface": 1463.89,
      "radius": 2.16
    },
    {
      "nom": "Neuilly",
      "code": "58191",
      "codesPostaux": ["58420"],
      "centre": {
        "type": "Point",
        "coordinates": [3.521, 47.2449]
      },
      "mairie": {
        "type": "Point",
        "coordinates": [3.5009, 47.2392]
      },
      "population": 109,
      "surface": 1407.84,
      "radius": 2.12
    },
    {
      "nom": "Neuville-lès-Decize",
      "code": "58192",
      "codesPostaux": ["58300"],
      "centre": {
        "type": "Point",
        "coordinates": [3.2981, 46.7755]
      },
      "mairie": {
        "type": "Point",
        "coordinates": [3.315, 46.7695]
      },
      "population": 211,
      "surface": 2707.96,
      "radius": 2.94
    },
    {
      "nom": "Neuvy-sur-Loire",
      "code": "58193",
      "codesPostaux": ["58450"],
      "centre": {
        "type": "Point",
        "coordinates": [2.8866, 47.5294]
      },
      "mairie": {
        "type": "Point",
        "coordinates": [2.8813, 47.5232]
      },
      "population": 1428,
      "surface": 2087.33,
      "radius": 2.58
    },
    {
      "nom": "Nevers",
      "code": "58194",
      "codesPostaux": ["58000"],
      "centre": {
        "type": "Point",
        "coordinates": [3.1598, 46.9852]
      },
      "mairie": {
        "type": "Point",
        "coordinates": [3.1576, 46.9879]
      },
      "population": 33172,
      "surface": 1740.69,
      "radius": 2.35
    },
    {
      "nom": "Nolay",
      "code": "58196",
      "codesPostaux": ["58700"],
      "centre": {
        "type": "Point",
        "coordinates": [3.3197, 47.1178]
      },
      "mairie": {
        "type": "Point",
        "coordinates": [3.3249, 47.1201]
      },
      "population": 346,
      "surface": 4298.02,
      "radius": 3.7
    },
    {
      "nom": "Nuars",
      "code": "58197",
      "codesPostaux": ["58190"],
      "centre": {
        "type": "Point",
        "coordinates": [3.7144, 47.3881]
      },
      "mairie": {
        "type": "Point",
        "coordinates": [3.6926, 47.3844]
      },
      "population": 169,
      "surface": 1581.95,
      "radius": 2.24
    },
    {
      "nom": "Oisy",
      "code": "58198",
      "codesPostaux": ["58500"],
      "centre": {
        "type": "Point",
        "coordinates": [3.4461, 47.4717]
      },
      "mairie": {
        "type": "Point",
        "coordinates": [3.4445, 47.469]
      },
      "population": 304,
      "surface": 1738.03,
      "radius": 2.35
    },
    {
      "nom": "Onlay",
      "code": "58199",
      "codesPostaux": ["58370"],
      "centre": {
        "type": "Point",
        "coordinates": [3.8967, 46.9659]
      },
      "mairie": {
        "type": "Point",
        "coordinates": [3.8949, 46.9644]
      },
      "population": 162,
      "surface": 1977.6,
      "radius": 2.51
    },
    {
      "nom": "Ouagne",
      "code": "58200",
      "codesPostaux": ["58500"],
      "centre": {
        "type": "Point",
        "coordinates": [3.5016, 47.4025]
      },
      "mairie": {
        "type": "Point",
        "coordinates": [3.4948, 47.3975]
      },
      "population": 148,
      "surface": 1180.82,
      "radius": 1.94
    },
    {
      "nom": "Oudan",
      "code": "58201",
      "codesPostaux": ["58210"],
      "centre": {
        "type": "Point",
        "coordinates": [3.3292, 47.3419]
      },
      "mairie": {
        "type": "Point",
        "coordinates": [3.3494, 47.3467]
      },
      "population": 138,
      "surface": 2008.58,
      "radius": 2.53
    },
    {
      "nom": "Ougny",
      "code": "58202",
      "codesPostaux": ["58110"],
      "centre": {
        "type": "Point",
        "coordinates": [3.7103, 47.0751]
      },
      "mairie": {
        "type": "Point",
        "coordinates": [3.7091, 47.0751]
      },
      "population": 27,
      "surface": 815.86,
      "radius": 1.61
    },
    {
      "nom": "Oulon",
      "code": "58203",
      "codesPostaux": ["58700"],
      "centre": {
        "type": "Point",
        "coordinates": [3.4035, 47.1966]
      },
      "mairie": {
        "type": "Point",
        "coordinates": [3.3969, 47.1998]
      },
      "population": 64,
      "surface": 1100.13,
      "radius": 1.87
    },
    {
      "nom": "Ouroux-en-Morvan",
      "code": "58205",
      "codesPostaux": ["58230"],
      "centre": {
        "type": "Point",
        "coordinates": [3.9483, 47.1917]
      },
      "mairie": {
        "type": "Point",
        "coordinates": [3.9469, 47.1852]
      },
      "population": 596,
      "surface": 6066.34,
      "radius": 4.39
    },
    {
      "nom": "Parigny-la-Rose",
      "code": "58206",
      "codesPostaux": ["58210"],
      "centre": {
        "type": "Point",
        "coordinates": [3.4577, 47.3318]
      },
      "mairie": {
        "type": "Point",
        "coordinates": [3.4434, 47.3269]
      },
      "population": 33,
      "surface": 885.06,
      "radius": 1.68
    },
    {
      "nom": "Parigny-les-Vaux",
      "code": "58207",
      "codesPostaux": ["58320"],
      "centre": {
        "type": "Point",
        "coordinates": [3.141, 47.102]
      },
      "mairie": {
        "type": "Point",
        "coordinates": [3.1471, 47.0908]
      },
      "population": 965,
      "surface": 3140.79,
      "radius": 3.16
    },
    {
      "nom": "Pazy",
      "code": "58208",
      "codesPostaux": ["58800"],
      "centre": {
        "type": "Point",
        "coordinates": [3.6353, 47.2329]
      },
      "mairie": {
        "type": "Point",
        "coordinates": [3.6262, 47.2301]
      },
      "population": 293,
      "surface": 2208.88,
      "radius": 2.65
    },
    {
      "nom": "Perroy",
      "code": "58209",
      "codesPostaux": ["58220"],
      "centre": {
        "type": "Point",
        "coordinates": [3.1597, 47.4014]
      },
      "mairie": {
        "type": "Point",
        "coordinates": [3.1611, 47.3987]
      },
      "population": 148,
      "surface": 2169.98,
      "radius": 2.63
    },
    {
      "nom": "Planchez",
      "code": "58210",
      "codesPostaux": ["58230"],
      "centre": {
        "type": "Point",
        "coordinates": [4.0241, 47.1483]
      },
      "mairie": {
        "type": "Point",
        "coordinates": [4.0173, 47.1372]
      },
      "population": 308,
      "surface": 4395.07,
      "radius": 3.74
    },
    {
      "nom": "Poil",
      "code": "58211",
      "codesPostaux": ["58170"],
      "centre": {
        "type": "Point",
        "coordinates": [4.0559, 46.8704]
      },
      "mairie": {
        "type": "Point",
        "coordinates": [4.0701, 46.868]
      },
      "population": 151,
      "surface": 2702.51,
      "radius": 2.93
    },
    {
      "nom": "Poiseux",
      "code": "58212",
      "codesPostaux": ["58130"],
      "centre": {
        "type": "Point",
        "coordinates": [3.2413, 47.1251]
      },
      "mairie": {
        "type": "Point",
        "coordinates": [3.2307, 47.1194]
      },
      "population": 329,
      "surface": 3065.48,
      "radius": 3.12
    },
    {
      "nom": "Pougny",
      "code": "58213",
      "codesPostaux": ["58200"],
      "centre": {
        "type": "Point",
        "coordinates": [3.0251, 47.3965]
      },
      "mairie": {
        "type": "Point",
        "coordinates": [3.003, 47.3843]
      },
      "population": 473,
      "surface": 1925.49,
      "radius": 2.48
    },
    {
      "nom": "Pougues-les-Eaux",
      "code": "58214",
      "codesPostaux": ["58320"],
      "centre": {
        "type": "Point",
        "coordinates": [3.0944, 47.0763]
      },
      "mairie": {
        "type": "Point",
        "coordinates": [3.1015, 47.0727]
      },
      "population": 2388,
      "surface": 1302.87,
      "radius": 2.04
    },
    {
      "nom": "Pouilly-sur-Loire",
      "code": "58215",
      "codesPostaux": ["58150"],
      "centre": {
        "type": "Point",
        "coordinates": [2.9799, 47.2815]
      },
      "mairie": {
        "type": "Point",
        "coordinates": [2.9556, 47.2839]
      },
      "population": 1623,
      "surface": 1989.92,
      "radius": 2.52
    },
    {
      "nom": "Pouques-Lormes",
      "code": "58216",
      "codesPostaux": ["58140"],
      "centre": {
        "type": "Point",
        "coordinates": [3.7742, 47.3259]
      },
      "mairie": {
        "type": "Point",
        "coordinates": [3.7785, 47.3225]
      },
      "population": 142,
      "surface": 1414.11,
      "radius": 2.12
    },
    {
      "nom": "Pousseaux",
      "code": "58217",
      "codesPostaux": ["58500"],
      "centre": {
        "type": "Point",
        "coordinates": [3.5446, 47.4974]
      },
      "mairie": {
        "type": "Point",
        "coordinates": [3.5273, 47.5147]
      },
      "population": 190,
      "surface": 1112.94,
      "radius": 1.88
    },
    {
      "nom": "Prémery",
      "code": "58218",
      "codesPostaux": ["58700"],
      "centre": {
        "type": "Point",
        "coordinates": [3.3205, 47.168]
      },
      "mairie": {
        "type": "Point",
        "coordinates": [3.3306, 47.1753]
      },
      "population": 1782,
      "surface": 4570.19,
      "radius": 3.81
    },
    {
      "nom": "Préporché",
      "code": "58219",
      "codesPostaux": ["58360"],
      "centre": {
        "type": "Point",
        "coordinates": [3.861, 46.9406]
      },
      "mairie": {
        "type": "Point",
        "coordinates": [3.8541, 46.922]
      },
      "population": 209,
      "surface": 2970.11,
      "radius": 3.07
    },
    {
      "nom": "Raveau",
      "code": "58220",
      "codesPostaux": ["58400"],
      "centre": {
        "type": "Point",
        "coordinates": [3.1161, 47.1832]
      },
      "mairie": {
        "type": "Point",
        "coordinates": [3.0767, 47.1857]
      },
      "population": 611,
      "surface": 3605.22,
      "radius": 3.39
    },
    {
      "nom": "Rémilly",
      "code": "58221",
      "codesPostaux": ["58250"],
      "centre": {
        "type": "Point",
        "coordinates": [3.7932, 46.8304]
      },
      "mairie": {
        "type": "Point",
        "coordinates": [3.8134, 46.8185]
      },
      "population": 155,
      "surface": 3631.5,
      "radius": 3.4
    },
    {
      "nom": "Rix",
      "code": "58222",
      "codesPostaux": ["58500"],
      "centre": {
        "type": "Point",
        "coordinates": [3.4963, 47.4265]
      },
      "mairie": {
        "type": "Point",
        "coordinates": [3.4971, 47.4303]
      },
      "population": 153,
      "surface": 398.86,
      "radius": 1.13
    },
    {
      "nom": "Rouy",
      "code": "58223",
      "codesPostaux": ["58110"],
      "centre": {
        "type": "Point",
        "coordinates": [3.5365, 47.0395]
      },
      "mairie": {
        "type": "Point",
        "coordinates": [3.5332, 47.0267]
      },
      "population": 646,
      "surface": 3616.75,
      "radius": 3.39
    },
    {
      "nom": "Ruages",
      "code": "58224",
      "codesPostaux": ["58190"],
      "centre": {
        "type": "Point",
        "coordinates": [3.6831, 47.3097]
      },
      "mairie": {
        "type": "Point",
        "coordinates": [3.679, 47.3161]
      },
      "population": 85,
      "surface": 1046.4,
      "radius": 1.83
    },
    {
      "nom": "Saincaize-Meauce",
      "code": "58225",
      "codesPostaux": ["58470"],
      "centre": {
        "type": "Point",
        "coordinates": [3.0869, 46.9088]
      },
      "mairie": {
        "type": "Point",
        "coordinates": [3.0726, 46.9276]
      },
      "population": 364,
      "surface": 2157.74,
      "radius": 2.62
    },
    {
      "nom": "Saint-Agnan",
      "code": "58226",
      "codesPostaux": ["58230"],
      "centre": {
        "type": "Point",
        "coordinates": [4.0917, 47.3251]
      },
      "mairie": {
        "type": "Point",
        "coordinates": [4.0949, 47.3177]
      },
      "population": 139,
      "surface": 2433.43,
      "radius": 2.78
    },
    {
      "nom": "Saint-Amand-en-Puisaye",
      "code": "58227",
      "codesPostaux": ["58310"],
      "centre": {
        "type": "Point",
        "coordinates": [3.0774, 47.5479]
      },
      "mairie": {
        "type": "Point",
        "coordinates": [3.0732, 47.5291]
      },
      "population": 1211,
      "surface": 4170.21,
      "radius": 3.64
    },
    {
      "nom": "Saint-Andelain",
      "code": "58228",
      "codesPostaux": ["58150"],
      "centre": {
        "type": "Point",
        "coordinates": [2.976, 47.3104]
      },
      "mairie": {
        "type": "Point",
        "coordinates": [2.9605, 47.3073]
      },
      "population": 609,
      "surface": 2047.94,
      "radius": 2.55
    },
    {
      "nom": "Saint-André-en-Morvan",
      "code": "58229",
      "codesPostaux": ["58140"],
      "centre": {
        "type": "Point",
        "coordinates": [3.8569, 47.3979]
      },
      "mairie": {
        "type": "Point",
        "coordinates": [3.8573, 47.3927]
      },
      "population": 310,
      "surface": 2287.05,
      "radius": 2.7
    },
    {
      "nom": "Saint-Aubin-des-Chaumes",
      "code": "58230",
      "codesPostaux": ["58190"],
      "centre": {
        "type": "Point",
        "coordinates": [3.7451, 47.3886]
      },
      "mairie": {
        "type": "Point",
        "coordinates": [3.7491, 47.3905]
      },
      "population": 68,
      "surface": 1079.64,
      "radius": 1.85
    },
    {
      "nom": "Saint-Aubin-les-Forges",
      "code": "58231",
      "codesPostaux": ["58130"],
      "centre": {
        "type": "Point",
        "coordinates": [3.1927, 47.1359]
      },
      "mairie": {
        "type": "Point",
        "coordinates": [3.2014, 47.1389]
      },
      "population": 379,
      "surface": 2658.51,
      "radius": 2.91
    },
    {
      "nom": "Saint-Benin-d'Azy",
      "code": "58232",
      "codesPostaux": ["58270"],
      "centre": {
        "type": "Point",
        "coordinates": [3.406, 46.9928]
      },
      "mairie": {
        "type": "Point",
        "coordinates": [3.3933, 46.9987]
      },
      "population": 1257,
      "surface": 3629.64,
      "radius": 3.4
    },
    {
      "nom": "Saint-Benin-des-Bois",
      "code": "58233",
      "codesPostaux": ["58330"],
      "centre": {
        "type": "Point",
        "coordinates": [3.4064, 47.1202]
      },
      "mairie": {
        "type": "Point",
        "coordinates": [3.4099, 47.122]
      },
      "population": 193,
      "surface": 1953.04,
      "radius": 2.49
    },
    {
      "nom": "Saint-Bonnot",
      "code": "58234",
      "codesPostaux": ["58700"],
      "centre": {
        "type": "Point",
        "coordinates": [3.3074, 47.2492]
      },
      "mairie": {
        "type": "Point",
        "coordinates": [3.3143, 47.2436]
      },
      "population": 149,
      "surface": 1612.07,
      "radius": 2.27
    },
    {
      "nom": "Saint-Brisson",
      "code": "58235",
      "codesPostaux": ["58230"],
      "centre": {
        "type": "Point",
        "coordinates": [4.0869, 47.2623]
      },
      "mairie": {
        "type": "Point",
        "coordinates": [4.0902, 47.2718]
      },
      "population": 252,
      "surface": 2989.51,
      "radius": 3.08
    },
    {
      "nom": "Saint-Didier",
      "code": "58237",
      "codesPostaux": ["58190"],
      "centre": {
        "type": "Point",
        "coordinates": [3.6198, 47.3475]
      },
      "mairie": {
        "type": "Point",
        "coordinates": [3.6207, 47.3487]
      },
      "population": 30,
      "surface": 362.44,
      "radius": 1.07
    },
    {
      "nom": "Saint-Éloi",
      "code": "58238",
      "codesPostaux": ["58000"],
      "centre": {
        "type": "Point",
        "coordinates": [3.227, 46.9865]
      },
      "mairie": {
        "type": "Point",
        "coordinates": [3.2198, 46.9812]
      },
      "population": 2220,
      "surface": 1646.51,
      "radius": 2.29
    },
    {
      "nom": "Saint-Firmin",
      "code": "58239",
      "codesPostaux": ["58270"],
      "centre": {
        "type": "Point",
        "coordinates": [3.3923, 47.0412]
      },
      "mairie": {
        "type": "Point",
        "coordinates": [3.3921, 47.0428]
      },
      "population": 152,
      "surface": 1054.11,
      "radius": 1.83
    },
    {
      "nom": "Saint-Franchy",
      "code": "58240",
      "codesPostaux": ["58330"],
      "centre": {
        "type": "Point",
        "coordinates": [3.4603, 47.1515]
      },
      "mairie": {
        "type": "Point",
        "coordinates": [3.4606, 47.1383]
      },
      "population": 80,
      "surface": 1881.14,
      "radius": 2.45
    },
    {
      "nom": "Saint-Germain-Chassenay",
      "code": "58241",
      "codesPostaux": ["58300"],
      "centre": {
        "type": "Point",
        "coordinates": [3.3955, 46.7829]
      },
      "mairie": {
        "type": "Point",
        "coordinates": [3.3932, 46.7757]
      },
      "population": 309,
      "surface": 2421.69,
      "radius": 2.78
    },
    {
      "nom": "Saint-Germain-des-Bois",
      "code": "58242",
      "codesPostaux": ["58210"],
      "centre": {
        "type": "Point",
        "coordinates": [3.5146, 47.3679]
      },
      "mairie": {
        "type": "Point",
        "coordinates": [3.5123, 47.3774]
      },
      "population": 117,
      "surface": 1254.43,
      "radius": 2
    },
    {
      "nom": "Saint-Gratien-Savigny",
      "code": "58243",
      "codesPostaux": ["58340"],
      "centre": {
        "type": "Point",
        "coordinates": [3.655, 46.8986]
      },
      "mairie": {
        "type": "Point",
        "coordinates": [3.6736, 46.8908]
      },
      "population": 115,
      "surface": 1988.82,
      "radius": 2.52
    },
    {
      "nom": "Saint-Hilaire-en-Morvan",
      "code": "58244",
      "codesPostaux": ["58120"],
      "centre": {
        "type": "Point",
        "coordinates": [3.8884, 47.0665]
      },
      "mairie": {
        "type": "Point",
        "coordinates": [3.8862, 47.0777]
      },
      "population": 219,
      "surface": 2132.63,
      "radius": 2.61
    },
    {
      "nom": "Saint-Hilaire-Fontaine",
      "code": "58245",
      "codesPostaux": ["58300"],
      "centre": {
        "type": "Point",
        "coordinates": [3.6315, 46.7799]
      },
      "mairie": {
        "type": "Point",
        "coordinates": [3.6268, 46.7671]
      },
      "population": 171,
      "surface": 2357.25,
      "radius": 2.74
    },
    {
      "nom": "Saint-Honoré-les-Bains",
      "code": "58246",
      "codesPostaux": ["58360"],
      "centre": {
        "type": "Point",
        "coordinates": [3.8556, 46.8991]
      },
      "mairie": {
        "type": "Point",
        "coordinates": [3.8418, 46.9053]
      },
      "population": 687,
      "surface": 2509.88,
      "radius": 2.83
    },
    {
      "nom": "Saint-Jean-aux-Amognes",
      "code": "58247",
      "codesPostaux": ["58270"],
      "centre": {
        "type": "Point",
        "coordinates": [3.339, 47.008]
      },
      "mairie": {
        "type": "Point",
        "coordinates": [3.3362, 47.0152]
      },
      "population": 526,
      "surface": 1831.22,
      "radius": 2.41
    },
    {
      "nom": "Saint-Laurent-l'Abbaye",
      "code": "58248",
      "codesPostaux": ["58150"],
      "centre": {
        "type": "Point",
        "coordinates": [2.9939, 47.3362]
      },
      "mairie": {
        "type": "Point",
        "coordinates": [2.99, 47.343]
      },
      "population": 216,
      "surface": 140.69,
      "radius": 0.67
    },
    {
      "nom": "Saint-Léger-de-Fougeret",
      "code": "58249",
      "codesPostaux": ["58120"],
      "centre": {
        "type": "Point",
        "coordinates": [3.9077, 47.0079]
      },
      "mairie": {
        "type": "Point",
        "coordinates": [3.8981, 47.0218]
      },
      "population": 348,
      "surface": 3236.1,
      "radius": 3.21
    },
    {
      "nom": "Saint-Léger-des-Vignes",
      "code": "58250",
      "codesPostaux": ["58300"],
      "centre": {
        "type": "Point",
        "coordinates": [3.4537, 46.8516]
      },
      "mairie": {
        "type": "Point",
        "coordinates": [3.4515, 46.8389]
      },
      "population": 1669,
      "surface": 909.93,
      "radius": 1.7
    },
    {
      "nom": "Saint-Loup-des-Bois",
      "code": "58251",
      "codesPostaux": ["58200"],
      "centre": {
        "type": "Point",
        "coordinates": [3.0077, 47.4512]
      },
      "mairie": {
        "type": "Point",
        "coordinates": [3.0038, 47.4457]
      },
      "population": 463,
      "surface": 1737.77,
      "radius": 2.35
    },
    {
      "nom": "Saint-Malo-en-Donziois",
      "code": "58252",
      "codesPostaux": ["58350"],
      "centre": {
        "type": "Point",
        "coordinates": [3.2789, 47.3094]
      },
      "mairie": {
        "type": "Point",
        "coordinates": [3.2682, 47.3121]
      },
      "population": 142,
      "surface": 1485.27,
      "radius": 2.17
    },
    {
      "nom": "Saint-Martin-d'Heuille",
      "code": "58254",
      "codesPostaux": ["58130"],
      "centre": {
        "type": "Point",
        "coordinates": [3.2326, 47.0494]
      },
      "mairie": {
        "type": "Point",
        "coordinates": [3.2253, 47.0554]
      },
      "population": 556,
      "surface": 1352.95,
      "radius": 2.08
    },
    {
      "nom": "Saint-Martin-du-Puy",
      "code": "58255",
      "codesPostaux": ["58140"],
      "centre": {
        "type": "Point",
        "coordinates": [3.8788, 47.3293]
      },
      "mairie": {
        "type": "Point",
        "coordinates": [3.8694, 47.3352]
      },
      "population": 288,
      "surface": 3080.32,
      "radius": 3.13
    },
    {
      "nom": "Saint-Martin-sur-Nohain",
      "code": "58256",
      "codesPostaux": ["58150"],
      "centre": {
        "type": "Point",
        "coordinates": [2.9904, 47.3578]
      },
      "mairie": {
        "type": "Point",
        "coordinates": [2.9834, 47.3619]
      },
      "population": 377,
      "surface": 2427.8,
      "radius": 2.78
    },
    {
      "nom": "Saint-Maurice",
      "code": "58257",
      "codesPostaux": ["58330"],
      "centre": {
        "type": "Point",
        "coordinates": [3.5713, 47.1151]
      },
      "mairie": {
        "type": "Point",
        "coordinates": [3.5733, 47.1085]
      },
      "population": 54,
      "surface": 1053.8,
      "radius": 1.83
    },
    {
      "nom": "Saint-Ouen-sur-Loire",
      "code": "58258",
      "codesPostaux": ["58160"],
      "centre": {
        "type": "Point",
        "coordinates": [3.3196, 46.8982]
      },
      "mairie": {
        "type": "Point",
        "coordinates": [3.3025, 46.8914]
      },
      "population": 482,
      "surface": 2392.22,
      "radius": 2.76
    },
    {
      "nom": "Saint-Parize-en-Viry",
      "code": "58259",
      "codesPostaux": ["58300"],
      "centre": {
        "type": "Point",
        "coordinates": [3.3616, 46.7518]
      },
      "mairie": {
        "type": "Point",
        "coordinates": [3.3553, 46.7525]
      },
      "population": 139,
      "surface": 1579.86,
      "radius": 2.24
    },
    {
      "nom": "Saint-Parize-le-Châtel",
      "code": "58260",
      "codesPostaux": ["58490"],
      "centre": {
        "type": "Point",
        "coordinates": [3.178, 46.8536]
      },
      "mairie": {
        "type": "Point",
        "coordinates": [3.1762, 46.8538]
      },
      "population": 1216,
      "surface": 4973.09,
      "radius": 3.98
    },
    {
      "nom": "Saint-Père",
      "code": "58261",
      "codesPostaux": ["58200"],
      "centre": {
        "type": "Point",
        "coordinates": [2.9777, 47.4011]
      },
      "mairie": {
        "type": "Point",
        "coordinates": [2.9603, 47.4127]
      },
      "population": 1047,
      "surface": 1724.13,
      "radius": 2.34
    },
    {
      "nom": "Saint-Péreuse",
      "code": "58262",
      "codesPostaux": ["58110"],
      "centre": {
        "type": "Point",
        "coordinates": [3.8054, 47.0559]
      },
      "mairie": {
        "type": "Point",
        "coordinates": [3.8044, 47.0694]
      },
      "population": 202,
      "surface": 1645.81,
      "radius": 2.29
    },
    {
      "nom": "Saint-Pierre-du-Mont",
      "code": "58263",
      "codesPostaux": ["58210"],
      "centre": {
        "type": "Point",
        "coordinates": [3.4459, 47.3999]
      },
      "mairie": {
        "type": "Point",
        "coordinates": [3.4443, 47.3886]
      },
      "population": 163,
      "surface": 1762.87,
      "radius": 2.37
    },
    {
      "nom": "Saint-Pierre-le-Moûtier",
      "code": "58264",
      "codesPostaux": ["58240"],
      "centre": {
        "type": "Point",
        "coordinates": [3.1374, 46.7915]
      },
      "mairie": {
        "type": "Point",
        "coordinates": [3.117, 46.7898]
      },
      "population": 1828,
      "surface": 4802.07,
      "radius": 3.91
    },
    {
      "nom": "Saint-Quentin-sur-Nohain",
      "code": "58265",
      "codesPostaux": ["58150"],
      "centre": {
        "type": "Point",
        "coordinates": [3.0201, 47.323]
      },
      "mairie": {
        "type": "Point",
        "coordinates": [3.0231, 47.3481]
      },
      "population": 98,
      "surface": 1612.87,
      "radius": 2.27
    },
    {
      "nom": "Saint-Révérien",
      "code": "58266",
      "codesPostaux": ["58420"],
      "centre": {
        "type": "Point",
        "coordinates": [3.5146, 47.203]
      },
      "mairie": {
        "type": "Point",
        "coordinates": [3.5035, 47.2115]
      },
      "population": 191,
      "surface": 1861.24,
      "radius": 2.43
    },
    {
      "nom": "Saint-Saulge",
      "code": "58267",
      "codesPostaux": ["58330"],
      "centre": {
        "type": "Point",
        "coordinates": [3.5142, 47.0975]
      },
      "mairie": {
        "type": "Point",
        "coordinates": [3.5121, 47.1035]
      },
      "population": 679,
      "surface": 2618.46,
      "radius": 2.89
    },
    {
      "nom": "Saint-Seine",
      "code": "58268",
      "codesPostaux": ["58250"],
      "centre": {
        "type": "Point",
        "coordinates": [3.8152, 46.7253]
      },
      "mairie": {
        "type": "Point",
        "coordinates": [3.8233, 46.7335]
      },
      "population": 186,
      "surface": 1789.88,
      "radius": 2.39
    },
    {
      "nom": "Saint-Sulpice",
      "code": "58269",
      "codesPostaux": ["58270"],
      "centre": {
        "type": "Point",
        "coordinates": [3.3596, 47.0609]
      },
      "mairie": {
        "type": "Point",
        "coordinates": [3.3511, 47.055]
      },
      "population": 418,
      "surface": 2578.52,
      "radius": 2.86
    },
    {
      "nom": "Saint-Vérain",
      "code": "58270",
      "codesPostaux": ["58310"],
      "centre": {
        "type": "Point",
        "coordinates": [3.0344, 47.4863]
      },
      "mairie": {
        "type": "Point",
        "coordinates": [3.0565, 47.4825]
      },
      "population": 369,
      "surface": 2494.73,
      "radius": 2.82
    },
    {
      "nom": "Sainte-Colombe-des-Bois",
      "code": "58236",
      "codesPostaux": ["58220"],
      "centre": {
        "type": "Point",
        "coordinates": [3.1511, 47.3202]
      },
      "mairie": {
        "type": "Point",
        "coordinates": [3.1427, 47.3219]
      },
      "population": 139,
      "surface": 2957.02,
      "radius": 3.07
    },
    {
      "nom": "Sainte-Marie",
      "code": "58253",
      "codesPostaux": ["58330"],
      "centre": {
        "type": "Point",
        "coordinates": [3.4493, 47.1138]
      },
      "mairie": {
        "type": "Point",
        "coordinates": [3.4372, 47.1184]
      },
      "population": 86,
      "surface": 1571.79,
      "radius": 2.24
    },
    {
      "nom": "Saizy",
      "code": "58271",
      "codesPostaux": ["58190"],
      "centre": {
        "type": "Point",
        "coordinates": [3.698, 47.3573]
      },
      "mairie": {
        "type": "Point",
        "coordinates": [3.7027, 47.3597]
      },
      "population": 187,
      "surface": 1343.31,
      "radius": 2.07
    },
    {
      "nom": "Sardy-lès-Épiry",
      "code": "58272",
      "codesPostaux": ["58800"],
      "centre": {
        "type": "Point",
        "coordinates": [3.6917, 47.1941]
      },
      "mairie": {
        "type": "Point",
        "coordinates": [3.7002, 47.1923]
      },
      "population": 113,
      "surface": 1563.2,
      "radius": 2.23
    },
    {
      "nom": "Sauvigny-les-Bois",
      "code": "58273",
      "codesPostaux": ["58160"],
      "centre": {
        "type": "Point",
        "coordinates": [3.267, 46.9738]
      },
      "mairie": {
        "type": "Point",
        "coordinates": [3.2697, 46.9691]
      },
      "population": 1413,
      "surface": 2976.45,
      "radius": 3.08
    },
    {
      "nom": "Savigny-Poil-Fol",
      "code": "58274",
      "codesPostaux": ["58170"],
      "centre": {
        "type": "Point",
        "coordinates": [3.8199, 46.7845]
      },
      "mairie": {
        "type": "Point",
        "coordinates": [3.8535, 46.7804]
      },
      "population": 108,
      "surface": 1751.63,
      "radius": 2.36
    },
    {
      "nom": "Saxi-Bourdon",
      "code": "58275",
      "codesPostaux": ["58330"],
      "centre": {
        "type": "Point",
        "coordinates": [3.4885, 47.0593]
      },
      "mairie": {
        "type": "Point",
        "coordinates": [3.4891, 47.0578]
      },
      "population": 270,
      "surface": 1867.95,
      "radius": 2.44
    },
    {
      "nom": "Sémelay",
      "code": "58276",
      "codesPostaux": ["58360"],
      "centre": {
        "type": "Point",
        "coordinates": [3.8595, 46.8628]
      },
      "mairie": {
        "type": "Point",
        "coordinates": [3.8506, 46.8517]
      },
      "population": 223,
      "surface": 3346.34,
      "radius": 3.26
    },
    {
      "nom": "Sermages",
      "code": "58277",
      "codesPostaux": ["58290"],
      "centre": {
        "type": "Point",
        "coordinates": [3.8414, 47.0159]
      },
      "mairie": {
        "type": "Point",
        "coordinates": [3.8474, 47.0222]
      },
      "population": 191,
      "surface": 2245.03,
      "radius": 2.67
    },
    {
      "nom": "Sermoise-sur-Loire",
      "code": "58278",
      "codesPostaux": ["58000"],
      "centre": {
        "type": "Point",
        "coordinates": [3.1877, 46.9442]
      },
      "mairie": {
        "type": "Point",
        "coordinates": [3.1847, 46.9511]
      },
      "population": 1490,
      "surface": 2513.12,
      "radius": 2.83
    },
    {
      "nom": "Sichamps",
      "code": "58279",
      "codesPostaux": ["58700"],
      "centre": {
        "type": "Point",
        "coordinates": [3.277, 47.1565]
      },
      "mairie": {
        "type": "Point",
        "coordinates": [3.2775, 47.1553]
      },
      "population": 175,
      "surface": 592.38,
      "radius": 1.37
    },
    {
      "nom": "Sougy-sur-Loire",
      "code": "58280",
      "codesPostaux": ["58300"],
      "centre": {
        "type": "Point",
        "coordinates": [3.4002, 46.8653]
      },
      "mairie": {
        "type": "Point",
        "coordinates": [3.3915, 46.857]
      },
      "population": 590,
      "surface": 3264.01,
      "radius": 3.22
    },
    {
      "nom": "Suilly-la-Tour",
      "code": "58281",
      "codesPostaux": ["58150"],
      "centre": {
        "type": "Point",
        "coordinates": [3.0758, 47.3341]
      },
      "mairie": {
        "type": "Point",
        "coordinates": [3.0666, 47.3362]
      },
      "population": 575,
      "surface": 3715.96,
      "radius": 3.44
    },
    {
      "nom": "Surgy",
      "code": "58282",
      "codesPostaux": ["58500"],
      "centre": {
        "type": "Point",
        "coordinates": [3.5078, 47.5171]
      },
      "mairie": {
        "type": "Point",
        "coordinates": [3.5141, 47.5079]
      },
      "population": 336,
      "surface": 1627.44,
      "radius": 2.28
    },
    {
      "nom": "Taconnay",
      "code": "58283",
      "codesPostaux": ["58420"],
      "centre": {
        "type": "Point",
        "coordinates": [3.4885, 47.3148]
      },
      "mairie": {
        "type": "Point",
        "coordinates": [3.4906, 47.3056]
      },
      "population": 72,
      "surface": 795.67,
      "radius": 1.59
    },
    {
      "nom": "Talon",
      "code": "58284",
      "codesPostaux": ["58190"],
      "centre": {
        "type": "Point",
        "coordinates": [3.5502, 47.3335]
      },
      "mairie": {
        "type": "Point",
        "coordinates": [3.5598, 47.3336]
      },
      "population": 40,
      "surface": 624.91,
      "radius": 1.41
    },
    {
      "nom": "Tamnay-en-Bazois",
      "code": "58285",
      "codesPostaux": ["58110"],
      "centre": {
        "type": "Point",
        "coordinates": [3.724, 47.0536]
      },
      "mairie": {
        "type": "Point",
        "coordinates": [3.7202, 47.0538]
      },
      "population": 166,
      "surface": 1058.09,
      "radius": 1.84
    },
    {
      "nom": "Tannay",
      "code": "58286",
      "codesPostaux": ["58190"],
      "centre": {
        "type": "Point",
        "coordinates": [3.5787, 47.3622]
      },
      "mairie": {
        "type": "Point",
        "coordinates": [3.591, 47.3666]
      },
      "population": 546,
      "surface": 1551.84,
      "radius": 2.22
    },