{
  "departmentCode": "87",
  "departmentName": "Haute-Vienne",
  "stats": {
    "communeCount": 195,
    "totalPopulation": 372438,
    "totalSurface": 555652
  },
  "communes": [
    {
      "nom": "Aixe-sur-Vienne",
      "code": "87001",
      "codesPostaux": ["87700"],
      "centre": {
        "type": "Point",
        "coordinates": [1.1245, 45.799]
      },
      "mairie": {
        "type": "Point",
        "coordinates": [1.1361, 45.797]
      },
      "population": 5860,
      "surface": 2269.28,
      "radius": 2.69
    },
    {
      "nom": "Ambazac",
      "code": "87002",
      "codesPostaux": ["87240"],
      "centre": {
        "type": "Point",
        "coordinates": [1.3956, 45.9609]
      },
      "mairie": {
        "type": "Point",
        "coordinates": [1.4021, 45.9582]
      },
      "population": 5565,
      "surface": 5873.42,
      "radius": 4.32
    },
    {
      "nom": "Arnac-la-Poste",
      "code": "87003",
      "codesPostaux": ["87160"],
      "centre": {
        "type": "Point",
        "coordinates": [1.3731, 46.2594]
      },
      "mairie": {
        "type": "Point",
        "coordinates": [1.3749, 46.2658]
      },
      "population": 911,
      "surface": 4688.52,
      "radius": 3.86
    },
    {
      "nom": "Augne",
      "code": "87004",
      "codesPostaux": ["87120"],
      "centre": {
        "type": "Point",
        "coordinates": [1.7007, 45.7715]
      },
      "mairie": {
        "type": "Point",
        "coordinates": [1.7055, 45.7828]
      },
      "population": 124,
      "surface": 1783.71,
      "radius": 2.38
    },
    {
      "nom": "Aureil",
      "code": "87005",
      "codesPostaux": ["87220"],
      "centre": {
        "type": "Point",
        "coordinates": [1.4033, 45.8088]
      },
      "mairie": {
        "type": "Point",
        "coordinates": [1.3929, 45.8064]
      },
      "population": 1033,
      "surface": 1017.17,
      "radius": 1.8
    },
    {
      "nom": "Azat-le-Ris",
      "code": "87006",
      "codesPostaux": ["87360"],
      "centre": {
        "type": "Point",
        "coordinates": [1.0547, 46.3056]
      },
      "mairie": {
        "type": "Point",
        "coordinates": [1.0583, 46.3192]
      },
      "population": 240,
      "surface": 5648.33,
      "radius": 4.24
    },
    {
      "nom": "Balledent",
      "code": "87007",
      "codesPostaux": ["87290"],
      "centre": {
        "type": "Point",
        "coordinates": [1.2208, 46.1077]
      },
      "mairie": {
        "type": "Point",
        "coordinates": [1.2085, 46.1111]
      },
      "population": 199,
      "surface": 1237.22,
      "radius": 1.98
    },
    {
      "nom": "Beaumont-du-Lac",
      "code": "87009",
      "codesPostaux": ["87120"],
      "centre": {
        "type": "Point",
        "coordinates": [1.8535, 45.7756]
      },
      "mairie": {
        "type": "Point",
        "coordinates": [1.8358, 45.7711]
      },
      "population": 136,
      "surface": 2748.67,
      "radius": 2.96
    },
    {
      "nom": "Bellac",
      "code": "87011",
      "codesPostaux": ["87300"],
      "centre": {
        "type": "Point",
        "coordinates": [1.0325, 46.1013]
      },
      "mairie": {
        "type": "Point",
        "coordinates": [1.0465, 46.1215]
      },
      "population": 3569,
      "surface": 2449.95,
      "radius": 2.79
    },
    {
      "nom": "Berneuil",
      "code": "87012",
      "codesPostaux": ["87300"],
      "centre": {
        "type": "Point",
        "coordinates": [1.1118, 46.0651]
      },
      "mairie": {
        "type": "Point",
        "coordinates": [1.1048, 46.0697]
      },
      "population": 429,
      "surface": 2599.85,
      "radius": 2.88
    },
    {
      "nom": "Bersac-sur-Rivalier",
      "code": "87013",
      "codesPostaux": ["87370"],
      "centre": {
        "type": "Point",
        "coordinates": [1.4146, 46.0798]
      },
      "mairie": {
        "type": "Point",
        "coordinates": [1.426, 46.0803]
      },
      "population": 626,
      "surface": 3292.14,
      "radius": 3.24
    },
    {
      "nom": "Bessines-sur-Gartempe",
      "code": "87014",
      "codesPostaux": ["87250"],
      "centre": {
        "type": "Point",
        "coordinates": [1.3581, 46.1115]
      },
      "mairie": {
        "type": "Point",
        "coordinates": [1.369, 46.109]
      },
      "population": 2739,
      "surface": 5557.42,
      "radius": 4.21
    },
    {
      "nom": "Beynac",
      "code": "87015",
      "codesPostaux": ["87700"],
      "centre": {
        "type": "Point",
        "coordinates": [1.1646, 45.7675]
      },
      "mairie": {
        "type": "Point",
        "coordinates": [1.1688, 45.7604]
      },
      "population": 727,
      "surface": 1266.6,
      "radius": 2.01
    },
    {
      "nom": "Blanzac",
      "code": "87017",
      "codesPostaux": ["87300"],
      "centre": {
        "type": "Point",
        "coordinates": [1.1076, 46.1272]
      },
      "mairie": {
        "type": "Point",
        "coordinates": [1.1135, 46.1337]
      },
      "population": 479,
      "surface": 2355.87,
      "radius": 2.74
    },
    {
      "nom": "Blond",
      "code": "87018",
      "codesPostaux": ["87300"],
      "centre": {
        "type": "Point",
        "coordinates": [1.0134, 46.0546]
      },
      "mairie": {
        "type": "Point",
        "coordinates": [1.0198, 46.0445]
      },
      "population": 690,
      "surface": 6455.51,
      "radius": 4.53
    },
    {
      "nom": "Boisseuil",
      "code": "87019",
      "codesPostaux": ["87220"],
      "centre": {
        "type": "Point",
        "coordinates": [1.3273, 45.7604]
      },
      "mairie": {
        "type": "Point",
        "coordinates": [1.3315, 45.7701]
      },
      "population": 2997,
      "surface": 1930.87,
      "radius": 2.48
    },
    {
      "nom": "Bonnac-la-Côte",
      "code": "87020",
      "codesPostaux": ["87270"],
      "centre": {
        "type": "Point",
        "coordinates": [1.2874, 45.9478]
      },
      "mairie": {
        "type": "Point",
        "coordinates": [1.2862, 45.9422]
      },
      "population": 1644,
      "surface": 2590.69,
      "radius": 2.87
    },
    {
      "nom": "Bosmie-l'Aiguille",
      "code": "87021",
      "codesPostaux": ["87110"],
      "centre": {
        "type": "Point",
        "coordinates": [1.2047, 45.7634]
      },
      "mairie": {
        "type": "Point",
        "coordinates": [1.2159, 45.7681]
      },
      "population": 2620,
      "surface": 805.83,
      "radius": 1.6
    },
    {
      "nom": "Breuilaufa",
      "code": "87022",
      "codesPostaux": ["87300"],
      "centre": {
        "type": "Point",
        "coordinates": [1.1057, 46.0415]
      },
      "mairie": {
        "type": "Point",
        "coordinates": [1.1058, 46.0417]
      },
      "population": 114,
      "surface": 474.06,
      "radius": 1.23
    },
    {
      "nom": "Bujaleuf",
      "code": "87024",
      "codesPostaux": ["87460"],
      "centre": {
        "type": "Point",
        "coordinates": [1.6273, 45.7937]
      },
      "mairie": {
        "type": "Point",
        "coordinates": [1.6286, 45.795]
      },
      "population": 873,
      "surface": 4178.8,
      "radius": 3.65
    },
    {
      "nom": "Burgnac",
      "code": "87025",
      "codesPostaux": ["87800"],
      "centre": {
        "type": "Point",
        "coordinates": [1.1692, 45.7408]
      },
      "mairie": {
        "type": "Point",
        "coordinates": [1.1508, 45.7249]
      },
      "population": 858,
      "surface": 1156.93,
      "radius": 1.92
    },
    {
      "nom": "Bussière-Galant",
      "code": "87027",
      "codesPostaux": ["87230"],
      "centre": {
        "type": "Point",
        "coordinates": [1.05, 45.6083]
      },
      "mairie": {
        "type": "Point",
        "coordinates": [1.0366, 45.627]
      },
      "population": 1284,
      "surface": 5392.18,
      "radius": 4.14
    },
    {
      "nom": "Chaillac-sur-Vienne",
      "code": "87030",
      "codesPostaux": ["87200"],
      "centre": {
        "type": "Point",
        "coordinates": [0.8721, 45.8625]
      },
      "mairie": {
        "type": "Point",
        "coordinates": [0.8735, 45.8781]
      },
      "population": 1253,
      "surface": 1528.3,
      "radius": 2.21
    },
    {
      "nom": "Châlus",
      "code": "87032",
      "codesPostaux": ["87230"],
      "centre": {
        "type": "Point",
        "coordinates": [0.9665, 45.6547]
      },
      "mairie": {
        "type": "Point",
        "coordinates": [0.9799, 45.6498]
      },
      "population": 1671,
      "surface": 2793.67,
      "radius": 2.98
    },
    {
      "nom": "Chamboret",
      "code": "87033",
      "codesPostaux": ["87140"],
      "centre": {
        "type": "Point",
        "coordinates": [1.1184, 46.0117]
      },
      "mairie": {
        "type": "Point",
        "coordinates": [1.1359, 46.0058]
      },
      "population": 788,
      "surface": 2234.28,
      "radius": 2.67
    },
    {
      "nom": "Champagnac-la-Rivière",
      "code": "87034",
      "codesPostaux": ["87150"],
      "centre": {
        "type": "Point",
        "coordinates": [0.9134, 45.697]
      },
      "mairie": {
        "type": "Point",
        "coordinates": [0.9127, 45.7098]
      },
      "population": 591,
      "surface": 2463.2,
      "radius": 2.8
    },
    {
      "nom": "Champnétery",
      "code": "87035",
      "codesPostaux": ["87400"],
      "centre": {
        "type": "Point",
        "coordinates": [1.5845, 45.8234]
      },
      "mairie": {
        "type": "Point",
        "coordinates": [1.5706, 45.8308]
      },
      "population": 517,
      "surface": 3037.8,
      "radius": 3.11
    },
    {
      "nom": "Champsac",
      "code": "87036",
      "codesPostaux": ["87230"],
      "centre": {
        "type": "Point",
        "coordinates": [0.962, 45.7045]
      },
      "mairie": {
        "type": "Point",
        "coordinates": [0.9561, 45.7011]
      },
      "population": 688,
      "surface": 2374,
      "radius": 2.75
    },
    {
      "nom": "Chaptelat",
      "code": "87038",
      "codesPostaux": ["87270"],
      "centre": {
        "type": "Point",
        "coordinates": [1.2397, 45.9158]
      },
      "mairie": {
        "type": "Point",
        "coordinates": [1.2583, 45.9086]
      },
      "population": 2096,
      "surface": 1832.37,
      "radius": 2.42
    },
    {
      "nom": "Château-Chervix",
      "code": "87039",
      "codesPostaux": ["87380"],
      "centre": {
        "type": "Point",
        "coordinates": [1.3693, 45.5927]
      },
      "mairie": {
        "type": "Point",
        "coordinates": [1.3534, 45.6078]
      },
      "population": 791,
      "surface": 5145.87,
      "radius": 4.05
    },
    {
      "nom": "Châteauneuf-la-Forêt",
      "code": "87040",
      "codesPostaux": ["87130"],
      "centre": {
        "type": "Point",
        "coordinates": [1.6104, 45.6926]
      },
      "mairie": {
        "type": "Point",
        "coordinates": [1.6066, 45.713]
      },
      "population": 1536,
      "surface": 2940.74,
      "radius": 3.06
    },
    {
      "nom": "Châteauponsac",
      "code": "87041",
      "codesPostaux": ["87290"],
      "centre": {
        "type": "Point",
        "coordinates": [1.2842, 46.1313]
      },
      "mairie": {
        "type": "Point",
        "coordinates": [1.2765, 46.1328]
      },
      "population": 2028,
      "surface": 6926.33,
      "radius": 4.7
    },
    {
      "nom": "Cheissoux",
      "code": "87043",
      "codesPostaux": ["87460"],
      "centre": {
        "type": "Point",
        "coordinates": [1.637, 45.8297]
      },
      "mairie": {
        "type": "Point",
        "coordinates": [1.6477, 45.8331]
      },
      "population": 223,
      "surface": 1035.69,
      "radius": 1.82
    },
    {
      "nom": "Chéronnac",
      "code": "87044",
      "codesPostaux": ["87600"],
      "centre": {
        "type": "Point",
        "coordinates": [0.7533, 45.7582]
      },
      "mairie": {
        "type": "Point",
        "coordinates": [0.7643, 45.7582]
      },
      "population": 315,
      "surface": 1876.47,
      "radius": 2.44
    },
    {
      "nom": "Cieux",
      "code": "87045",
      "codesPostaux": ["87520"],
      "centre": {
        "type": "Point",
        "coordinates": [1.0183, 45.9812]
      },
      "mairie": {
        "type": "Point",
        "coordinates": [1.0472, 45.9907]
      },
      "population": 1001,
      "surface": 4255.78,
      "radius": 3.68
    },
    {
      "nom": "Cognac-la-Forêt",
      "code": "87046",
      "codesPostaux": ["87310"],
      "centre": {
        "type": "Point",
        "coordinates": [1.0087, 45.8368]
      },
      "mairie": {
        "type": "Point",
        "coordinates": [1.01, 45.8318]
      },
      "population": 1199,
      "surface": 3192.03,
      "radius": 3.19
    },
    {
      "nom": "Compreignac",
      "code": "87047",
      "codesPostaux": ["87140"],
      "centre": {
        "type": "Point",
        "coordinates": [1.2828, 46.0001]
      },
      "mairie": {
        "type": "Point",
        "coordinates": [1.2746, 45.9919]
      },
      "population": 1866,
      "surface": 4904.69,
      "radius": 3.95
    },
    {
      "nom": "Condat-sur-Vienne",
      "code": "87048",
      "codesPostaux": ["87920"],
      "centre": {
        "type": "Point",
        "coordinates": [1.2339, 45.7846]
      },
      "mairie": {
        "type": "Point",
        "coordinates": [1.232, 45.7924]
      },
      "population": 5208,
      "surface": 1529.85,
      "radius": 2.21
    },
    {
      "nom": "Coussac-Bonneval",
      "code": "87049",
      "codesPostaux": ["87500"],
      "centre": {
        "type": "Point",
        "coordinates": [1.3269, 45.52]
      },
      "mairie": {
        "type": "Point",
        "coordinates": [1.3261, 45.5096]
      },
      "population": 1272,
      "surface": 6636.21,
      "radius": 4.6
    },
    {
      "nom": "Couzeix",
      "code": "87050",
      "codesPostaux": ["87270"],
      "centre": {
        "type": "Point",
        "coordinates": [1.2103, 45.8845]
      },
      "mairie": {
        "type": "Point",
        "coordinates": [1.2383, 45.8778]
      },
      "population": 10011,
      "surface": 3068.69,
      "radius": 3.13
    },
    {
      "nom": "Cromac",
      "code": "87053",
      "codesPostaux": ["87160"],
      "centre": {
        "type": "Point",
        "coordinates": [1.3149, 46.3608]
      },
      "mairie": {
        "type": "Point",
        "coordinates": [1.2989, 46.3418]
      },
      "population": 246,
      "surface": 2427.75,
      "radius": 2.78
    },
    {
      "nom": "Cussac",
      "code": "87054",
      "codesPostaux": ["87150"],
      "centre": {
        "type": "Point",
        "coordinates": [0.8514, 45.6918]
      },
      "mairie": {
        "type": "Point",
        "coordinates": [0.8518, 45.7055]
      },
      "population": 1148,
      "surface": 3147.87,
      "radius": 3.17
    },
    {
      "nom": "Dinsac",
      "code": "87056",
      "codesPostaux": ["87210"],
      "centre": {
        "type": "Point",
        "coordinates": [1.1035, 46.2411]
      },
      "mairie": {
        "type": "Point",
        "coordinates": [1.1195, 46.231]
      },
      "population": 245,
      "surface": 1935.99,
      "radius": 2.48
    },
    {
      "nom": "Dompierre-les-Églises",
      "code": "87057",
      "codesPostaux": ["87190"],
      "centre": {
        "type": "Point",
        "coordinates": [1.2516, 46.2109]
      },
      "mairie": {
        "type": "Point",
        "coordinates": [1.2523, 46.2268]
      },
      "population": 373,
      "surface": 3069.67,
      "radius": 3.13
    },
    {
      "nom": "Domps",
      "code": "87058",
      "codesPostaux": ["87120"],
      "centre": {
        "type": "Point",
        "coordinates": [1.7148, 45.6558]
      },
      "mairie": {
        "type": "Point",
        "coordinates": [1.7103, 45.6624]
      },
      "population": 99,
      "surface": 1369.1,
      "radius": 2.09
    },
    {
      "nom": "Dournazac",
      "code": "87060",
      "codesPostaux": ["87230"],
      "centre": {
        "type": "Point",
        "coordinates": [0.9262, 45.633]
      },
      "mairie": {
        "type": "Point",
        "coordinates": [0.9169, 45.6252]
      },
      "population": 669,
      "surface": 3597.87,
      "radius": 3.38
    },
    {
      "nom": "Droux",
      "code": "87061",
      "codesPostaux": ["87190"],
      "centre": {
        "type": "Point",
        "coordinates": [1.1491, 46.1667]
      },
      "mairie": {
        "type": "Point",
        "coordinates": [1.1537, 46.159]
      },
      "population": 361,
      "surface": 2409.1,
      "radius": 2.77
    },
    {
      "nom": "Eybouleuf",
      "code": "87062",
      "codesPostaux": ["87400"],
      "centre": {
        "type": "Point",
        "coordinates": [1.4831, 45.7977]
      },
      "mairie": {
        "type": "Point",
        "coordinates": [1.4813, 45.7966]
      },
      "population": 471,
      "surface": 1084.76,
      "radius": 1.86
    },
    {
      "nom": "Eyjeaux",
      "code": "87063",
      "codesPostaux": ["87220"],
      "centre": {
        "type": "Point",
        "coordinates": [1.3774, 45.7753]
      },
      "mairie": {
        "type": "Point",
        "coordinates": [1.3933, 45.7765]
      },
      "population": 1335,
      "surface": 2440.67,
      "radius": 2.79
    },
    {
      "nom": "Eymoutiers",
      "code": "87064",
      "codesPostaux": ["87120"],
      "centre": {
        "type": "Point",
        "coordinates": [1.7293, 45.7098]
      },
      "mairie": {
        "type": "Point",
        "coordinates": [1.7447, 45.7387]
      },
      "population": 2067,
      "surface": 7062.18,
      "radius": 4.74
    },
    {
      "nom": "Feytiat",
      "code": "87065",
      "codesPostaux": ["87220"],
      "centre": {
        "type": "Point",
        "coordinates": [1.3265, 45.8093]
      },
      "mairie": {
        "type": "Point",
        "coordinates": [1.3263, 45.8102]
      },
      "population": 6174,
      "surface": 2423.7,
      "radius": 2.78
    },
    {
      "nom": "Flavignac",
      "code": "87066",
      "codesPostaux": ["87230"],
      "centre": {
        "type": "Point",
        "coordinates": [1.0724, 45.7135]
      },
      "mairie": {
        "type": "Point",
        "coordinates": [1.091, 45.7044]
      },
      "population": 1060,
      "surface": 3131.81,
      "radius": 3.16
    },
    {
      "nom": "Folles",
      "code": "87067",
      "codesPostaux": ["87250"],
      "centre": {
        "type": "Point",
        "coordinates": [1.4522, 46.1239]
      },
      "mairie": {
        "type": "Point",
        "coordinates": [1.4609, 46.1147]
      },
      "population": 443,
      "surface": 3157.69,
      "radius": 3.17
    },
    {
      "nom": "Fromental",
      "code": "87068",
      "codesPostaux": ["87250"],
      "centre": {
        "type": "Point",
        "coordinates": [1.4235, 46.1539]
      },
      "mairie": {
        "type": "Point",
        "coordinates": [1.3968, 46.1596]
      },
      "population": 517,
      "surface": 2283.85,
      "radius": 2.7
    },
    {
      "nom": "Gajoubert",
      "code": "87069",
      "codesPostaux": ["87330"],
      "centre": {
        "type": "Point",
        "coordinates": [0.8402, 46.106]
      },
      "mairie": {
        "type": "Point",
        "coordinates": [0.831, 46.1125]
      },
      "population": 148,
      "surface": 1420.91,
      "radius": 2.13
    },
    {
      "nom": "Glandon",
      "code": "87071",
      "codesPostaux": ["87500"],
      "centre": {
        "type": "Point",
        "coordinates": [1.2158, 45.4715]
      },
      "mairie": {
        "type": "Point",
        "coordinates": [1.2241, 45.4799]
      },
      "population": 806,
      "surface": 2767.96,
      "radius": 2.97
    },
    {
      "nom": "Glanges",
      "code": "87072",
      "codesPostaux": ["87380"],
      "centre": {
        "type": "Point",
        "coordinates": [1.4633, 45.6652]
      },
      "mairie": {
        "type": "Point",
        "coordinates": [1.4536, 45.6702]
      },
      "population": 510,
      "surface": 2276.77,
      "radius": 2.69
    },
    {
      "nom": "Gorre",
      "code": "87073",
      "codesPostaux": ["87310"],
      "centre": {
        "type": "Point",
        "coordinates": [0.9937, 45.7365]
      },
      "mairie": {
        "type": "Point",
        "coordinates": [0.9831, 45.741]
      },
      "population": 388,
      "surface": 1649.94,
      "radius": 2.29
    },
    {
      "nom": "Isle",
      "code": "87075",
      "codesPostaux": ["87170"],
      "centre": {
        "type": "Point",
        "coordinates": [1.1987, 45.8053]
      },
      "mairie": {
        "type": "Point",
        "coordinates": [1.2237, 45.8054]
      },
      "population": 7915,
      "surface": 2011.21,
      "radius": 2.53
    },
    {
      "nom": "Jabreilles-les-Bordes",
      "code": "87076",
      "codesPostaux": ["87370"],
      "centre": {
        "type": "Point",
        "coordinates": [1.5105, 46.022]
      },
      "mairie": {
        "type": "Point",
        "coordinates": [1.5162, 46.0184]
      },
      "population": 239,
      "surface": 1907.08,
      "radius": 2.46
    },
    {
      "nom": "Janailhac",
      "code": "87077",
      "codesPostaux": ["87800"],
      "centre": {
        "type": "Point",
        "coordinates": [1.2374, 45.654]
      },
      "mairie": {
        "type": "Point",
        "coordinates": [1.2414, 45.6373]
      },
      "population": 525,
      "surface": 1863.66,
      "radius": 2.44
    },
    {
      "nom": "Javerdat",
      "code": "87078",
      "codesPostaux": ["87520"],
      "centre": {
        "type": "Point",
        "coordinates": [0.9666, 45.9596]
      },
      "mairie": {
        "type": "Point",
        "coordinates": [0.9861, 45.9536]
      },
      "population": 702,
      "surface": 2556.91,
      "radius": 2.85
    },
    {
      "nom": "Jouac",
      "code": "87080",
      "codesPostaux": ["87890"],
      "centre": {
        "type": "Point",
        "coordinates": [1.2592, 46.3496]
      },
      "mairie": {
        "type": "Point",
        "coordinates": [1.2628, 46.3555]
      },
      "population": 189,
      "surface": 2031.74,
      "radius": 2.54
    },
    {
      "nom": "Jourgnac",
      "code": "87081",
      "codesPostaux": ["87800"],
      "centre": {
        "type": "Point",
        "coordinates": [1.2187, 45.7355]
      },
      "mairie": {
        "type": "Point",
        "coordinates": [1.2135, 45.7197]
      },
      "population": 1112,
      "surface": 1446.05,
      "radius": 2.15
    },
    {
      "nom": "La Bazeuge",
      "code": "87008",
      "codesPostaux": ["87210"],
      "centre": {
        "type": "Point",
        "coordinates": [1.0835, 46.2575]
      },
      "mairie": {
        "type": "Point",
        "coordinates": [1.0949, 46.244]
      },
      "population": 144,
      "surface": 1031.18,
      "radius": 1.81
    },
    {
      "nom": "La Chapelle-Montbrandeix",
      "code": "87037",
      "codesPostaux": ["87440"],
      "centre": {
        "type": "Point",
        "coordinates": [0.8523, 45.6409]
      },
      "mairie": {
        "type": "Point",
        "coordinates": [0.8481, 45.6461]
      },
      "population": 264,
      "surface": 2001.25,
      "radius": 2.52
    },
    {
      "nom": "La Croisille-sur-Briance",
      "code": "87051",
      "codesPostaux": ["87130"],
      "centre": {
        "type": "Point",
        "coordinates": [1.6011, 45.6196]
      },
      "mairie": {
        "type": "Point",
        "coordinates": [1.5857, 45.6286]
      },
      "population": 690,
      "surface": 4413.17,
      "radius": 3.75
    },
    {
      "nom": "La Croix-sur-Gartempe",
      "code": "87052",
      "codesPostaux": ["87210"],
      "centre": {
        "type": "Point",
        "coordinates": [1.0004, 46.1596]
      },
      "mairie": {
        "type": "Point",
        "coordinates": [0.9913, 46.1601]
      },
      "population": 163,
      "surface": 1274.85,
      "radius": 2.01
    },
    {
      "nom": "La Geneytouse",
      "code": "87070",
      "codesPostaux": ["87400"],
      "centre": {
        "type": "Point",
        "coordinates": [1.4531, 45.7909]
      },
      "mairie": {
        "type": "Point",
        "coordinates": [1.4701, 45.7877]
      },
      "population": 988,
      "surface": 1938.26,
      "radius": 2.48
    },
    {
      "nom": "La Jonchère-Saint-Maurice",
      "code": "87079",
      "codesPostaux": ["87340"],
      "centre": {
        "type": "Point",
        "coordinates": [1.4758, 46.0042]
      },
      "mairie": {
        "type": "Point",
        "coordinates": [1.4673, 45.999]
      },
      "population": 802,
      "surface": 1553.24,
      "radius": 2.22
    },
    {
      "nom": "La Meyze",
      "code": "87096",
      "codesPostaux": ["87800"],
      "centre": {
        "type": "Point",
        "coordinates": [1.1918, 45.6095]
      },
      "mairie": {
        "type": "Point",
        "coordinates": [1.2144, 45.6153]
      },
      "population": 842,
      "surface": 2802.07,
      "radius": 2.99
    },
    {
      "nom": "La Porcherie",
      "code": "87120",
      "codesPostaux": ["87380"],
      "centre": {
        "type": "Point",
        "coordinates": [1.5416, 45.5792]
      },
      "mairie": {
        "type": "Point",
        "coordinates": [1.5447, 45.5808]
      },
      "population": 518,
      "surface": 3160.64,
      "radius": 3.17
    },
    {
      "nom": "La Roche-l'Abeille",
      "code": "87127",
      "codesPostaux": ["87800"],
      "centre": {
        "type": "Point",
        "coordinates": [1.2558, 45.5967]
      },
      "mairie": {
        "type": "Point",
        "coordinates": [1.2401, 45.597]
      },
      "population": 594,
      "surface": 3671.48,
      "radius": 3.42
    },
    {
      "nom": "Ladignac-le-Long",
      "code": "87082",
      "codesPostaux": ["87500"],
      "centre": {
        "type": "Point",
        "coordinates": [1.1153, 45.5811]
      },
      "mairie": {
        "type": "Point",
        "coordinates": [1.1122, 45.5825]
      },
      "population": 1159,
      "surface": 4711.5,
      "radius": 3.87
    },
    {
      "nom": "Laurière",
      "code": "87083",
      "codesPostaux": ["87370"],
      "centre": {
        "type": "Point",
        "coordinates": [1.4976, 46.073]
      },
      "mairie": {
        "type": "Point",
        "coordinates": [1.4757, 46.0761]
      },
      "population": 528,
      "surface": 2081.67,
      "radius": 2.57
    },
    {
      "nom": "Lavignac",
      "code": "87084",
      "codesPostaux": ["87230"],
      "centre": {
        "type": "Point",
        "coordinates": [1.1207, 45.7184]
      },
      "mairie": {
        "type": "Point",
        "coordinates": [1.1192, 45.7221]
      },
      "population": 162,
      "surface": 619.55,
      "radius": 1.4
    },
    {
      "nom": "Le Buis",
      "code": "87023",
      "codesPostaux": ["87140"],
      "centre": {
        "type": "Point",
        "coordinates": [1.205, 46.0349]
      },
      "mairie": {
        "type": "Point",
        "coordinates": [1.201, 46.0369]
      },
      "population": 183,
      "surface": 675.02,
      "radius": 1.47
    },
    {
      "nom": "Le Chalard",
      "code": "87031",
      "codesPostaux": ["87500"],
      "centre": {
        "type": "Point",
        "coordinates": [1.1219, 45.5542]
      },
      "mairie": {
        "type": "Point",
        "coordinates": [1.1319, 45.5495]
      },
      "population": 302,
      "surface": 1232.54,
      "radius": 1.98
    },
    {
      "nom": "Le Châtenet-en-Dognon",
      "code": "87042",
      "codesPostaux": ["87400"],
      "centre": {
        "type": "Point",
        "coordinates": [1.5025, 45.9053]
      },
      "mairie": {
        "type": "Point",
        "coordinates": [1.5077, 45.908]
      },
      "population": 399,
      "surface": 2026.21,
      "radius": 2.54
    },
    {
      "nom": "Le Dorat",
      "code": "87059",
      "codesPostaux": ["87210"],
      "centre": {
        "type": "Point",
        "coordinates": [1.072, 46.2089]
      },
      "mairie": {
        "type": "Point",
        "coordinates": [1.0859, 46.2161]
      },
      "population": 1526,
      "surface": 2389.4,
      "radius": 2.76
    },
    {
      "nom": "Le Palais-sur-Vienne",
      "code": "87113",
      "codesPostaux": ["87410"],
      "centre": {
        "type": "Point",
        "coordinates": [1.3288, 45.8703]
      },
      "mairie": {
        "type": "Point",
        "coordinates": [1.3229, 45.8659]
      },
      "population": 5861,
      "surface": 1031.7,
      "radius": 1.81
    },
    {
      "nom": "Le Vigen",
      "code": "87205",
      "codesPostaux": ["87110"],
      "centre": {
        "type": "Point",
        "coordinates": [1.2713, 45.7438]
      },
      "mairie": {
        "type": "Point",
        "coordinates": [1.2889, 45.7507]
      },
      "population": 2298,
      "surface": 2976.49,
      "radius": 3.08
    },
    {
      "nom": "Les Billanges",
      "code": "87016",
      "codesPostaux": ["87340"],
      "centre": {
        "type": "Point",
        "coordinates": [1.5341, 45.9761]
      },
      "mairie": {
        "type": "Point",
        "coordinates": [1.5338, 45.9635]
      },
      "population": 298,
      "surface": 2310.31,
      "radius": 2.71
    },
    {
      "nom": "Les Cars",
      "code": "87029",
      "codesPostaux": ["87230"],
      "centre": {
        "type": "Point",
        "coordinates": [1.0776, 45.6742]
      },
      "mairie": {
        "type": "Point",
        "coordinates": [1.0732, 45.68]
      },
      "population": 618,
      "surface": 1674.98,
      "radius": 2.31
    },
    {
      "nom": "Les Grands-Chézeaux",
      "code": "87074",
      "codesPostaux": ["87160"],
      "centre": {
        "type": "Point",
        "coordinates": [1.3855, 46.3597]
      },
      "mairie": {
        "type": "Point",
        "coordinates": [1.3941, 46.3501]
      },
      "population": 227,
      "surface": 1373.71,
      "radius": 2.09
    },
    {
      "nom": "Les Salles-Lavauguyon",
      "code": "87189",
      "codesPostaux": ["87440"],
      "centre": {
        "type": "Point",
        "coordinates": [0.6944, 45.7446]
      },
      "mairie": {
        "type": "Point",
        "coordinates": [0.6958, 45.7445]
      },
      "population": 157,
      "surface": 1226,
      "radius": 1.98
    },
    {
      "nom": "Limoges",
      "code": "87085",
      "codesPostaux": ["87000", "87100", "87280"],
      "centre": {
        "type": "Point",
        "coordinates": [1.226, 45.8567]
      },
      "mairie": {
        "type": "Point",
        "coordinates": [1.2605, 45.8263]
      },
      "population": 129754,
      "surface": 7978.68,
      "radius": 5.04
    },
    {
      "nom": "Linards",
      "code": "87086",
      "codesPostaux": ["87130"],
      "centre": {
        "type": "Point",
        "coordinates": [1.5394, 45.7027]
      },
      "mairie": {
        "type": "Point",
        "coordinates": [1.5358, 45.6989]
      },
      "population": 1004,
      "surface": 3650.07,
      "radius": 3.41
    },
    {
      "nom": "Lussac-les-Églises",
      "code": "87087",
      "codesPostaux": ["87360"],
      "centre": {
        "type": "Point",
        "coordinates": [1.1786, 46.3438]
      },
      "mairie": {
        "type": "Point",
        "coordinates": [1.1727, 46.3462]
      },
      "population": 463,
      "surface": 4121.23,
      "radius": 3.62
    },
    {
      "nom": "Magnac-Bourg",
      "code": "87088",
      "codesPostaux": ["87380"],
      "centre": {
        "type": "Point",
        "coordinates": [1.4371, 45.5986]
      },
      "mairie": {
        "type": "Point",
        "coordinates": [1.4289, 45.6196]
      },
      "population": 1115,
      "surface": 1522.6,
      "radius": 2.2
    },
    {
      "nom": "Magnac-Laval",
      "code": "87089",
      "codesPostaux": ["87190"],
      "centre": {
        "type": "Point",
        "coordinates": [1.1702, 46.2381]
      },
      "mairie": {
        "type": "Point",
        "coordinates": [1.1662, 46.2147]
      },
      "population": 1693,
      "surface": 7248.37,
      "radius": 4.8
    },
    {
      "nom": "Mailhac-sur-Benaize",
      "code": "87090",
      "codesPostaux": ["87160"],
      "centre": {
        "type": "Point",
        "coordinates": [1.3164, 46.3109]
      },
      "mairie": {
        "type": "Point",
        "coordinates": [1.3293, 46.3224]
      },
      "population": 273,
      "surface": 2119.94,
      "radius": 2.6
    },
    {
      "nom": "Maisonnais-sur-Tardoire",
      "code": "87091",
      "codesPostaux": ["87440"],
      "centre": {
        "type": "Point",
        "coordinates": [0.6836, 45.7139]
      },
      "mairie": {
        "type": "Point",
        "coordinates": [0.6896, 45.7117]
      },
      "population": 376,
      "surface": 3213.79,
      "radius": 3.2
    },
    {
      "nom": "Marval",
      "code": "87092",
      "codesPostaux": ["87440"],
      "centre": {
        "type": "Point",
        "coordinates": [0.8003, 45.6363]
      },
      "mairie": {
        "type": "Point",
        "coordinates": [0.7963, 45.628]
      },
      "population": 481,
      "surface": 3880.54,
      "radius": 3.51
    },
    {
      "nom": "Masléon",
      "code": "87093",
      "codesPostaux": ["87130"],
      "centre": {
        "type": "Point",
        "coordinates": [1.5772, 45.7686]
      },
      "mairie": {
        "type": "Point",
        "coordinates": [1.5707, 45.7634]
      },
      "population": 286,
      "surface": 878.23,
      "radius": 1.67
    },
    {
      "nom": "Meilhac",
      "code": "87094",
      "codesPostaux": ["87800"],
      "centre": {
        "type": "Point",
        "coordinates": [1.1506, 45.7146]
      },
      "mairie": {
        "type": "Point",
        "coordinates": [1.1565, 45.7136]
      },
      "population": 526,
      "surface": 1493.97,
      "radius": 2.18
    },
    {
      "nom": "Meuzac",
      "code": "87095",
      "codesPostaux": ["87380"],
      "centre": {
        "type": "Point",
        "coordinates": [1.4215, 45.5468]
      },
      "mairie": {
        "type": "Point",
        "coordinates": [1.4415, 45.5537]
      },
      "population": 733,
      "surface": 4392.61,
      "radius": 3.74
    },
    {
      "nom": "Moissannes",
      "code": "87099",
      "codesPostaux": ["87400"],
      "centre": {
        "type": "Point",
        "coordinates": [1.5569, 45.8758]
      },
      "mairie": {
        "type": "Point",
        "coordinates": [1.5642, 45.8764]
      },
      "population": 328,
      "surface": 2441.43,
      "radius": 2.79
    },
    {
      "nom": "Montrol-Sénard",
      "code": "87100",
      "codesPostaux": ["87330"],
      "centre": {
        "type": "Point",
        "coordinates": [0.9551, 46.0219]
      },
      "mairie": {
        "type": "Point",
        "coordinates": [0.9597, 46.0321]
      },
      "population": 253,
      "surface": 2744.14,
      "radius": 2.96
    },
    {
      "nom": "Mortemart",
      "code": "87101",
      "codesPostaux": ["87330"],
      "centre": {
        "type": "Point",
        "coordinates": [0.9551, 46.0489]
      },
      "mairie": {
        "type": "Point",
        "coordinates": [0.9577, 46.0405]
      },
      "population": 127,
      "surface": 363.78,
      "radius": 1.08
    },
    {
      "nom": "Nantiat",
      "code": "87103",
      "codesPostaux": ["87140"],
      "centre": {
        "type": "Point",
        "coordinates": [1.1749, 46.0083]
      },
      "mairie": {
        "type": "Point",
        "coordinates": [1.1741, 46.0091]
      },
      "population": 1584,
      "surface": 2615.48,
      "radius": 2.89
    },
    {
      "nom": "Nedde",
      "code": "87104",
      "codesPostaux": ["87120"],
      "centre": {
        "type": "Point",
        "coordinates": [1.8314, 45.7163]
      },
      "mairie": {
        "type": "Point",
        "coordinates": [1.8317, 45.7192]
      },
      "population": 455,
      "surface": 5306.15,
      "radius": 4.11
    },
    {
      "nom": "Neuvic-Entier",
      "code": "87105",
      "codesPostaux": ["87130"],
      "centre": {
        "type": "Point",
        "coordinates": [1.6458, 45.7382]
      },
      "mairie": {
        "type": "Point",
        "coordinates": [1.6133, 45.7234]
      },
      "population": 874,
      "surface": 3986.52,
      "radius": 3.56
    },
    {
      "nom": "Nexon",
      "code": "87106",
      "codesPostaux": ["87800"],
      "centre": {
        "type": "Point",
        "coordinates": [1.1779, 45.6648]
      },
      "mairie": {
        "type": "Point",
        "coordinates": [1.1886, 45.6763]
      },
      "population": 2542,
      "surface": 4100.75,
      "radius": 3.61
    },
    {
      "nom": "Nieul",
      "code": "87107",
      "codesPostaux": ["87510"],
      "centre": {
        "type": "Point",
        "coordinates": [1.1781, 45.9191]
      },
      "mairie": {
        "type": "Point",
        "coordinates": [1.1709, 45.9236]
      },
      "population": 1594,
      "surface": 1730.01,
      "radius": 2.35
    },
    {
      "nom": "Nouic",
      "code": "87108",
      "codesPostaux": ["87330"],
      "centre": {
        "type": "Point",
        "coordinates": [0.9162, 46.0552]
      },
      "mairie": {
        "type": "Point",
        "coordinates": [0.919, 46.0599]
      },
      "population": 430,
      "surface": 3590.33,
      "radius": 3.38
    },
    {
      "nom": "Oradour-Saint-Genest",
      "code": "87109",
      "codesPostaux": ["87210"],
      "centre": {
        "type": "Point",
        "coordinates": [1.0207, 46.2445]
      },
      "mairie": {
        "type": "Point",
        "coordinates": [1.0368, 46.2379]
      },
      "population": 354,
      "surface": 3804.26,
      "radius": 3.48
    },
    {
      "nom": "Oradour-sur-Glane",
      "code": "87110",
      "codesPostaux": ["87520"],
      "centre": {
        "type": "Point",
        "coordinates": [1.02, 45.9384]
      },
      "mairie": {
        "type": "Point",
        "coordinates": [1.0323, 45.9312]
      },
      "population": 2517,
      "surface": 3836.71,
      "radius": 3.49
    },
    {
      "nom": "Oradour-sur-Vayres",
      "code": "87111",
      "codesPostaux": ["87150"],
      "centre": {
        "type": "Point",
        "coordinates": [0.8777, 45.7384]
      },
      "mairie": {
        "type": "Point",
        "coordinates": [0.8651, 45.7319]
      },
      "population": 1602,
      "surface": 3923.23,
      "radius": 3.53
    },
    {
      "nom": "Pageas",
      "code": "87112",
      "codesPostaux": ["87230"],
      "centre": {
        "type": "Point",
        "coordinates": [1.014, 45.6826]
      },
      "mairie": {
        "type": "Point",
        "coordinates": [0.9995, 45.6782]
      },
      "population": 639,
      "surface": 2784.63,
      "radius": 2.98
    },
    {
      "nom": "Panazol",
      "code": "87114",
      "codesPostaux": ["87350"],
      "centre": {
        "type": "Point",
        "coordinates": [1.3227, 45.8447]
      },
      "mairie": {
        "type": "Point",
        "coordinates": [1.3057, 45.8372]
      },
      "population": 11207,
      "surface": 2010.38,
      "radius": 2.53
    },
    {
      "nom": "Pensol",
      "code": "87115",
      "codesPostaux": ["87440"],
      "centre": {
        "type": "Point",
        "coordinates": [0.8288, 45.6012]
      },
      "mairie": {
        "type": "Point",
        "coordinates": [0.825, 45.608]
      },
      "population": 179,
      "surface": 1493.97,
      "radius": 2.18
    },
    {
      "nom": "Peyrat-de-Bellac",
      "code": "87116",
      "codesPostaux": ["87300"],
      "centre": {
        "type": "Point",
        "coordinates": [1.0255, 46.1289]
      },
      "mairie": {
        "type": "Point",
        "coordinates": [1.0363, 46.1393]
      },
      "population": 1059,
      "surface": 3141.87,
      "radius": 3.16
    },
    {
      "nom": "Peyrat-le-Château",
      "code": "87117",
      "codesPostaux": ["87470"],
      "centre": {
        "type": "Point",
        "coordinates": [1.7842, 45.82]
      },
      "mairie": {
        "type": "Point",
        "coordinates": [1.7743, 45.8135]
      },
      "population": 1028,
      "surface": 5501.39,
      "radius": 4.18
    },
    {
      "nom": "Peyrilhac",
      "code": "87118",
      "codesPostaux": ["87510"],
      "centre": {
        "type": "Point",
        "coordinates": [1.1177, 45.9641]
      },
      "mairie": {
        "type": "Point",
        "coordinates": [1.1351, 45.9499]
      },
      "population": 1356,
      "surface": 3853.05,
      "radius": 3.5
    },
    {
      "nom": "Pierre-Buffière",
      "code": "87119",
      "codesPostaux": ["87260"],
      "centre": {
        "type": "Point",
        "coordinates": [1.3588, 45.6909]
      },
      "mairie": {
        "type": "Point",
        "coordinates": [1.358, 45.6956]
      },
      "population": 1147,
      "surface": 581.3,
      "radius": 1.36
    },
    {
      "nom": "Rancon",
      "code": "87121",
      "codesPostaux": ["87290"],
      "centre": {
        "type": "Point",
        "coordinates": [1.1853, 46.1267]
      },
      "mairie": {
        "type": "Point",
        "coordinates": [1.1825, 46.1317]
      },
      "population": 477,
      "surface": 3361.65,
      "radius": 3.27
    },
    {
      "nom": "Razès",
      "code": "87122",
      "codesPostaux": ["87640"],
      "centre": {
        "type": "Point",
        "coordinates": [1.3357, 46.0379]
      },
      "mairie": {
        "type": "Point",
        "coordinates": [1.345, 46.0367]
      },
      "population": 1161,
      "surface": 2525.41,
      "radius": 2.84
    },
    {
      "nom": "Rempnat",
      "code": "87123",
      "codesPostaux": ["87120"],
      "centre": {
        "type": "Point",
        "coordinates": [1.8665, 45.6861]
      },
      "mairie": {
        "type": "Point",
        "coordinates": [1.8889, 45.6868]
      },
      "population": 145,
      "surface": 2116.65,
      "radius": 2.6
    },
    {
      "nom": "Rilhac-Lastours",
      "code": "87124",
      "codesPostaux": ["87800"],
      "centre": {
        "type": "Point",
        "coordinates": [1.1152, 45.6576]
      },
      "mairie": {
        "type": "Point",
        "coordinates": [1.1201, 45.6487]
      },
      "population": 381,
      "surface": 1631.98,
      "radius": 2.28
    },
    {
      "nom": "Rilhac-Rancon",
      "code": "87125",
      "codesPostaux": ["87570"],
      "centre": {
        "type": "Point",
        "coordinates": [1.3347, 45.9082]
      },
      "mairie": {
        "type": "Point",
        "coordinates": [1.3153, 45.8983]
      },
      "population": 4733,
      "surface": 1752.93,
      "radius": 2.36
    },
    {
      "nom": "Rochechouart",
      "code": "87126",
      "codesPostaux": ["87600"],
      "centre": {
        "type": "Point",
        "coordinates": [0.8476, 45.8288]
      },
      "mairie": {
        "type": "Point",
        "coordinates": [0.8197, 45.8222]
      },
      "population": 3637,
      "surface": 5385.18,
      "radius": 4.14
    },
    {
      "nom": "Royères",
      "code": "87129",
      "codesPostaux": ["87400"],
      "centre": {
        "type": "Point",
        "coordinates": [1.4372, 45.8494]
      },
      "mairie": {
        "type": "Point",
        "coordinates": [1.4291, 45.8484]
      },
      "population": 942,
      "surface": 1730.34,
      "radius": 2.35
    },
    {
      "nom": "Roziers-Saint-Georges",
      "code": "87130",
      "codesPostaux": ["87130"],
      "centre": {
        "type": "Point",
        "coordinates": [1.5606, 45.7455]
      },
      "mairie": {
        "type": "Point",
        "coordinates": [1.5488, 45.7501]
      },
      "population": 161,
      "surface": 1184.95,
      "radius": 1.94
    },
    {
      "nom": "Saillat-sur-Vienne",
      "code": "87131",
      "codesPostaux": ["87720"],
      "centre": {
        "type": "Point",
        "coordinates": [0.8301, 45.8698]
      },
      "mairie": {
        "type": "Point",
        "coordinates": [0.8156, 45.8708]
      },
      "population": 826,
      "surface": 637.07,
      "radius": 1.42
    },
    {
      "nom": "Saint-Amand-le-Petit",
      "code": "87132",
      "codesPostaux": ["87120"],
      "centre": {
        "type": "Point",
        "coordinates": [1.7707, 45.7657]
      },
      "mairie": {
        "type": "Point",
        "coordinates": [1.7558, 45.773]
      },
      "population": 112,
      "surface": 1542.71,
      "radius": 2.22
    },
    {
      "nom": "Saint-Amand-Magnazeix",
      "code": "87133",
      "codesPostaux": ["87290"],
      "centre": {
        "type": "Point",
        "coordinates": [1.3572, 46.1873]
      },
      "mairie": {
        "type": "Point",
        "coordinates": [1.3533, 46.1741]
      },
      "population": 485,
      "surface": 2955.96,
      "radius": 3.07
    },
    {
      "nom": "Saint-Auvent",
      "code": "87135",
      "codesPostaux": ["87310"],
      "centre": {
        "type": "Point",
        "coordinates": [0.9237, 45.8107]
      },
      "mairie": {
        "type": "Point",
        "coordinates": [0.9321, 45.8046]
      },
      "population": 969,
      "surface": 3348.3,
      "radius": 3.26
    },
    {
      "nom": "Saint-Bazile",
      "code": "87137",
      "codesPostaux": ["87150"],
      "centre": {
        "type": "Point",
        "coordinates": [0.8032, 45.7358]
      },
      "mairie": {
        "type": "Point",
        "coordinates": [0.8281, 45.7319]
      },
      "population": 143,
      "surface": 856.53,
      "radius": 1.65
    },
    {
      "nom": "Saint-Bonnet-Briance",
      "code": "87138",
      "codesPostaux": ["87260"],
      "centre": {
        "type": "Point",
        "coordinates": [1.487, 45.7138]
      },
      "mairie": {
        "type": "Point",
        "coordinates": [1.4751, 45.7081]
      },
      "population": 538,
      "surface": 3031.93,
      "radius": 3.11
    },
    {
      "nom": "Saint-Bonnet-de-Bellac",
      "code": "87139",
      "codesPostaux": ["87300"],
      "centre": {
        "type": "Point",
        "coordinates": [0.9412, 46.166]
      },
      "mairie": {
        "type": "Point",
        "coordinates": [0.9534, 46.1692]
      },
      "population": 456,
      "surface": 3463.06,
      "radius": 3.32
    },
    {
      "nom": "Saint-Brice-sur-Vienne",
      "code": "87140",
      "codesPostaux": ["87200"],
      "centre": {
        "type": "Point",
        "coordinates": [0.9636, 45.909]
      },
      "mairie": {
        "type": "Point",
        "coordinates": [0.9528, 45.8797]
      },
      "population": 1651,
      "surface": 2080.01,
      "radius": 2.57
    },
    {
      "nom": "Saint-Cyr",
      "code": "87141",
      "codesPostaux": ["87310"],
      "centre": {
        "type": "Point",
        "coordinates": [0.9909, 45.7982]
      },
      "mairie": {
        "type": "Point",
        "coordinates": [0.9584, 45.8002]
      },
      "population": 676,
      "surface": 2130.03,
      "radius": 2.6
    },
    {
      "nom": "Saint-Denis-des-Murs",
      "code": "87142",
      "codesPostaux": ["87400"],
      "centre": {
        "type": "Point",
        "coordinates": [1.533, 45.7804]
      },
      "mairie": {
        "type": "Point",
        "coordinates": [1.5452, 45.7861]
      },
      "population": 549,
      "surface": 2379.97,
      "radius": 2.75
    },
    {
      "nom": "Saint-Gence",
      "code": "87143",
      "codesPostaux": ["87510"],
      "centre": {
        "type": "Point",
        "coordinates": [1.137, 45.9098]
      },
      "mairie": {
        "type": "Point",
        "coordinates": [1.1381, 45.9217]
      },
      "population": 2208,
      "surface": 2162.31,
      "radius": 2.62
    },
    {
      "nom": "Saint-Genest-sur-Roselle",
      "code": "87144",
      "codesPostaux": ["87260"],
      "centre": {
        "type": "Point",
        "coordinates": [1.4207, 45.7]
      },
      "mairie": {
        "type": "Point",
        "coordinates": [1.4254, 45.7036]
      },
      "population": 541,
      "surface": 1952.3,
      "radius": 2.49
    },
    {
      "nom": "Saint-Georges-les-Landes",
      "code": "87145",
      "codesPostaux": ["87160"],
      "centre": {
        "type": "Point",
        "coordinates": [1.3509, 46.3612]
      },
      "mairie": {
        "type": "Point",
        "coordinates": [1.3386, 46.3446]
      },
      "population": 232,
      "surface": 1650.76,
      "radius": 2.29
    },
    {
      "nom": "Saint-Germain-les-Belles",
      "code": "87146",
      "codesPostaux": ["87380"],
      "centre": {
        "type": "Point",
        "coordinates": [1.4874, 45.6027]
      },
      "mairie": {
        "type": "Point",
        "coordinates": [1.4956, 45.6142]
      },
      "population": 1148,
      "surface": 3766.01,
      "radius": 3.46
    },
    {
      "nom": "Saint-Gilles-les-Forêts",
      "code": "87147",
      "codesPostaux": ["87130"],
      "centre": {
        "type": "Point",
        "coordinates": [1.6682, 45.6286]
      },
      "mairie": {
        "type": "Point",
        "coordinates": [1.6652, 45.6287]
      },
      "population": 44,
      "surface": 844.33,
      "radius": 1.64
    },
    {
      "nom": "Saint-Hilaire-Bonneval",
      "code": "87148",
      "codesPostaux": ["87260"],
      "centre": {
        "type": "Point",
        "coordinates": [1.3705, 45.7207]
      },
      "mairie": {
        "type": "Point",
        "coordinates": [1.3767, 45.7185]
      },
      "population": 1005,
      "surface": 2892.54,
      "radius": 3.03
    },
    {
      "nom": "Saint-Hilaire-la-Treille",
      "code": "87149",
      "codesPostaux": ["87190"],
      "centre": {
        "type": "Point",
        "coordinates": [1.3077, 46.25]
      },
      "mairie": {
        "type": "Point",
        "coordinates": [1.3173, 46.2517]
      },
      "population": 360,
      "surface": 2916.17,
      "radius": 3.05
    },
    {
      "nom": "Saint-Hilaire-les-Places",
      "code": "87150",
      "codesPostaux": ["87800"],
      "centre": {
        "type": "Point",
        "coordinates": [1.149, 45.6372]
      },
      "mairie": {
        "type": "Point",
        "coordinates": [1.1586, 45.6447]
      },
      "population": 830,
      "surface": 2284.73,
      "radius": 2.7
    },
    {
      "nom": "Saint-Jean-Ligoure",
      "code": "87151",
      "codesPostaux": ["87260"],
      "centre": {
        "type": "Point",
        "coordinates": [1.3088, 45.7004]
      },
      "mairie": {
        "type": "Point",
        "coordinates": [1.3113, 45.6883]
      },
      "population": 489,
      "surface": 3058.57,
      "radius": 3.12
    },
    {
      "nom": "Saint-Jouvent",
      "code": "87152",
      "codesPostaux": ["87510"],
      "centre": {
        "type": "Point",
        "coordinates": [1.2086, 45.9555]
      },
      "mairie": {
        "type": "Point",
        "coordinates": [1.2024, 45.9572]
      },
      "population": 1630,
      "surface": 2494.44,
      "radius": 2.82
    },
    {
      "nom": "Saint-Julien-le-Petit",
      "code": "87153",
      "codesPostaux": ["87460"],
      "centre": {
        "type": "Point",
        "coordinates": [1.707, 45.8209]
      },
      "mairie": {
        "type": "Point",
        "coordinates": [1.7055, 45.8231]
      },
      "population": 296,
      "surface": 2924.12,
      "radius": 3.05
    },
    {
      "nom": "Saint-Junien",
      "code": "87154",
      "codesPostaux": ["87200"],
      "centre": {
        "type": "Point",
        "coordinates": [0.8853, 45.8965]
      },
      "mairie": {
        "type": "Point",
        "coordinates": [0.9011, 45.8871]
      },
      "population": 11382,
      "surface": 5881.72,
      "radius": 4.33
    },
    {
      "nom": "Saint-Junien-les-Combes",
      "code": "87155",
      "codesPostaux": ["87300"],
      "centre": {
        "type": "Point",
        "coordinates": [1.1313, 46.0851]
      },
      "mairie": {
        "type": "Point",
        "coordinates": [1.1229, 46.0865]
      },
      "population": 182,
      "surface": 2060.02,
      "radius": 2.56
    },
    {
      "nom": "Saint-Just-le-Martel",
      "code": "87156",
      "codesPostaux": ["87590"],
      "centre": {
        "type": "Point",
        "coordinates": [1.3873, 45.852]
      },
      "mairie": {
        "type": "Point",
        "coordinates": [1.386, 45.8624]
      },
      "population": 2654,
      "surface": 3219.14,
      "radius": 3.2
    },
    {
      "nom": "Saint-Laurent-les-Églises",
      "code": "87157",
      "codesPostaux": ["87240"],
      "centre": {
        "type": "Point",
        "coordinates": [1.4745, 45.9661]
      },
      "mairie": {
        "type": "Point",
        "coordinates": [1.4975, 45.9517]
      },
      "population": 842,
      "surface": 2763.8,
      "radius": 2.97
    },
    {
      "nom": "Saint-Laurent-sur-Gorre",
      "code": "87158",
      "codesPostaux": ["87310"],
      "centre": {
        "type": "Point",
        "coordinates": [0.981, 45.7708]
      },
      "mairie": {
        "type": "Point",
        "coordinates": [0.9584, 45.7693]
      },
      "population": 1391,
      "surface": 3971.37,
      "radius": 3.56
    },
    {
      "nom": "Saint-Léger-la-Montagne",
      "code": "87159",
      "codesPostaux": ["87340"],
      "centre": {
        "type": "Point",
        "coordinates": [1.4275, 46.0311]
      },
      "mairie": {
        "type": "Point",
        "coordinates": [1.4185, 46.0291]
      },
      "population": 358,
      "surface": 3270.73,
      "radius": 3.23
    },
    {
      "nom": "Saint-Léger-Magnazeix",
      "code": "87160",
      "codesPostaux": ["87190"],
      "centre": {
        "type": "Point",
        "coordinates": [1.2317, 46.2864]
      },
      "mairie": {
        "type": "Point",
        "coordinates": [1.2469, 46.2871]
      },
      "population": 489,
      "surface": 5631.6,
      "radius": 4.23
    },
    {
      "nom": "Saint-Léonard-de-Noblat",
      "code": "87161",
      "codesPostaux": ["87400"],
      "centre": {
        "type": "Point",
        "coordinates": [1.499, 45.8446]
      },
      "mairie": {
        "type": "Point",
        "coordinates": [1.4864, 45.8367]
      },
      "population": 4319,
      "surface": 5558.15,
      "radius": 4.21
    },
    {
      "nom": "Saint-Martial-sur-Isop",
      "code": "87163",
      "codesPostaux": ["87330"],
      "centre": {
        "type": "Point",
        "coordinates": [0.8719, 46.1525]
      },
      "mairie": {
        "type": "Point",
        "coordinates": [0.8496, 46.1682]
      },
      "population": 146,
      "surface": 2381.58,
      "radius": 2.75
    },
    {
      "nom": "Saint-Martin-de-Jussac",
      "code": "87164",
      "codesPostaux": ["87200"],
      "centre": {
        "type": "Point",
        "coordinates": [0.9425, 45.858]
      },
      "mairie": {
        "type": "Point",
        "coordinates": [0.9412, 45.8769]
      },
      "population": 567,
      "surface": 1437.11,
      "radius": 2.14
    },
    {
      "nom": "Saint-Martin-le-Mault",
      "code": "87165",
      "codesPostaux": ["87360"],
      "centre": {
        "type": "Point",
        "coordinates": [1.2177, 46.3625]
      },
      "mairie": {
        "type": "Point",
        "coordinates": [1.2153, 46.3625]
      },
      "population": 145,
      "surface": 1258.31,
      "radius": 2
    },
    {
      "nom": "Saint-Martin-le-Vieux",
      "code": "87166",
      "codesPostaux": ["87700"],
      "centre": {
        "type": "Point",
        "coordinates": [1.1206, 45.7516]
      },
      "mairie": {
        "type": "Point",
        "coordinates": [1.1193, 45.746]
      },
      "population": 878,
      "surface": 1737.01,
      "radius": 2.35
    },
    {
      "nom": "Saint-Martin-Terressus",
      "code": "87167",
      "codesPostaux": ["87400"],
      "centre": {
        "type": "Point",
        "coordinates": [1.4587, 45.9141]
      },
      "mairie": {
        "type": "Point",
        "coordinates": [1.4421, 45.92]
      },
      "population": 580,
      "surface": 2327.68,
      "radius": 2.72
    },
    {
      "nom": "Saint-Mathieu",
      "code": "87168",
      "codesPostaux": ["87440"],
      "centre": {
        "type": "Point",
        "coordinates": [0.7724, 45.7044]
      },
      "mairie": {
        "type": "Point",
        "coordinates": [0.7589, 45.7055]
      },
      "population": 1069,
      "surface": 4080.69,
      "radius": 3.6
    },
    {
      "nom": "Saint-Maurice-les-Brousses",
      "code": "87169",
      "codesPostaux": ["87800"],
      "centre": {
        "type": "Point",
        "coordinates": [1.2368, 45.701]
      },
      "mairie": {
        "type": "Point",
        "coordinates": [1.2359, 45.6983]
      },
      "population": 1041,
      "surface": 1093.68,
      "radius": 1.87
    },
    {
      "nom": "Saint-Méard",
      "code": "87170",
      "codesPostaux": ["87130"],
      "centre": {
        "type": "Point",
        "coordinates": [1.5422, 45.6623]
      },
      "mairie": {
        "type": "Point",
        "coordinates": [1.5481, 45.665]
      },
      "population": 367,
      "surface": 2456.95,
      "radius": 2.8
    },
    {
      "nom": "Saint-Ouen-sur-Gartempe",
      "code": "87172",
      "codesPostaux": ["87300"],
      "centre": {
        "type": "Point",
        "coordinates": [1.0801, 46.1729]
      },
      "mairie": {
        "type": "Point",
        "coordinates": [1.0682, 46.1634]
      },
      "population": 214,
      "surface": 2216.57,
      "radius": 2.66
    },
    {
      "nom": "Saint-Pardoux-le-Lac",
      "code": "87128",
      "codesPostaux": ["87140", "87250"],
      "centre": {
        "type": "Point",
        "coordinates": [1.2506, 46.0556]
      },
      "mairie": {
        "type": "Point",
        "coordinates": [1.2016, 46.0782]
      },
      "population": 1364,
      "surface": 6920.34,
      "radius": 4.69
    },
    {
      "nom": "Saint-Paul",
      "code": "87174",
      "codesPostaux": ["87260"],
      "centre": {
        "type": "Point",
        "coordinates": [1.452, 45.754]
      },
      "mairie": {
        "type": "Point",
        "coordinates": [1.4293, 45.7528]
      },
      "population": 1235,
      "surface": 3744.61,
      "radius": 3.45
    },
    {
      "nom": "Saint-Priest-Ligoure",
      "code": "87176",
      "codesPostaux": ["87800"],
      "centre": {
        "type": "Point",
        "coordinates": [1.2989, 45.6207]
      },
      "mairie": {
        "type": "Point",
        "coordinates": [1.2896, 45.6495]
      },
      "population": 696,
      "surface": 4176.11,
      "radius": 3.65
    },
    {
      "nom": "Saint-Priest-sous-Aixe",
      "code": "87177",
      "codesPostaux": ["87700"],
      "centre": {
        "type": "Point",
        "coordinates": [1.0836, 45.8229]
      },
      "mairie": {
        "type": "Point",
        "coordinates": [1.1011, 45.8176]
      },
      "population": 1764,
      "surface": 2313.11,
      "radius": 2.71
    },
    {
      "nom": "Saint-Priest-Taurion",
      "code": "87178",
      "codesPostaux": ["87480"],
      "centre": {
        "type": "Point",
        "coordinates": [1.4038, 45.9011]
      },
      "mairie": {
        "type": "Point",
        "coordinates": [1.3975, 45.8868]
      },
      "population": 2896,
      "surface": 2700.48,
      "radius": 2.93
    },
    {
      "nom": "Saint-Sornin-la-Marche",
      "code": "87179",
      "codesPostaux": ["87210"],
      "centre": {
        "type": "Point",
        "coordinates": [0.9914, 46.1931]
      },
      "mairie": {
        "type": "Point",
        "coordinates": [0.991, 46.1833]
      },
      "population": 224,
      "surface": 2418.17,
      "radius": 2.77
    },
    {
      "nom": "Saint-Sornin-Leulac",
      "code": "87180",
      "codesPostaux": ["87290"],
      "centre": {
        "type": "Point",
        "coordinates": [1.2971, 46.1969]
      },
      "mairie": {
        "type": "Point",
        "coordinates": [1.2981, 46.1983]
      },
      "population": 562,
      "surface": 3254.72,
      "radius": 3.22
    },
    {
      "nom": "Saint-Sulpice-Laurière",
      "code": "87181",
      "codesPostaux": ["87370"],
      "centre": {
        "type": "Point",
        "coordinates": [1.4756, 46.0567]
      },
      "mairie": {
        "type": "Point",
        "coordinates": [1.4713, 46.0528]
      },
      "population": 804,
      "surface": 1435.29,
      "radius": 2.14
    },
    {
      "nom": "Saint-Sulpice-les-Feuilles",
      "code": "87182",
      "codesPostaux": ["87160"],
      "centre": {
        "type": "Point",
        "coordinates": [1.393, 46.3146]
      },
      "mairie": {
        "type": "Point",
        "coordinates": [1.3707, 46.3192]
      },
      "population": 1196,
      "surface": 3571.78,
      "radius": 3.37
    },
    {
      "nom": "Saint-Sylvestre",
      "code": "87183",
      "codesPostaux": ["87240"],
      "centre": {
        "type": "Point",
        "coordinates": [1.3642, 45.9965]
      },
      "mairie": {
        "type": "Point",
        "coordinates": [1.377, 45.9957]
      },
      "population": 922,
      "surface": 3129.99,
      "radius": 3.16
    },
    {
      "nom": "Saint-Victurnien",
      "code": "87185",
      "codesPostaux": ["87420"],
      "centre": {
        "type": "Point",
        "coordinates": [1.0303, 45.8789]
      },
      "mairie": {
        "type": "Point",
        "coordinates": [1.0132, 45.878]
      },
      "population": 1767,
      "surface": 2143.65,
      "radius": 2.61
    },
    {
      "nom": "Saint-Vitte-sur-Briance",
      "code": "87186",
      "codesPostaux": ["87380"],
      "centre": {
        "type": "Point",
        "coordinates": [1.5313, 45.6232]
      },
      "mairie": {
        "type": "Point",
        "coordinates": [1.5461, 45.6253]
      },
      "population": 323,
      "surface": 2096.16,
      "radius": 2.58
    },
    {
      "nom": "Saint-Yrieix-la-Perche",
      "code": "87187",
      "codesPostaux": ["87500"],
      "centre": {
        "type": "Point",
        "coordinates": [1.2026, 45.5274]
      },
      "mairie": {
        "type": "Point",
        "coordinates": [1.2038, 45.5125]
      },
      "population": 6873,
      "surface": 10152.13,
      "radius": 5.68
    },
    {
      "nom": "Saint-Yrieix-sous-Aixe",
      "code": "87188",
      "codesPostaux": ["87700"],
      "centre": {
        "type": "Point",
        "coordinates": [1.0639, 45.8496]
      },
      "mairie": {
        "type": "Point",
        "coordinates": [1.0779, 45.8586]
      },
      "population": 441,
      "surface": 870.38,
      "radius": 1.66
    },
    {
      "nom": "Sainte-Anne-Saint-Priest",
      "code": "87134",
      "codesPostaux": ["87120"],
      "centre": {
        "type": "Point",
        "coordinates": [1.6815, 45.6971]
      },
      "mairie": {
        "type": "Point",
        "coordinates": [1.6869, 45.7089]
      },
      "population": 140,
      "surface": 1681.38,
      "radius": 2.31
    },
    {
      "nom": "Sainte-Marie-de-Vaux",
      "code": "87162",
      "codesPostaux": ["87420"],
      "centre": {
        "type": "Point",
        "coordinates": [1.0413, 45.8613]
      },
      "mairie": {
        "type": "Point",
        "coordinates": [1.046, 45.8642]
      },
      "population": 206,
      "surface": 552.18,
      "radius": 1.33
    },
    {
      "nom": "Sauviat-sur-Vige",
      "code": "87190",
      "codesPostaux": ["87400"],
      "centre": {
        "type": "Point",
        "coordinates": [1.5825, 45.9077]
      },
      "mairie": {
        "type": "Point",
        "coordinates": [1.6062, 45.907]
      },
      "population": 879,
      "surface": 3112.52,
      "radius": 3.15
    },
    {
      "nom": "Séreilhac",
      "code": "87191",
      "codesPostaux": ["87620"],
      "centre": {
        "type": "Point",
        "coordinates": [1.0645, 45.7599]
      },
      "mairie": {
        "type": "Point",
        "coordinates": [1.0805, 45.7666]
      },
      "population": 2045,
      "surface": 3868.37,
      "radius": 3.51
    },
    {
      "nom": "Solignac",
      "code": "87192",
      "codesPostaux": ["87110"],
      "centre": {
        "type": "Point",
        "coordinates": [1.255, 45.7603]
      },
      "mairie": {
        "type": "Point",
        "coordinates": [1.2744, 45.7553]
      },
      "population": 1561,
      "surface": 1679.84,
      "radius": 2.31
    },
    {
      "nom": "Surdoux",
      "code": "87193",
      "codesPostaux": ["87130"],
      "centre": {
        "type": "Point",
        "coordinates": [1.6429, 45.6048]
      },
      "mairie": {
        "type": "Point",
        "coordinates": [1.6487, 45.6066]
      },
      "population": 54,
      "surface": 390.21,
      "radius": 1.11
    },
    {
      "nom": "Sussac",
      "code": "87194",
      "codesPostaux": ["87130"],
      "centre": {
        "type": "Point",
        "coordinates": [1.6532, 45.6567]
      },
      "mairie": {
        "type": "Point",
        "coordinates": [1.6509, 45.6646]
      },
      "population": 364,
      "surface": 2550.16,
      "radius": 2.85
    },
    {
      "nom": "Tersannes",
      "code": "87195",
      "codesPostaux": ["87360"],
      "centre": {
        "type": "Point",
        "coordinates": [1.1273, 46.2921]
      },
      "mairie": {
        "type": "Point",
        "coordinates": [1.1223, 46.298]
      },
      "population": 128,
      "surface": 2471.23,
      "radius": 2.8
    },
    {
      "nom": "Thouron",
      "code": "87197",
      "codesPostaux": ["87140"],
      "centre": {
        "type": "Point",
        "coordinates": [1.2211, 45.997]
      },
      "mairie": {
        "type": "Point",
        "coordinates": [1.2183, 45.9983]
      },
      "population": 563,
      "surface": 1397.12,
      "radius": 2.11
    },
    {
      "nom": "Val d'Issoire",
      "code": "87097",
      "codesPostaux": ["87330"],
      "centre": {
        "type": "Point",
        "coordinates": [0.9004, 46.0884]
      },
      "mairie": {
        "type": "Point",
        "coordinates": [0.9114, 46.1078]
      },
      "population": 1031,
      "surface": 7098.21,
      "radius": 4.75
    },
    {
      "nom": "Val-d'Oire-et-Gartempe",
      "code": "87028",
      "codesPostaux": ["87320", "87330"],
      "centre": {
        "type": "Point",
        "coordinates": [0.8987, 46.2293]
      },
      "mairie": {
        "type": "Point",
        "coordinates": [0.9061, 46.2341]
      },
      "population": 1712,
      "surface": 12067.91,
      "radius": 6.2
    },
    {
      "nom": "Vaulry",
      "code": "87198",
      "codesPostaux": ["87140"],
      "centre": {
        "type": "Point",
        "coordinates": [1.088, 46.0292]
      },
      "mairie": {
        "type": "Point",
        "coordinates": [1.085, 46.0225]
      },
      "population": 397,
      "surface": 1560.03,
      "radius": 2.23
    },
    {
      "nom": "Vayres",
      "code": "87199",
      "codesPostaux": ["87600"],
      "centre": {
        "type": "Point",
        "coordinates": [0.8238, 45.7701]
      },
      "mairie": {
        "type": "Point",
        "coordinates": [0.8099, 45.759]
      },
      "population": 708,
      "surface": 3810.3,
      "radius": 3.48
    },
    {
      "nom": "Verneuil-Moustiers",
      "code": "87200",
      "codesPostaux": ["87360"],
      "centre": {
        "type": "Point",
        "coordinates": [1.1121, 46.3362]
      },
      "mairie": {
        "type": "Point",
        "coordinates": [1.1341, 46.341]
      },
      "population": 122,
      "surface": 1968.3,
      "radius": 2.5
    },
    {
      "nom": "Verneuil-sur-Vienne",
      "code": "87201",
      "codesPostaux": ["87430"],
      "centre": {
        "type": "Point",
        "coordinates": [1.1215, 45.8481]
      },
      "mairie": {
        "type": "Point",
        "coordinates": [1.1269, 45.8493]
      },
      "population": 4940,
      "surface": 3425.16,
      "radius": 3.3
    },
    {
      "nom": "Veyrac",
      "code": "87202",
      "codesPostaux": ["87520"],
      "centre": {
        "type": "Point",
        "coordinates": [1.0912, 45.9064]
      },
      "mairie": {
        "type": "Point",
        "coordinates": [1.1061, 45.8975]
      },
      "population": 2162,
      "surface": 3466.95,
      "radius": 3.32
    },
    {
      "nom": "Vicq-sur-Breuilh",
      "code": "87203",
      "codesPostaux": ["87260"],
      "centre": {
        "type": "Point",
        "coordinates": [1.3918, 45.6484]
      },
      "mairie": {
        "type": "Point",
        "coordinates": [1.3843, 45.6455]
      },
      "population": 1327,
      "surface": 5140.69,
      "radius": 4.05
    },
    {
      "nom": "Videix",
      "code": "87204",
      "codesPostaux": ["87600"],
      "centre": {
        "type": "Point",
        "coordinates": [0.7355, 45.7788]
      },
      "mairie": {
        "type": "Point",
        "coordinates": [0.7379, 45.7897]
      },
      "population": 204,
      "surface": 1636.38,
      "radius": 2.28
    },
    {
      "nom": "Villefavard",
      "code": "87206",
      "codesPostaux": ["87190"],
      "centre": {
        "type": "Point",
        "coordinates": [1.2178, 46.1702]
      },
      "mairie": {
        "type": "Point",
        "coordinates": [1.2134, 46.1653]
      },
      "population": 164,
      "surface": 933.02,
      "radius": 1.72
    }
  ],
  "postalCodes": {
    "87000": {
      "communes": ["Limoges"],
      "communeCount": 1,
      "center": [1.2605, 45.8263],
      "coverageRadius": 5.04,
      "totalPopulation": 129754,
      "totalSurface": 7979
    },
    "87100": {
      "communes": ["Limoges"],
      "communeCount": 1,
      "center": [1.2605, 45.8263],
      "coverageRadius": 5.04,
      "totalPopulation": 129754,
      "totalSurface": 7979
    },
    "87110": {
      "communes": ["Bosmie-l'Aiguille", "Solignac", "Le Vigen"],
      "communeCount": 3,
      "center": [1.2559, 45.7588],
      "coverageRadius": 3.3,
      "boundingBox": {
        "minLat": 45.7507,
        "maxLat": 45.7681,
        "minLon": 1.2159,
        "maxLon": 1.2889
      },
      "totalPopulation": 6479,
      "totalSurface": 5462
    },
    "87120": {
      "communes": [
        "Augne",
        "Beaumont-du-Lac",
        "Domps",
        "Eymoutiers",
        "Nedde",
        "Rempnat",
        "Saint-Amand-le-Petit",
        "Sainte-Anne-Saint-Priest"
      ],
      "communeCount": 8,
      "center": [1.7623, 45.7343],
      "coverageRadius": 11.2,
      "boundingBox": {
        "minLat": 45.6624,
        "maxLat": 45.7828,
        "minLon": 1.6869,
        "maxLon": 1.8889
      },
      "totalPopulation": 3278,
      "totalSurface": 23611
    },
    "87130": {
      "communes": [
        "Châteauneuf-la-Forêt",
        "La Croisille-sur-Briance",
        "Linards",
        "Masléon",
        "Neuvic-Entier",
        "Roziers-Saint-Georges",
        "Saint-Gilles-les-Forêts",
        "Saint-Méard",
        "Surdoux",
        "Sussac"
      ],
      "communeCount": 10,
      "center": [1.5881, 45.6967],
      "coverageRadius": 11.1,
      "boundingBox": {
        "minLat": 45.6066,
        "maxLat": 45.7634,
        "minLon": 1.5358,
        "maxLon": 1.6652
      },
      "totalPopulation": 5380,
      "totalSurface": 23295
    },
    "87140": {
      "communes": ["Le Buis", "Chamboret", "Compreignac", "Nantiat", "Saint-Pardoux-le-Lac", "Thouron", "Vaulry"],
      "communeCount": 7,
      "center": [1.2022, 46.0186],
      "coverageRadius": 9.1,
      "boundingBox": {
        "minLat": 45.9919,
        "maxLat": 46.0782,
        "minLon": 1.085,
        "maxLon": 1.2746
      },
      "totalPopulation": 6745,
      "totalSurface": 20307
    },
    "87150": {
      "communes": ["Champagnac-la-Rivière", "Cussac", "Oradour-sur-Vayres", "Saint-Bazile"],
      "communeCount": 4,
      "center": [0.8673, 45.7195],
      "coverageRadius": 3.7,
      "boundingBox": {
        "minLat": 45.7055,
        "maxLat": 45.7319,
        "minLon": 0.8281,
        "maxLon": 0.9127
      },
      "totalPopulation": 3484,
      "totalSurface": 10391
    },
    "87160": {
      "communes": [
        "Arnac-la-Poste",
        "Cromac",
        "Les Grands-Chézeaux",
        "Mailhac-sur-Benaize",
        "Saint-Georges-les-Landes",
        "Saint-Sulpice-les-Feuilles"
      ],
      "communeCount": 6,
      "center": [1.3619, 46.3097],
      "coverageRadius": 6.1,
      "boundingBox": {
        "minLat": 46.2658,
        "maxLat": 46.3501,
        "minLon": 1.2989,
        "maxLon": 1.3941
      },
      "totalPopulation": 3085,
      "totalSurface": 15832
    },
    "87170": {
      "communes": ["Isle"],
      "communeCount": 1,
      "center": [1.2237, 45.8054],
      "coverageRadius": 2.53,
      "totalPopulation": 7915,
      "totalSurface": 2011
    },
    "87190": {
      "communes": [
        "Dompierre-les-Églises",
        "Droux",
        "Magnac-Laval",
        "Saint-Hilaire-la-Treille",
        "Saint-Léger-Magnazeix",
        "Villefavard"
      ],
      "communeCount": 6,
      "center": [1.2038, 46.222],
      "coverageRadius": 9.4,
      "boundingBox": {
        "minLat": 46.159,
        "maxLat": 46.2871,
        "minLon": 1.1537,
        "maxLon": 1.3173
      },
      "totalPopulation": 3440,
      "totalSurface": 22208
    },
    "87200": {
      "communes": ["Chaillac-sur-Vienne", "Saint-Brice-sur-Vienne", "Saint-Junien", "Saint-Martin-de-Jussac"],
      "communeCount": 4,
      "center": [0.906, 45.8851],
      "coverageRadius": 3.7,
      "boundingBox": {
        "minLat": 45.8769,
        "maxLat": 45.8871,
        "minLon": 0.8735,
        "maxLon": 0.9528
      },
      "totalPopulation": 14853,
      "totalSurface": 10927
    },
    "87210": {
      "communes": [
        "La Bazeuge",
        "La Croix-sur-Gartempe",
        "Dinsac",
        "Le Dorat",
        "Oradour-Saint-Genest",
        "Saint-Sornin-la-Marche"
      ],
      "communeCount": 6,
      "center": [1.0691, 46.2157],
      "coverageRadius": 8.7,
      "boundingBox": {
        "minLat": 46.1601,
        "maxLat": 46.244,
        "minLon": 0.991,
        "maxLon": 1.1195
      },
      "totalPopulation": 2656,
      "totalSurface": 12854
    },
    "87220": {
      "communes": ["Aureil", "Boisseuil", "Eyjeaux", "Feytiat"],
      "communeCount": 4,
      "center": [1.3414, 45.7955],
      "coverageRadius": 4.6,
      "boundingBox": {
        "minLat": 45.7701,
        "maxLat": 45.8102,
        "minLon": 1.3263,
        "maxLon": 1.3933
      },
      "totalPopulation": 11539,
      "totalSurface": 7812
    },
    "87230": {
      "communes": ["Bussière-Galant", "Les Cars", "Châlus", "Champsac", "Dournazac", "Flavignac", "Lavignac", "Pageas"],
      "communeCount": 8,
      "center": [1.013, 45.6639],
      "coverageRadius": 10.5,
      "boundingBox": {
        "minLat": 45.6252,
        "maxLat": 45.7221,
        "minLon": 0.9169,
        "maxLon": 1.1192
      },
      "totalPopulation": 6791,
      "totalSurface": 22369
    },
    "87240": {
      "communes": ["Ambazac", "Saint-Laurent-les-Églises", "Saint-Sylvestre"],
      "communeCount": 3,
      "center": [1.4099, 45.9622],
      "coverageRadius": 6.9,
      "boundingBox": {
        "minLat": 45.9517,
        "maxLat": 45.9957,
        "minLon": 1.377,
        "maxLon": 1.4975
      },
      "totalPopulation": 7329,
      "totalSurface": 11767
    },
    "87250": {
      "communes": ["Bessines-sur-Gartempe", "Folles", "Fromental", "Saint-Pardoux-le-Lac"],
      "communeCount": 4,
      "center": [1.3348, 46.1064],
      "coverageRadius": 10.8,
      "boundingBox": {
        "minLat": 46.0782,
        "maxLat": 46.1596,
        "minLon": 1.2016,
        "maxLon": 1.4609
      },
      "totalPopulation": 5063,
      "totalSurface": 17919
    },
    "87260": {
      "communes": [
        "Pierre-Buffière",
        "Saint-Bonnet-Briance",
        "Saint-Genest-sur-Roselle",
        "Saint-Hilaire-Bonneval",
        "Saint-Jean-Ligoure",
        "Saint-Paul",
        "Vicq-sur-Breuilh"
      ],
      "communeCount": 7,
      "center": [1.3928, 45.7011],
      "coverageRadius": 6.5,
      "boundingBox": {
        "minLat": 45.6455,
        "maxLat": 45.7528,
        "minLon": 1.3113,
        "maxLon": 1.4751
      },
      "totalPopulation": 6282,
      "totalSurface": 20402
    },
    "87270": {
      "communes": ["Bonnac-la-Côte", "Chaptelat", "Couzeix"],
      "communeCount": 3,
      "center": [1.2471, 45.8902],
      "coverageRadius": 6.6,
      "boundingBox": {
        "minLat": 45.8778,
        "maxLat": 45.9422,
        "minLon": 1.2383,
        "maxLon": 1.2862
      },
      "totalPopulation": 13751,
      "totalSurface": 7492
    },
    "87280": {
      "communes": ["Limoges"],
      "communeCount": 1,
      "center": [1.2605, 45.8263],
      "coverageRadius": 5.04,
      "totalPopulation": 129754,
      "totalSurface": 7979
    },
    "87290": {
      "communes": ["Balledent", "Châteauponsac", "Rancon", "Saint-Amand-Magnazeix", "Saint-Sornin-Leulac"],
      "communeCount": 5,
      "center": [1.2741, 46.1467],
      "coverageRadius": 7.3,
      "boundingBox": {
        "minLat": 46.1111,
        "maxLat": 46.1983,
        "minLon": 1.1825,
        "maxLon": 1.3533
      },
      "totalPopulation": 3751,
      "totalSurface": 17736
    },
    "87300": {
      "communes": [
        "Bellac",
        "Berneuil",
        "Blanzac",
        "Blond",
        "Breuilaufa",
        "Peyrat-de-Bellac",
        "Saint-Bonnet-de-Bellac",
        "Saint-Junien-les-Combes",
        "Saint-Ouen-sur-Gartempe"
      ],
      "communeCount": 9,
      "center": [1.048, 46.1166],
      "coverageRadius": 9.5,
      "boundingBox": {
        "minLat": 46.0417,
        "maxLat": 46.1692,
        "minLon": 0.9534,
        "maxLon": 1.1229
      },
      "totalPopulation": 7192,
      "totalSurface": 25217
    },
    "87310": {
      "communes": ["Cognac-la-Forêt", "Gorre", "Saint-Auvent", "Saint-Cyr", "Saint-Laurent-sur-Gorre"],
      "communeCount": 5,
      "center": [0.9683, 45.7951],
      "coverageRadius": 6.2,
      "boundingBox": {
        "minLat": 45.741,
        "maxLat": 45.8318,
        "minLon": 0.9321,
        "maxLon": 1.01
      },
      "totalPopulation": 4623,
      "totalSurface": 14292
    },
    "87320": {
      "communes": ["Val-d'Oire-et-Gartempe"],
      "communeCount": 1,
      "center": [0.9061, 46.2341],
      "coverageRadius": 6.2,
      "totalPopulation": 1712,
      "totalSurface": 12068
    },
    "87330": {
      "communes": [
        "Val-d'Oire-et-Gartempe",
        "Gajoubert",
        "Val d'Issoire",
        "Montrol-Sénard",
        "Mortemart",
        "Nouic",
        "Saint-Martial-sur-Isop"
      ],
      "communeCount": 7,
      "center": [0.9092, 46.1539],
      "coverageRadius": 14.1,
      "boundingBox": {
        "minLat": 46.0321,
        "maxLat": 46.2341,
        "minLon": 0.831,
        "maxLon": 0.9597
      },
      "totalPopulation": 3847,
      "totalSurface": 29667
    },
    "87340": {
      "communes": ["Les Billanges", "La Jonchère-Saint-Maurice", "Saint-Léger-la-Montagne"],
      "communeCount": 3,
      "center": [1.4689, 45.9991],
      "coverageRadius": 6.4,
      "boundingBox": {
        "minLat": 45.9635,
        "maxLat": 46.0291,
        "minLon": 1.4185,
        "maxLon": 1.5338
      },
      "totalPopulation": 1458,
      "totalSurface": 7134
    },
    "87350": {
      "communes": ["Panazol"],
      "communeCount": 1,
      "center": [1.3057, 45.8372],
      "coverageRadius": 2.53,
      "totalPopulation": 11207,
      "totalSurface": 2010
    },
    "87360": {
      "communes": ["Azat-le-Ris", "Lussac-les-Églises", "Saint-Martin-le-Mault", "Tersannes", "Verneuil-Moustiers"],
      "communeCount": 5,
      "center": [1.1432, 46.3363],
      "coverageRadius": 6.8,
      "boundingBox": {
        "minLat": 46.298,
        "maxLat": 46.3625,
        "minLon": 1.0583,
        "maxLon": 1.2153
      },
      "totalPopulation": 1098,
      "totalSurface": 15467
    },
    "87370": {
      "communes": ["Bersac-sur-Rivalier", "Jabreilles-les-Bordes", "Laurière", "Saint-Sulpice-Laurière"],
      "communeCount": 4,
      "center": [1.4643, 46.0625],
      "coverageRadius": 6.4,
      "boundingBox": {
        "minLat": 46.0184,
        "maxLat": 46.0803,
        "minLon": 1.426,
        "maxLon": 1.5162
      },
      "totalPopulation": 2197,
      "totalSurface": 8716
    },
    "87380": {
      "communes": [
        "Château-Chervix",
        "Glanges",
        "Magnac-Bourg",
        "Meuzac",
        "La Porcherie",
        "Saint-Germain-les-Belles",
        "Saint-Vitte-sur-Briance"
      ],
      "communeCount": 7,
      "center": [1.4555, 45.6086],
      "coverageRadius": 8,
      "boundingBox": {
        "minLat": 45.5537,
        "maxLat": 45.6702,
        "minLon": 1.3534,
        "maxLon": 1.5461
      },
      "totalPopulation": 5138,
      "totalSurface": 22361
    },
    "87400": {
      "communes": [
        "Champnétery",
        "Le Châtenet-en-Dognon",
        "Eybouleuf",
        "La Geneytouse",
        "Moissannes",
        "Royères",
        "Saint-Denis-des-Murs",
        "Saint-Léonard-de-Noblat",
        "Saint-Martin-Terressus",
        "Sauviat-sur-Vige"
      ],
      "communeCount": 10,
      "center": [1.4981, 45.8432],
      "coverageRadius": 11,
      "boundingBox": {
        "minLat": 45.7861,
        "maxLat": 45.92,
        "minLon": 1.4291,
        "maxLon": 1.6062
      },
      "totalPopulation": 9972,
      "totalSurface": 25637
    },
    "87410": {
      "communes": ["Le Palais-sur-Vienne"],
      "communeCount": 1,
      "center": [1.3229, 45.8659],
      "coverageRadius": 1.81,
      "totalPopulation": 5861,
      "totalSurface": 1032
    },
    "87420": {
      "communes": ["Sainte-Marie-de-Vaux", "Saint-Victurnien"],
      "communeCount": 2,
      "center": [1.0166, 45.8766],
      "coverageRadius": 2.7,
      "boundingBox": {
        "minLat": 45.8642,
        "maxLat": 45.878,
        "minLon": 1.0132,
        "maxLon": 1.046
      },
      "totalPopulation": 1973,
      "totalSurface": 2696
    },
    "87430": {
      "communes": ["Verneuil-sur-Vienne"],
      "communeCount": 1,
      "center": [1.1269, 45.8493],
      "coverageRadius": 3.3,
      "totalPopulation": 4940,
      "totalSurface": 3425
    },
    "87440": {
      "communes": [
        "La Chapelle-Montbrandeix",
        "Maisonnais-sur-Tardoire",
        "Marval",
        "Pensol",
        "Saint-Mathieu",
        "Les Salles-Lavauguyon"
      ],
      "communeCount": 6,
      "center": [0.7658, 45.681],
      "coverageRadius": 9.4,
      "boundingBox": {
        "minLat": 45.608,
        "maxLat": 45.7445,
        "minLon": 0.6896,
        "maxLon": 0.8481
      },
      "totalPopulation": 2526,
      "totalSurface": 15896
    },
    "87460": {
      "communes": ["Bujaleuf", "Cheissoux", "Saint-Julien-le-Petit"],
      "communeCount": 3,
      "center": [1.648, 45.8071],
      "coverageRadius": 4.8,
      "boundingBox": {
        "minLat": 45.795,
        "maxLat": 45.8331,
        "minLon": 1.6286,
        "maxLon": 1.7055
      },
      "totalPopulation": 1392,
      "totalSurface": 8139
    },
    "87470": {
      "communes": ["Peyrat-le-Château"],
      "communeCount": 1,
      "center": [1.7743, 45.8135],
      "coverageRadius": 4.18,
      "totalPopulation": 1028,
      "totalSurface": 5501
    },
    "87480": {
      "communes": ["Saint-Priest-Taurion"],
      "communeCount": 1,
      "center": [1.3975, 45.8868],
      "coverageRadius": 2.93,
      "totalPopulation": 2896,
      "totalSurface": 2700
    },
    "87500": {
      "communes": ["Le Chalard", "Coussac-Bonneval", "Glandon", "Ladignac-le-Long", "Saint-Yrieix-la-Perche"],
      "communeCount": 5,
      "center": [1.208, 45.5185],
      "coverageRadius": 10.4,
      "boundingBox": {
        "minLat": 45.4799,
        "maxLat": 45.5825,
        "minLon": 1.1122,
        "maxLon": 1.3261
      },
      "totalPopulation": 10412,
      "totalSurface": 25500
    },
    "87510": {
      "communes": ["Nieul", "Peyrilhac", "Saint-Gence", "Saint-Jouvent"],
      "communeCount": 4,
      "center": [1.1606, 45.9363],
      "coverageRadius": 4,
      "boundingBox": {
        "minLat": 45.9217,
        "maxLat": 45.9572,
        "minLon": 1.1351,
        "maxLon": 1.2024
      },
      "totalPopulation": 6788,
      "totalSurface": 10240
    },
    "87520": {
      "communes": ["Cieux", "Javerdat", "Oradour-sur-Glane", "Veyrac"],
      "communeCount": 4,
      "center": [1.0546, 45.9316],
      "coverageRadius": 6.6,
      "boundingBox": {
        "minLat": 45.8975,
        "maxLat": 45.9907,
        "minLon": 0.9861,
        "maxLon": 1.1061
      },
      "totalPopulation": 6382,
      "totalSurface": 14116
    },
    "87570": {
      "communes": ["Rilhac-Rancon"],
      "communeCount": 1,
      "center": [1.3153, 45.8983],
      "coverageRadius": 2.36,
      "totalPopulation": 4733,
      "totalSurface": 1753
    },
    "87590": {
      "communes": ["Saint-Just-le-Martel"],
      "communeCount": 1,
      "center": [1.386, 45.8624],
      "coverageRadius": 3.2,
      "totalPopulation": 2654,
      "totalSurface": 3219
    },
    "87600": {
      "communes": ["Chéronnac", "Rochechouart", "Vayres", "Videix"],
      "communeCount": 4,
      "center": [0.8113, 45.8075],
      "coverageRadius": 6.6,
      "boundingBox": {
        "minLat": 45.7582,
        "maxLat": 45.8222,
        "minLon": 0.7379,
        "maxLon": 0.8197
      },
      "totalPopulation": 4864,
      "totalSurface": 12708
    },
    "87620": {
      "communes": ["Séreilhac"],
      "communeCount": 1,
      "center": [1.0805, 45.7666],
      "coverageRadius": 3.51,
      "totalPopulation": 2045,
      "totalSurface": 3868
    },
    "87640": {
      "communes": ["Razès"],
      "communeCount": 1,
      "center": [1.345, 46.0367],
      "coverageRadius": 2.84,
      "totalPopulation": 1161,
      "totalSurface": 2525
    },
    "87700": {
      "communes": [
        "Aixe-sur-Vienne",
        "Beynac",
        "Saint-Martin-le-Vieux",
        "Saint-Priest-sous-Aixe",
        "Saint-Yrieix-sous-Aixe"
      ],
      "communeCount": 5,
      "center": [1.128, 45.7962],
      "coverageRadius": 8,
      "boundingBox": {
        "minLat": 45.746,
        "maxLat": 45.8586,
        "minLon": 1.0779,
        "maxLon": 1.1688
      },
      "totalPopulation": 9670,
      "totalSurface": 8456
    },
    "87720": {
      "communes": ["Saillat-sur-Vienne"],
      "communeCount": 1,
      "center": [0.8156, 45.8708],
      "coverageRadius": 1.42,
      "totalPopulation": 826,
      "totalSurface": 637
    },
    "87800": {
      "communes": [
        "Burgnac",
        "Janailhac",
        "Jourgnac",
        "Meilhac",
        "La Meyze",
        "Nexon",
        "Rilhac-Lastours",
        "La Roche-l'Abeille",
        "Saint-Hilaire-les-Places",
        "Saint-Maurice-les-Brousses",
        "Saint-Priest-Ligoure"
      ],
      "communeCount": 11,
      "center": [1.2014, 45.6721],
      "coverageRadius": 8.9,
      "boundingBox": {
        "minLat": 45.597,
        "maxLat": 45.7249,
        "minLon": 1.1201,
        "maxLon": 1.2896
      },
      "totalPopulation": 9947,
      "totalSurface": 25721
    },
    "87890": {
      "communes": ["Jouac"],
      "communeCount": 1,
      "center": [1.2628, 46.3555],
      "coverageRadius": 2.54,
      "totalPopulation": 189,
      "totalSurface": 2032
    },
    "87920": {
      "communes": ["Condat-sur-Vienne"],
      "communeCount": 1,
      "center": [1.232, 45.7924],
      "coverageRadius": 2.21,
      "totalPopulation": 5208,
      "totalSurface": 1530
    }
  }
}
