{
  "departmentCode": "56",
  "departmentName": "Morbihan",
  "stats": {
    "communeCount": 249,
    "totalPopulation": 776103,
    "totalSurface": 687585
  },
  "communes": [
    {
      "nom": "Allaire",
      "code": "56001",
      "codesPostaux": ["56350"],
      "centre": {
        "type": "Point",
        "coordinates": [-2.1816, 47.6312]
      },
      "mairie": {
        "type": "Point",
        "coordinates": [-2.1626, 47.6377]
      },
      "population": 3906,
      "surface": 4242.37,
      "radius": 3.67
    },
    {
      "nom": "Ambon",
      "code": "56002",
      "codesPostaux": ["56190"],
      "centre": {
        "type": "Point",
        "coordinates": [-2.5365, 47.5599]
      },
      "mairie": {
        "type": "Point",
        "coordinates": [-2.5545, 47.5554]
      },
      "population": 2091,
      "surface": 3795.91,
      "radius": 3.48
    },
    {
      "nom": "Arradon",
      "code": "56003",
      "codesPostaux": ["56610"],
      "centre": {
        "type": "Point",
        "coordinates": [-2.8239, 47.6331]
      },
      "mairie": {
        "type": "Point",
        "coordinates": [-2.823, 47.628]
      },
      "population": 5820,
      "surface": 1877.74,
      "radius": 2.44
    },
    {
      "nom": "Arzal",
      "code": "56004",
      "codesPostaux": ["56190"],
      "centre": {
        "type": "Point",
        "coordinates": [-2.4021, 47.526]
      },
      "mairie": {
        "type": "Point",
        "coordinates": [-2.3763, 47.5167]
      },
      "population": 1794,
      "surface": 2386.77,
      "radius": 2.76
    },
    {
      "nom": "Arzon",
      "code": "56005",
      "codesPostaux": ["56640"],
      "centre": {
        "type": "Point",
        "coordinates": [-2.9031, 47.5499]
      },
      "mairie": {
        "type": "Point",
        "coordinates": [-2.8915, 47.5479]
      },
      "population": 2272,
      "surface": 918.44,
      "radius": 1.71
    },
    {
      "nom": "Augan",
      "code": "56006",
      "codesPostaux": ["56800"],
      "centre": {
        "type": "Point",
        "coordinates": [-2.2722, 47.9109]
      },
      "mairie": {
        "type": "Point",
        "coordinates": [-2.2796, 47.9189]
      },
      "population": 1542,
      "surface": 4103.31,
      "radius": 3.61
    },
    {
      "nom": "Auray",
      "code": "56007",
      "codesPostaux": ["56400"],
      "centre": {
        "type": "Point",
        "coordinates": [-2.9901, 47.6684]
      },
      "mairie": {
        "type": "Point",
        "coordinates": [-2.9836, 47.6665]
      },
      "population": 14417,
      "surface": 720.43,
      "radius": 1.51
    },
    {
      "nom": "Baden",
      "code": "56008",
      "codesPostaux": ["56870"],
      "centre": {
        "type": "Point",
        "coordinates": [-2.9036, 47.6061]
      },
      "mairie": {
        "type": "Point",
        "coordinates": [-2.9186, 47.6189]
      },
      "population": 4864,
      "surface": 2357.96,
      "radius": 2.74
    },
    {
      "nom": "Bangor",
      "code": "56009",
      "codesPostaux": ["56360"],
      "centre": {
        "type": "Point",
        "coordinates": [-3.1938, 47.3149]
      },
      "mairie": {
        "type": "Point",
        "coordinates": [-3.189, 47.3157]
      },
      "population": 1002,
      "surface": 2561.31,
      "radius": 2.86
    },
    {
      "nom": "Baud",
      "code": "56010",
      "codesPostaux": ["56150"],
      "centre": {
        "type": "Point",
        "coordinates": [-3.0287, 47.8693]
      },
      "mairie": {
        "type": "Point",
        "coordinates": [-3.0213, 47.8741]
      },
      "population": 6246,
      "surface": 4874.42,
      "radius": 3.94
    },
    {
      "nom": "Béganne",
      "code": "56011",
      "codesPostaux": ["56350"],
      "centre": {
        "type": "Point",
        "coordinates": [-2.2433, 47.6028]
      },
      "mairie": {
        "type": "Point",
        "coordinates": [-2.2394, 47.5957]
      },
      "population": 1458,
      "surface": 3545.68,
      "radius": 3.36
    },
    {
      "nom": "Beignon",
      "code": "56012",
      "codesPostaux": ["56380"],
      "centre": {
        "type": "Point",
        "coordinates": [-2.1703, 47.9672]
      },
      "mairie": {
        "type": "Point",
        "coordinates": [-2.1712, 47.97]
      },
      "population": 1939,
      "surface": 2498,
      "radius": 2.82
    },
    {
      "nom": "Belz",
      "code": "56013",
      "codesPostaux": ["56550"],
      "centre": {
        "type": "Point",
        "coordinates": [-3.1646, 47.6742]
      },
      "mairie": {
        "type": "Point",
        "coordinates": [-3.1687, 47.6758]
      },
      "population": 3869,
      "surface": 1587.59,
      "radius": 2.25
    },
    {
      "nom": "Berné",
      "code": "56014",
      "codesPostaux": ["56240"],
      "centre": {
        "type": "Point",
        "coordinates": [-3.3694, 47.9847]
      },
      "mairie": {
        "type": "Point",
        "coordinates": [-3.3931, 47.9954]
      },
      "population": 1558,
      "surface": 3517.2,
      "radius": 3.35
    },
    {
      "nom": "Berric",
      "code": "56015",
      "codesPostaux": ["56230"],
      "centre": {
        "type": "Point",
        "coordinates": [-2.5324, 47.6392]
      },
      "mairie": {
        "type": "Point",
        "coordinates": [-2.5256, 47.6329]
      },
      "population": 2119,
      "surface": 2153.36,
      "radius": 2.62
    },
    {
      "nom": "Bignan",
      "code": "56017",
      "codesPostaux": ["56500"],
      "centre": {
        "type": "Point",
        "coordinates": [-2.7498, 47.8737]
      },
      "mairie": {
        "type": "Point",
        "coordinates": [-2.7738, 47.8795]
      },
      "population": 2750,
      "surface": 4624.86,
      "radius": 3.84
    },
    {
      "nom": "Billiers",
      "code": "56018",
      "codesPostaux": ["56190"],
      "centre": {
        "type": "Point",
        "coordinates": [-2.4804, 47.5251]
      },
      "mairie": {
        "type": "Point",
        "coordinates": [-2.4888, 47.5303]
      },
      "population": 1056,
      "surface": 602.01,
      "radius": 1.38
    },
    {
      "nom": "Billio",
      "code": "56019",
      "codesPostaux": ["56420"],
      "centre": {
        "type": "Point",
        "coordinates": [-2.6463, 47.8687]
      },
      "mairie": {
        "type": "Point",
        "coordinates": [-2.6326, 47.8687]
      },
      "population": 324,
      "surface": 1202.58,
      "radius": 1.96
    },
    {
      "nom": "Bohal",
      "code": "56020",
      "codesPostaux": ["56140"],
      "centre": {
        "type": "Point",
        "coordinates": [-2.4452, 47.7841]
      },
      "mairie": {
        "type": "Point",
        "coordinates": [-2.4377, 47.7815]
      },
      "population": 862,
      "surface": 848.7,
      "radius": 1.64
    },
    {
      "nom": "Brandérion",
      "code": "56021",
      "codesPostaux": ["56700"],
      "centre": {
        "type": "Point",
        "coordinates": [-3.1932, 47.7933]
      },
      "mairie": {
        "type": "Point",
        "coordinates": [-3.1942, 47.7938]
      },
      "population": 1480,
      "surface": 602.71,
      "radius": 1.39
    },
    {
      "nom": "Brandivy",
      "code": "56022",
      "codesPostaux": ["56390"],
      "centre": {
        "type": "Point",
        "coordinates": [-2.9164, 47.7828]
      },
      "mairie": {
        "type": "Point",
        "coordinates": [-2.9459, 47.7747]
      },
      "population": 1423,
      "surface": 2605.84,
      "radius": 2.88
    },
    {
      "nom": "Brech",
      "code": "56023",
      "codesPostaux": ["56400"],
      "centre": {
        "type": "Point",
        "coordinates": [-3.0264, 47.7069]
      },
      "mairie": {
        "type": "Point",
        "coordinates": [-2.9969, 47.7205]
      },
      "population": 7057,
      "surface": 3985.32,
      "radius": 3.56
    },
    {
      "nom": "Bréhan",
      "code": "56024",
      "codesPostaux": ["56580"],
      "centre": {
        "type": "Point",
        "coordinates": [-2.694, 48.0705]
      },
      "mairie": {
        "type": "Point",
        "coordinates": [-2.6865, 48.0613]
      },
      "population": 2298,
      "surface": 5164.88,
      "radius": 4.05
    },
    {
      "nom": "Brignac",
      "code": "56025",
      "codesPostaux": ["56430"],
      "centre": {
        "type": "Point",
        "coordinates": [-2.3932, 48.1129]
      },
      "mairie": {
        "type": "Point",
        "coordinates": [-2.3886, 48.1203]
      },
      "population": 198,
      "surface": 1323.66,
      "radius": 2.05
    },
    {
      "nom": "Bubry",
      "code": "56026",
      "codesPostaux": ["56310"],
      "centre": {
        "type": "Point",
        "coordinates": [-3.1743, 47.9706]
      },
      "mairie": {
        "type": "Point",
        "coordinates": [-3.1726, 47.964]
      },
      "population": 2262,
      "surface": 6915.95,
      "radius": 4.69
    },
    {
      "nom": "Buléon",
      "code": "56027",
      "codesPostaux": ["56420"],
      "centre": {
        "type": "Point",
        "coordinates": [-2.6757, 47.9216]
      },
      "mairie": {
        "type": "Point",
        "coordinates": [-2.6758, 47.9339]
      },
      "population": 546,
      "surface": 1238.04,
      "radius": 1.99
    },
    {
      "nom": "Caden",
      "code": "56028",
      "codesPostaux": ["56220"],
      "centre": {
        "type": "Point",
        "coordinates": [-2.2963, 47.6353]
      },
      "mairie": {
        "type": "Point",
        "coordinates": [-2.2849, 47.6316]
      },
      "population": 1570,
      "surface": 3817.94,
      "radius": 3.49
    },
    {
      "nom": "Calan",
      "code": "56029",
      "codesPostaux": ["56240"],
      "centre": {
        "type": "Point",
        "coordinates": [-3.3076, 47.8779]
      },
      "mairie": {
        "type": "Point",
        "coordinates": [-3.3236, 47.8749]
      },
      "population": 1267,
      "surface": 1223.81,
      "radius": 1.97
    },
    {
      "nom": "Camoël",
      "code": "56030",
      "codesPostaux": ["56130"],
      "centre": {
        "type": "Point",
        "coordinates": [-2.3996, 47.4787]
      },
      "mairie": {
        "type": "Point",
        "coordinates": [-2.3972, 47.4808]
      },
      "population": 1156,
      "surface": 1351.99,
      "radius": 2.07
    },
    {
      "nom": "Camors",
      "code": "56031",
      "codesPostaux": ["56330"],
      "centre": {
        "type": "Point",
        "coordinates": [-3.0016, 47.8293]
      },
      "mairie": {
        "type": "Point",
        "coordinates": [-3.0002, 47.8458]
      },
      "population": 3180,
      "surface": 3709.61,
      "radius": 3.44
    },
    {
      "nom": "Campénéac",
      "code": "56032",
      "codesPostaux": ["56800"],
      "centre": {
        "type": "Point",
        "coordinates": [-2.279, 47.9608]
      },
      "mairie": {
        "type": "Point",
        "coordinates": [-2.293, 47.9567]
      },
      "population": 1940,
      "surface": 6079.75,
      "radius": 4.4
    },
    {
      "nom": "Carentoir",
      "code": "56033",
      "codesPostaux": ["56910"],
      "centre": {
        "type": "Point",
        "coordinates": [-2.1227, 47.8239]
      },
      "mairie": {
        "type": "Point",
        "coordinates": [-2.1317, 47.814]
      },
      "population": 3137,
      "surface": 7316.62,
      "radius": 4.83
    },
    {
      "nom": "Carnac",
      "code": "56034",
      "codesPostaux": ["56340"],
      "centre": {
        "type": "Point",
        "coordinates": [-3.0664, 47.6034]
      },
      "mairie": {
        "type": "Point",
        "coordinates": [-3.0778, 47.5848]
      },
      "population": 4215,
      "surface": 3367.88,
      "radius": 3.27
    },
    {
      "nom": "Caro",
      "code": "56035",
      "codesPostaux": ["56140"],
      "centre": {
        "type": "Point",
        "coordinates": [-2.3349, 47.8652]
      },
      "mairie": {
        "type": "Point",
        "coordinates": [-2.3205, 47.8632]
      },
      "population": 1132,
      "surface": 3816.37,
      "radius": 3.49
    },
    {
      "nom": "Caudan",
      "code": "56036",
      "codesPostaux": ["56850"],
      "centre": {
        "type": "Point",
        "coordinates": [-3.3383, 47.8099]
      },
      "mairie": {
        "type": "Point",
        "coordinates": [-3.34, 47.8104]
      },
      "population": 7110,
      "surface": 4302.5,
      "radius": 3.7
    },
    {
      "nom": "Cléguer",
      "code": "56040",
      "codesPostaux": ["56620"],
      "centre": {
        "type": "Point",
        "coordinates": [-3.36, 47.8624]
      },
      "mairie": {
        "type": "Point",
        "coordinates": [-3.3847, 47.8533]
      },
      "population": 3404,
      "surface": 3251.32,
      "radius": 3.22
    },
    {
      "nom": "Cléguérec",
      "code": "56041",
      "codesPostaux": ["56480"],
      "centre": {
        "type": "Point",
        "coordinates": [-3.0649, 48.1275]
      },
      "mairie": {
        "type": "Point",
        "coordinates": [-3.0696, 48.1244]
      },
      "population": 2849,
      "surface": 6316.95,
      "radius": 4.48
    },
    {
      "nom": "Colpo",
      "code": "56042",
      "codesPostaux": ["56390"],
      "centre": {
        "type": "Point",
        "coordinates": [-2.8108, 47.8169]
      },
      "mairie": {
        "type": "Point",
        "coordinates": [-2.811, 47.8179]
      },
      "population": 2258,
      "surface": 2665.59,
      "radius": 2.91
    },
    {
      "nom": "Concoret",
      "code": "56043",
      "codesPostaux": ["56430"],
      "centre": {
        "type": "Point",
        "coordinates": [-2.2133, 48.0655]
      },
      "mairie": {
        "type": "Point",
        "coordinates": [-2.2069, 48.0638]
      },
      "population": 765,
      "surface": 1582.07,
      "radius": 2.24
    },
    {
      "nom": "Cournon",
      "code": "56044",
      "codesPostaux": ["56200"],
      "centre": {
        "type": "Point",
        "coordinates": [-2.0991, 47.7494]
      },
      "mairie": {
        "type": "Point",
        "coordinates": [-2.1046, 47.7463]
      },
      "population": 805,
      "surface": 1098.27,
      "radius": 1.87
    },
    {
      "nom": "Crach",
      "code": "56046",
      "codesPostaux": ["56950"],
      "centre": {
        "type": "Point",
        "coordinates": [-2.9949, 47.6307]
      },
      "mairie": {
        "type": "Point",
        "coordinates": [-3.0006, 47.6166]
      },
      "population": 3458,
      "surface": 3171.64,
      "radius": 3.18
    },
    {
      "nom": "Crédin",
      "code": "56047",
      "codesPostaux": ["56580"],
      "centre": {
        "type": "Point",
        "coordinates": [-2.7586, 48.0356]
      },
      "mairie": {
        "type": "Point",
        "coordinates": [-2.7673, 48.0342]
      },
      "population": 1493,
      "surface": 3370.42,
      "radius": 3.28
    },
    {
      "nom": "Cruguel",
      "code": "56051",
      "codesPostaux": ["56420"],
      "centre": {
        "type": "Point",
        "coordinates": [-2.5891, 47.8829]
      },
      "mairie": {
        "type": "Point",
        "coordinates": [-2.5977, 47.8784]
      },
      "population": 661,
      "surface": 1737.92,
      "radius": 2.35
    },
    {
      "nom": "Damgan",
      "code": "56052",
      "codesPostaux": ["56750"],
      "centre": {
        "type": "Point",
        "coordinates": [-2.589, 47.521]
      },
      "mairie": {
        "type": "Point",
        "coordinates": [-2.5788, 47.5199]
      },
      "population": 1930,
      "surface": 1229.48,
      "radius": 1.98
    },
    {
      "nom": "Elven",
      "code": "56053",
      "codesPostaux": ["56250"],
      "centre": {
        "type": "Point",
        "coordinates": [-2.5955, 47.7319]
      },
      "mairie": {
        "type": "Point",
        "coordinates": [-2.5908, 47.7306]
      },
      "population": 6543,
      "surface": 6430.71,
      "radius": 4.52
    },
    {
      "nom": "Erdeven",
      "code": "56054",
      "codesPostaux": ["56410"],
      "centre": {
        "type": "Point",
        "coordinates": [-3.1568, 47.6358]
      },
      "mairie": {
        "type": "Point",
        "coordinates": [-3.1565, 47.6416]
      },
      "population": 3987,
      "surface": 3050.96,
      "radius": 3.12
    },
    {
      "nom": "Étel",
      "code": "56055",
      "codesPostaux": ["56410"],
      "centre": {
        "type": "Point",
        "coordinates": [-3.1961, 47.6569]
      },
      "mairie": {
        "type": "Point",
        "coordinates": [-3.2016, 47.6569]
      },
      "population": 2058,
      "surface": 186.7,
      "radius": 0.77
    },
    {
      "nom": "Évellys",
      "code": "56144",
      "codesPostaux": ["56500"],
      "centre": {
        "type": "Point",
        "coordinates": [-2.8675, 47.9714]
      },
      "mairie": {
        "type": "Point",
        "coordinates": [-2.8318, 47.9899]
      },
      "population": 3384,
      "surface": 8062.59,
      "radius": 5.07
    },
    {
      "nom": "Évriguet",
      "code": "56056",
      "codesPostaux": ["56490"],
      "centre": {
        "type": "Point",
        "coordinates": [-2.4039, 48.0824]
      },
      "mairie": {
        "type": "Point",
        "coordinates": [-2.41, 48.0779]
      },
      "population": 210,
      "surface": 495.35,
      "radius": 1.26
    },
    {
      "nom": "Férel",
      "code": "56058",
      "codesPostaux": ["56130"],
      "centre": {
        "type": "Point",
        "coordinates": [-2.3385, 47.4865]
      },
      "mairie": {
        "type": "Point",
        "coordinates": [-2.3429, 47.4824]
      },
      "population": 3445,
      "surface": 3011.91,
      "radius": 3.1
    },
    {
      "nom": "Forges de Lanouée",
      "code": "56102",
      "codesPostaux": ["56120"],
      "centre": {
        "type": "Point",
        "coordinates": [-2.5781, 48.0144]
      },
      "mairie": {
        "type": "Point",
        "coordinates": [-2.5831, 48.002]
      },
      "population": 2190,
      "surface": 9733.51,
      "radius": 5.57
    },
    {
      "nom": "Gâvres",
      "code": "56062",
      "codesPostaux": ["56680"],
      "centre": {
        "type": "Point",
        "coordinates": [-3.3305, 47.6948]
      },
      "mairie": {
        "type": "Point",
        "coordinates": [-3.353, 47.6966]
      },
      "population": 685,
      "surface": 185.62,
      "radius": 0.77
    },
    {
      "nom": "Gestel",
      "code": "56063",
      "codesPostaux": ["56530"],
      "centre": {
        "type": "Point",
        "coordinates": [-3.4368, 47.8092]
      },
      "mairie": {
        "type": "Point",
        "coordinates": [-3.4431, 47.8042]
      },
      "population": 2569,
      "surface": 625.07,
      "radius": 1.41
    },
    {
      "nom": "Gourhel",
      "code": "56065",
      "codesPostaux": ["56800"],
      "centre": {
        "type": "Point",
        "coordinates": [-2.3579, 47.9393]
      },
      "mairie": {
        "type": "Point",
        "coordinates": [-2.3609, 47.9373]
      },
      "population": 724,
      "surface": 282.69,
      "radius": 0.95
    },
    {
      "nom": "Gourin",
      "code": "56066",
      "codesPostaux": ["56110"],
      "centre": {
        "type": "Point",
        "coordinates": [-3.5996, 48.1311]
      },
      "mairie": {
        "type": "Point",
        "coordinates": [-3.606, 48.14]
      },
      "population": 3892,
      "surface": 7507.36,
      "radius": 4.89
    },
    {
      "nom": "Grand-Champ",
      "code": "56067",
      "codesPostaux": ["56390"],
      "centre": {
        "type": "Point",
        "coordinates": [-2.8509, 47.762]
      },
      "mairie": {
        "type": "Point",
        "coordinates": [-2.8427, 47.7581]
      },
      "population": 5859,
      "surface": 6729.68,
      "radius": 4.63
    },
    {
      "nom": "Groix",
      "code": "56069",
      "codesPostaux": ["56590"],
      "centre": {
        "type": "Point",
        "coordinates": [-3.4654, 47.6369]
      },
      "mairie": {
        "type": "Point",
        "coordinates": [-3.455, 47.6386]
      },
      "population": 2308,
      "surface": 1518.73,
      "radius": 2.2
    },
    {
      "nom": "Guégon",
      "code": "56070",
      "codesPostaux": ["56120"],
      "centre": {
        "type": "Point",
        "coordinates": [-2.5903, 47.925]
      },
      "mairie": {
        "type": "Point",
        "coordinates": [-2.566, 47.9383]
      },
      "population": 2308,
      "surface": 5347.51,
      "radius": 4.13
    },
    {
      "nom": "Guéhenno",
      "code": "56071",
      "codesPostaux": ["56420"],
      "centre": {
        "type": "Point",
        "coordinates": [-2.6534, 47.8868]
      },
      "mairie": {
        "type": "Point",
        "coordinates": [-2.6392, 47.8933]
      },
      "population": 804,
      "surface": 2327.03,
      "radius": 2.72
    },
    {
      "nom": "Gueltas",
      "code": "56072",
      "codesPostaux": ["56920"],
      "centre": {
        "type": "Point",
        "coordinates": [-2.8129, 48.0874]
      },
      "mairie": {
        "type": "Point",
        "coordinates": [-2.7951, 48.094]
      },
      "population": 532,
      "surface": 2077.38,
      "radius": 2.57
    },
    {
      "nom": "Guémené-sur-Scorff",
      "code": "56073",
      "codesPostaux": ["56160"],
      "centre": {
        "type": "Point",
        "coordinates": [-3.2051, 48.0665]
      },
      "mairie": {
        "type": "Point",
        "coordinates": [-3.2079, 48.0671]
      },
      "population": 1136,
      "surface": 118.28,
      "radius": 0.61
    },
    {
      "nom": "Guénin",
      "code": "56074",
      "codesPostaux": ["56150"],
      "centre": {
        "type": "Point",
        "coordinates": [-2.9669, 47.9007]
      },
      "mairie": {
        "type": "Point",
        "coordinates": [-2.9798, 47.9075]
      },
      "population": 1895,
      "surface": 2887.42,
      "radius": 3.03
    },
    {
      "nom": "Guer",
      "code": "56075",
      "codesPostaux": ["56380"],
      "centre": {
        "type": "Point",
        "coordinates": [-2.1281, 47.905]
      },
      "mairie": {
        "type": "Point",
        "coordinates": [-2.12, 47.9037]
      },
      "population": 6056,
      "surface": 5224.1,
      "radius": 4.08
    },
    {
      "nom": "Guern",
      "code": "56076",
      "codesPostaux": ["56310"],
      "centre": {
        "type": "Point",
        "coordinates": [-3.0947, 48.0383]
      },
      "mairie": {
        "type": "Point",
        "coordinates": [-3.0919, 48.0295]
      },
      "population": 1379,
      "surface": 4707.2,
      "radius": 3.87
    },
    {
      "nom": "Guidel",
      "code": "56078",
      "codesPostaux": ["56520"],
      "centre": {
        "type": "Point",
        "coordinates": [-3.4906, 47.7938]
      },
      "mairie": {
        "type": "Point",
        "coordinates": [-3.4891, 47.7893]
      },
      "population": 12236,
      "surface": 5318.3,
      "radius": 4.11
    },
    {
      "nom": "Guillac",
      "code": "56079",
      "codesPostaux": ["56800"],
      "centre": {
        "type": "Point",
        "coordinates": [-2.4861, 47.9188]
      },
      "mairie": {
        "type": "Point",
        "coordinates": [-2.4661, 47.9107]
      },
      "population": 1402,
      "surface": 2196.83,
      "radius": 2.64
    },
    {
      "nom": "Guilliers",
      "code": "56080",
      "codesPostaux": ["56490"],
      "centre": {
        "type": "Point",
        "coordinates": [-2.4143, 48.049]
      },
      "mairie": {
        "type": "Point",
        "coordinates": [-2.4041, 48.0426]
      },
      "population": 1352,
      "surface": 3508.88,
      "radius": 3.34
    },
    {
      "nom": "Guiscriff",
      "code": "56081",
      "codesPostaux": ["56560"],
      "centre": {
        "type": "Point",
        "coordinates": [-3.62, 48.0391]
      },
      "mairie": {
        "type": "Point",
        "coordinates": [-3.6449, 48.0487]
      },
      "population": 2053,
      "surface": 8460.22,
      "radius": 5.19
    },
    {
      "nom": "Helléan",
      "code": "56082",
      "codesPostaux": ["56120"],
      "centre": {
        "type": "Point",
        "coordinates": [-2.4808, 47.9676]
      },
      "mairie": {
        "type": "Point",
        "coordinates": [-2.4743, 47.9716]
      },
      "population": 384,
      "surface": 793.6,
      "radius": 1.59
    },
    {
      "nom": "Hennebont",
      "code": "56083",
      "codesPostaux": ["56700"],
      "centre": {
        "type": "Point",
        "coordinates": [-3.2694, 47.8053]
      },
      "mairie": {
        "type": "Point",
        "coordinates": [-3.2752, 47.806]
      },
      "population": 15831,
      "surface": 1878.58,
      "radius": 2.45
    },
    {
      "nom": "Hœdic",
      "code": "56085",
      "codesPostaux": ["56170"],
      "centre": {
        "type": "Point",
        "coordinates": [-2.862, 47.3364]
      },
      "mairie": {
        "type": "Point",
        "coordinates": [-2.8779, 47.3398]
      },
      "population": 103,
      "surface": 219.69,
      "radius": 0.84
    },
    {
      "nom": "Île-aux-Moines",
      "code": "56087",
      "codesPostaux": ["56780"],
      "centre": {
        "type": "Point",
        "coordinates": [-2.8511, 47.5842]
      },
      "mairie": {
        "type": "Point",
        "coordinates": [-2.8456, 47.5971]
      },
      "population": 632,
      "surface": 328.69,
      "radius": 1.02
    },
    {
      "nom": "Île-d'Arz",
      "code": "56088",
      "codesPostaux": ["56840"],
      "centre": {
        "type": "Point",
        "coordinates": [-2.799, 47.5879]
      },
      "mairie": {
        "type": "Point",
        "coordinates": [-2.8022, 47.5893]
      },
      "population": 317,
      "surface": 321.55,
      "radius": 1.01
    },
    {
      "nom": "Île-d'Houat",
      "code": "56086",
      "codesPostaux": ["56170"],
      "centre": {
        "type": "Point",
        "coordinates": [-2.9762, 47.3865]
      },
      "mairie": {
        "type": "Point",
        "coordinates": [-2.9556, 47.3904]
      },
      "population": 214,
      "surface": 330.81,
      "radius": 1.03
    },
    {
      "nom": "Inguiniel",
      "code": "56089",
      "codesPostaux": ["56240"],
      "centre": {
        "type": "Point",
        "coordinates": [-3.2712, 47.9514]
      },
      "mairie": {
        "type": "Point",
        "coordinates": [-3.2825, 47.9761]
      },
      "population": 2196,
      "surface": 5138.34,
      "radius": 4.04
    },
    {
      "nom": "Inzinzac-Lochrist",
      "code": "56090",
      "codesPostaux": ["56650"],
      "centre": {
        "type": "Point",
        "coordinates": [-3.2568, 47.8599]
      },
      "mairie": {
        "type": "Point",
        "coordinates": [-3.2666, 47.8439]
      },
      "population": 6631,
      "surface": 4492.8,
      "radius": 3.78
    },
    {
      "nom": "Josselin",
      "code": "56091",
      "codesPostaux": ["56120"],
      "centre": {
        "type": "Point",
        "coordinates": [-2.5517, 47.9548]
      },
      "mairie": {
        "type": "Point",
        "coordinates": [-2.5464, 47.9538]
      },
      "population": 2559,
      "surface": 446.21,
      "radius": 1.19
    },
    {
      "nom": "Kerfourn",
      "code": "56092",
      "codesPostaux": ["56920"],
      "centre": {
        "type": "Point",
        "coordinates": [-2.8402, 48.0466]
      },
      "mairie": {
        "type": "Point",
        "coordinates": [-2.8338, 48.0443]
      },
      "population": 842,
      "surface": 1945.69,
      "radius": 2.49
    },
    {
      "nom": "Kergrist",
      "code": "56093",
      "codesPostaux": ["56300"],
      "centre": {
        "type": "Point",
        "coordinates": [-2.9292, 48.1454]
      },
      "mairie": {
        "type": "Point",
        "coordinates": [-2.9541, 48.1459]
      },
      "population": 713,
      "surface": 2979.24,
      "radius": 3.08
    },
    {
      "nom": "Kernascléden",
      "code": "56264",
      "codesPostaux": ["56540"],
      "centre": {
        "type": "Point",
        "coordinates": [-3.3329, 48.0125]
      },
      "mairie": {
        "type": "Point",
        "coordinates": [-3.3217, 48.0052]
      },
      "population": 418,
      "surface": 928.36,
      "radius": 1.72
    },
    {
      "nom": "Kervignac",
      "code": "56094",
      "codesPostaux": ["56700"],
      "centre": {
        "type": "Point",
        "coordinates": [-3.2573, 47.7722]
      },
      "mairie": {
        "type": "Point",
        "coordinates": [-3.24, 47.7643]
      },
      "population": 7085,
      "surface": 3932.97,
      "radius": 3.54
    },
    {
      "nom": "La Chapelle-Neuve",
      "code": "56039",
      "codesPostaux": ["56500"],
      "centre": {
        "type": "Point",
        "coordinates": [-2.9351, 47.855]
      },
      "mairie": {
        "type": "Point",
        "coordinates": [-2.9416, 47.8647]
      },
      "population": 1002,
      "surface": 2183.89,
      "radius": 2.64
    },
    {
      "nom": "La Croix-Helléan",
      "code": "56050",
      "codesPostaux": ["56120"],
      "centre": {
        "type": "Point",
        "coordinates": [-2.5123, 47.9652]
      },
      "mairie": {
        "type": "Point",
        "coordinates": [-2.5016, 47.9569]
      },
      "population": 881,
      "surface": 1453.42,
      "radius": 2.15
    },
    {
      "nom": "La Gacilly",
      "code": "56061",
      "codesPostaux": ["56200"],
      "centre": {
        "type": "Point",
        "coordinates": [-2.136, 47.7609]
      },
      "mairie": {
        "type": "Point",
        "coordinates": [-2.1346, 47.7666]
      },
      "population": 4011,
      "surface": 3804.35,
      "radius": 3.48
    },
    {
      "nom": "La Grée-Saint-Laurent",
      "code": "56068",
      "codesPostaux": ["56120"],
      "centre": {
        "type": "Point",
        "coordinates": [-2.5041, 48.0023]
      },
      "mairie": {
        "type": "Point",
        "coordinates": [-2.4989, 47.9954]
      },
      "population": 310,
      "surface": 793.12,
      "radius": 1.59
    },
    {
      "nom": "La Roche-Bernard",
      "code": "56195",
      "codesPostaux": ["56130"],
      "centre": {
        "type": "Point",
        "coordinates": [-2.3025, 47.5196]
      },
      "mairie": {
        "type": "Point",
        "coordinates": [-2.303, 47.5187]
      },
      "population": 720,
      "surface": 45.22,
      "radius": 0.38
    },
    {
      "nom": "La Trinité-Porhoët",
      "code": "56257",
      "codesPostaux": ["56490"],
      "centre": {
        "type": "Point",
        "coordinates": [-2.524, 48.0992]
      },
      "mairie": {
        "type": "Point",
        "coordinates": [-2.5478, 48.0978]
      },
      "population": 667,
      "surface": 1268.32,
      "radius": 2.01
    },
    {
      "nom": "La Trinité-sur-Mer",
      "code": "56258",
      "codesPostaux": ["56470"],
      "centre": {
        "type": "Point",
        "coordinates": [-3.0369, 47.5877]
      },
      "mairie": {
        "type": "Point",
        "coordinates": [-3.0275, 47.5849]
      },
      "population": 1837,
      "surface": 710.41,
      "radius": 1.5
    },
    {
      "nom": "La Trinité-Surzur",
      "code": "56259",
      "codesPostaux": ["56190"],
      "centre": {
        "type": "Point",
        "coordinates": [-2.5924, 47.6046]
      },
      "mairie": {
        "type": "Point",
        "coordinates": [-2.5916, 47.6039]
      },
      "population": 1699,
      "surface": 239.72,
      "radius": 0.87
    },
    {
      "nom": "La Vraie-Croix",
      "code": "56261",
      "codesPostaux": ["56250"],
      "centre": {
        "type": "Point",
        "coordinates": [-2.5202, 47.688]
      },
      "mairie": {
        "type": "Point",
        "coordinates": [-2.5435, 47.69]
      },
      "population": 1484,
      "surface": 1668.38,
      "radius": 2.3
    },
    {
      "nom": "Landaul",
      "code": "56096",
      "codesPostaux": ["56690"],
      "centre": {
        "type": "Point",
        "coordinates": [-3.1038, 47.7408]
      },
      "mairie": {
        "type": "Point",
        "coordinates": [-3.0761, 47.7486]
      },
      "population": 2487,
      "surface": 1812.71,
      "radius": 2.4
    },
    {
      "nom": "Landévant",
      "code": "56097",
      "codesPostaux": ["56690"],
      "centre": {
        "type": "Point",
        "coordinates": [-3.1161, 47.7715]
      },
      "mairie": {
        "type": "Point",
        "coordinates": [-3.1225, 47.7645]
      },
      "population": 4049,
      "surface": 2268.39,
      "radius": 2.69
    },
    {
      "nom": "Lanester",
      "code": "56098",
      "codesPostaux": ["56600"],
      "centre": {
        "type": "Point",
        "coordinates": [-3.326, 47.7686]
      },
      "mairie": {
        "type": "Point",
        "coordinates": [-3.3473, 47.7636]
      },
      "population": 23188,
      "surface": 1667.88,
      "radius": 2.3
    },
    {
      "nom": "Langoëlan",
      "code": "56099",
      "codesPostaux": ["56160"],
      "centre": {
        "type": "Point",
        "coordinates": [-3.2354, 48.1175]
      },
      "mairie": {
        "type": "Point",
        "coordinates": [-3.2343, 48.1197]
      },
      "population": 404,
      "surface": 2260.58,
      "radius": 2.68
    },
    {
      "nom": "Langonnet",
      "code": "56100",
      "codesPostaux": ["56630"],
      "centre": {
        "type": "Point",
        "coordinates": [-3.4823, 48.1291]
      },
      "mairie": {
        "type": "Point",
        "coordinates": [-3.4919, 48.1037]
      },
      "population": 1851,
      "surface": 8621.23,
      "radius": 5.24
    },
    {
      "nom": "Languidic",
      "code": "56101",
      "codesPostaux": ["56440"],
      "centre": {
        "type": "Point",
        "coordinates": [-3.1485, 47.8295]
      },
      "mairie": {
        "type": "Point",
        "coordinates": [-3.1584, 47.8342]
      },
      "population": 8046,
      "surface": 10552.2,
      "radius": 5.8
    },
    {
      "nom": "Lantillac",
      "code": "56103",
      "codesPostaux": ["56120"],
      "centre": {
        "type": "Point",
        "coordinates": [-2.6576, 47.9513]
      },
      "mairie": {
        "type": "Point",
        "coordinates": [-2.6509, 47.957]
      },
      "population": 291,
      "surface": 777.52,
      "radius": 1.57
    },
    {
      "nom": "Lanvaudan",
      "code": "56104",
      "codesPostaux": ["56240"],
      "centre": {
        "type": "Point",
        "coordinates": [-3.2479, 47.8903]
      },
      "mairie": {
        "type": "Point",
        "coordinates": [-3.2617, 47.9]
      },
      "population": 809,
      "surface": 1822.78,
      "radius": 2.41
    },
    {
      "nom": "Lanvénégen",
      "code": "56105",
      "codesPostaux": ["56320"],
      "centre": {
        "type": "Point",
        "coordinates": [-3.5334, 48.0048]
      },
      "mairie": {
        "type": "Point",
        "coordinates": [-3.5404, 47.9976]
      },
      "population": 1133,
      "surface": 3034.43,
      "radius": 3.11
    },
    {
      "nom": "Larmor-Baden",
      "code": "56106",
      "codesPostaux": ["56870"],
      "centre": {
        "type": "Point",
        "coordinates": [-2.8995, 47.5863]
      },
      "mairie": {
        "type": "Point",
        "coordinates": [-2.8971, 47.5871]
      },
      "population": 891,
      "surface": 397.34,
      "radius": 1.12
    },
    {
      "nom": "Larmor-Plage",
      "code": "56107",
      "codesPostaux": ["56260"],
      "centre": {
        "type": "Point",
        "coordinates": [-3.3913, 47.7161]
      },
      "mairie": {
        "type": "Point",
        "coordinates": [-3.3835, 47.7061]
      },
      "population": 8368,
      "surface": 832.25,
      "radius": 1.63
    },
    {
      "nom": "Larré",
      "code": "56108",
      "codesPostaux": ["56230"],
      "centre": {
        "type": "Point",
        "coordinates": [-2.4897, 47.7124]
      },
      "mairie": {
        "type": "Point",
        "coordinates": [-2.5151, 47.7121]
      },
      "population": 1102,
      "surface": 1716.67,
      "radius": 2.34
    },
    {
      "nom": "Lauzach",
      "code": "56109",
      "codesPostaux": ["56190"],
      "centre": {
        "type": "Point",
        "coordinates": [-2.5553, 47.6131]
      },
      "mairie": {
        "type": "Point",
        "coordinates": [-2.5444, 47.6139]
      },
      "population": 1237,
      "surface": 1087.74,
      "radius": 1.86
    },
    {
      "nom": "Le Bono",
      "code": "56262",
      "codesPostaux": ["56400"],
      "centre": {
        "type": "Point",
        "coordinates": [-2.938, 47.6381]
      },
      "mairie": {
        "type": "Point",
        "coordinates": [-2.9479, 47.6404]
      },
      "population": 2594,
      "surface": 618.5,
      "radius": 1.4
    },
    {
      "nom": "Le Cours",
      "code": "56045",
      "codesPostaux": ["56230"],
      "centre": {
        "type": "Point",
        "coordinates": [-2.5074, 47.749]
      },
      "mairie": {
        "type": "Point",
        "coordinates": [-2.5012, 47.7417]
      },
      "population": 673,
      "surface": 1573.31,
      "radius": 2.24
    },
    {
      "nom": "Le Croisty",
      "code": "56048",
      "codesPostaux": ["56540"],
      "centre": {
        "type": "Point",
        "coordinates": [-3.3735, 48.0592]
      },
      "mairie": {
        "type": "Point",
        "coordinates": [-3.3634, 48.0651]
      },
      "population": 742,
      "surface": 1595.71,
      "radius": 2.25
    },
    {
      "nom": "Le Faouët",
      "code": "56057",
      "codesPostaux": ["56320"],
      "centre": {
        "type": "Point",
        "coordinates": [-3.5111, 48.0425]
      },
      "mairie": {
        "type": "Point",
        "coordinates": [-3.4894, 48.0319]
      },
      "population": 2816,
      "surface": 3504.28,
      "radius": 3.34
    },
    {
      "nom": "Le Guerno",
      "code": "56077",
      "codesPostaux": ["56190"],
      "centre": {
        "type": "Point",
        "coordinates": [-2.4006, 47.5935]
      },
      "mairie": {
        "type": "Point",
        "coordinates": [-2.4076, 47.5848]
      },
      "population": 975,
      "surface": 968.13,
      "radius": 1.76
    },
    {
      "nom": "Le Hézo",
      "code": "56084",
      "codesPostaux": ["56450"],
      "centre": {
        "type": "Point",
        "coordinates": [-2.6859, 47.5789]
      },
      "mairie": {
        "type": "Point",
        "coordinates": [-2.7017, 47.5854]
      },
      "population": 898,
      "surface": 542.93,
      "radius": 1.31
    },
    {
      "nom": "Le Palais",
      "code": "56152",
      "codesPostaux": ["56360"],
      "centre": {
        "type": "Point",
        "coordinates": [-3.1664, 47.3407]
      },
      "mairie": {
        "type": "Point",
        "coordinates": [-3.1572, 47.3472]
      },
      "population": 2576,
      "surface": 1748.43,
      "radius": 2.36
    },
    {
      "nom": "Le Saint",
      "code": "56201",
      "codesPostaux": ["56110"],
      "centre": {
        "type": "Point",
        "coordinates": [-3.5652, 48.09]
      },
      "mairie": {
        "type": "Point",
        "coordinates": [-3.5619, 48.0896]
      },
      "population": 611,
      "surface": 3130.71,
      "radius": 3.16
    },
    {
      "nom": "Le Sourn",
      "code": "56246",
      "codesPostaux": ["56300"],
      "centre": {
        "type": "Point",
        "coordinates": [-2.9944, 48.0375]
      },
      "mairie": {
        "type": "Point",
        "coordinates": [-2.9895, 48.0438]
      },
      "population": 2128,
      "surface": 1610.38,
      "radius": 2.26
    },
    {
      "nom": "Le Tour-du-Parc",
      "code": "56252",
      "codesPostaux": ["56370"],
      "centre": {
        "type": "Point",
        "coordinates": [-2.6529, 47.5334]
      },
      "mairie": {
        "type": "Point",
        "coordinates": [-2.6452, 47.5259]
      },
      "population": 1259,
      "surface": 989.23,
      "radius": 1.77
    },
    {
      "nom": "Les Fougerêts",
      "code": "56060",
      "codesPostaux": ["56200"],
      "centre": {
        "type": "Point",
        "coordinates": [-2.1945, 47.75]
      },
      "mairie": {
        "type": "Point",
        "coordinates": [-2.2123, 47.7388]
      },
      "population": 960,
      "surface": 2002.53,
      "radius": 2.52
    },
    {
      "nom": "Lignol",
      "code": "56110",
      "codesPostaux": ["56160"],
      "centre": {
        "type": "Point",
        "coordinates": [-3.2697, 48.0248]
      },
      "mairie": {
        "type": "Point",
        "coordinates": [-3.2724, 48.0369]
      },
      "population": 855,
      "surface": 3864.07,
      "radius": 3.51
    },
    {
      "nom": "Limerzel",
      "code": "56111",
      "codesPostaux": ["56220"],
      "centre": {
        "type": "Point",
        "coordinates": [-2.36, 47.6391]
      },
      "mairie": {
        "type": "Point",
        "coordinates": [-2.355, 47.637]
      },
      "population": 1306,
      "surface": 2523.48,
      "radius": 2.83
    },
    {
      "nom": "Lizio",
      "code": "56112",
      "codesPostaux": ["56460"],
      "centre": {
        "type": "Point",
        "coordinates": [-2.525, 47.8662]
      },
      "mairie": {
        "type": "Point",
        "coordinates": [-2.5267, 47.863]
      },
      "population": 807,
      "surface": 1693.29,
      "radius": 2.32
    },
    {
      "nom": "Locmalo",
      "code": "56113",
      "codesPostaux": ["56160"],
      "centre": {
        "type": "Point",
        "coordinates": [-3.1824, 48.0626]
      },
      "mairie": {
        "type": "Point",
        "coordinates": [-3.188, 48.0718]
      },
      "population": 894,
      "surface": 2419.04,
      "radius": 2.77
    },
    {
      "nom": "Locmaria",
      "code": "56114",
      "codesPostaux": ["56360"],
      "centre": {
        "type": "Point",
        "coordinates": [-3.1071, 47.3012]
      },
      "mairie": {
        "type": "Point",
        "coordinates": [-3.0838, 47.294]
      },
      "population": 973,
      "surface": 2073.99,
      "radius": 2.57
    },
    {
      "nom": "Locmaria-Grand-Champ",
      "code": "56115",
      "codesPostaux": ["56390"],
      "centre": {
        "type": "Point",
        "coordinates": [-2.7899, 47.76]
      },
      "mairie": {
        "type": "Point",
        "coordinates": [-2.788, 47.7574]
      },
      "population": 1825,
      "surface": 1413.64,
      "radius": 2.12
    },
    {
      "nom": "Locmariaquer",
      "code": "56116",
      "codesPostaux": ["56740"],
      "centre": {
        "type": "Point",
        "coordinates": [-2.9592, 47.5802]
      },
      "mairie": {
        "type": "Point",
        "coordinates": [-2.9454, 47.5699]
      },
      "population": 1567,
      "surface": 1117.09,
      "radius": 1.89
    },
    {
      "nom": "Locminé",
      "code": "56117",
      "codesPostaux": ["56500"],
      "centre": {
        "type": "Point",
        "coordinates": [-2.8384, 47.8803]
      },
      "mairie": {
        "type": "Point",
        "coordinates": [-2.8356, 47.889]
      },
      "population": 4708,
      "surface": 486.72,
      "radius": 1.24
    },
    {
      "nom": "Locmiquélic",
      "code": "56118",
      "codesPostaux": ["56570"],
      "centre": {
        "type": "Point",
        "coordinates": [-3.326, 47.7303]
      },
      "mairie": {
        "type": "Point",
        "coordinates": [-3.3411, 47.7261]
      },
      "population": 4094,
      "surface": 412.8,
      "radius": 1.15
    },
    {
      "nom": "Locoal-Mendon",
      "code": "56119",
      "codesPostaux": ["56550"],
      "centre": {
        "type": "Point",
        "coordinates": [-3.1084, 47.6972]
      },
      "mairie": {
        "type": "Point",
        "coordinates": [-3.1045, 47.7126]
      },
      "population": 3529,
      "surface": 4476.16,
      "radius": 3.77
    },
    {
      "nom": "Locqueltas",
      "code": "56120",
      "codesPostaux": ["56390"],
      "centre": {
        "type": "Point",
        "coordinates": [-2.7616, 47.7654]
      },
      "mairie": {
        "type": "Point",
        "coordinates": [-2.7657, 47.7579]
      },
      "population": 1980,
      "surface": 1952.78,
      "radius": 2.49
    },
    {
      "nom": "Lorient",
      "code": "56121",
      "codesPostaux": ["56100"],
      "centre": {
        "type": "Point",
        "coordinates": [-3.3799, 47.7494]
      },
      "mairie": {
        "type": "Point",
        "coordinates": [-3.3661, 47.7483]
      },
      "population": 58202,
      "surface": 1500.04,
      "radius": 2.19
    },
    {
      "nom": "Loyat",
      "code": "56122",
      "codesPostaux": ["56800"],
      "centre": {
        "type": "Point",
        "coordinates": [-2.3746, 47.994]
      },
      "mairie": {
        "type": "Point",
        "coordinates": [-2.3821, 47.9884]
      },
      "population": 1734,
      "surface": 4172.34,
      "radius": 3.64
    },
    {
      "nom": "Malansac",
      "code": "56123",
      "codesPostaux": ["56220"],
      "centre": {
        "type": "Point",
        "coordinates": [-2.3091, 47.6887]
      },
      "mairie": {
        "type": "Point",
        "coordinates": [-2.2981, 47.6774]
      },
      "population": 2292,
      "surface": 3633.81,
      "radius": 3.4
    },
    {
      "nom": "Malestroit",
      "code": "56124",
      "codesPostaux": ["56140"],
      "centre": {
        "type": "Point",
        "coordinates": [-2.3867, 47.8076]
      },
      "mairie": {
        "type": "Point",
        "coordinates": [-2.3834, 47.8102]
      },
      "population": 2533,
      "surface": 586.81,
      "radius": 1.37
    },
    {
      "nom": "Malguénac",
      "code": "56125",
      "codesPostaux": ["56300"],
      "centre": {
        "type": "Point",
        "coordinates": [-3.0593, 48.0669]
      },
      "mairie": {
        "type": "Point",
        "coordinates": [-3.0531, 48.081]
      },
      "population": 1849,
      "surface": 3845.34,
      "radius": 3.5
    },
    {
      "nom": "Marzan",
      "code": "56126",
      "codesPostaux": ["56130"],
      "centre": {
        "type": "Point",
        "coordinates": [-2.3599, 47.5441]
      },
      "mairie": {
        "type": "Point",
        "coordinates": [-2.326, 47.5407]
      },
      "population": 2611,
      "surface": 3420.21,
      "radius": 3.3
    },
    {
      "nom": "Mauron",
      "code": "56127",
      "codesPostaux": ["56430"],
      "centre": {
        "type": "Point",
        "coordinates": [-2.3094, 48.0839]
      },
      "mairie": {
        "type": "Point",
        "coordinates": [-2.2838, 48.0839]
      },
      "population": 3169,
      "surface": 6712.41,
      "radius": 4.62
    },
    {
      "nom": "Melrand",
      "code": "56128",
      "codesPostaux": ["56310"],
      "centre": {
        "type": "Point",
        "coordinates": [-3.1005, 47.9732]
      },
      "mairie": {
        "type": "Point",
        "coordinates": [-3.1105, 47.9808]
      },
      "population": 1559,
      "surface": 4076.25,
      "radius": 3.6
    },
    {
      "nom": "Ménéac",
      "code": "56129",
      "codesPostaux": ["56490"],
      "centre": {
        "type": "Point",
        "coordinates": [-2.4546, 48.1247]
      },
      "mairie": {
        "type": "Point",
        "coordinates": [-2.4618, 48.1386]
      },
      "population": 1478,
      "surface": 6867.65,
      "radius": 4.68
    },
    {
      "nom": "Merlevenez",
      "code": "56130",
      "codesPostaux": ["56700"],
      "centre": {
        "type": "Point",
        "coordinates": [-3.2429, 47.7302]
      },
      "mairie": {
        "type": "Point",
        "coordinates": [-3.2344, 47.7364]
      },
      "population": 3191,
      "surface": 1774.42,
      "radius": 2.38
    },
    {
      "nom": "Meslan",
      "code": "56131",
      "codesPostaux": ["56320"],
      "centre": {
        "type": "Point",
        "coordinates": [-3.4492, 47.9859]
      },
      "mairie": {
        "type": "Point",
        "coordinates": [-3.4324, 47.9938]
      },
      "population": 1475,
      "surface": 3848.08,
      "radius": 3.5
    },
    {
      "nom": "Meucon",
      "code": "56132",
      "codesPostaux": ["56890"],
      "centre": {
        "type": "Point",
        "coordinates": [-2.7731, 47.7242]
      },
      "mairie": {
        "type": "Point",
        "coordinates": [-2.764, 47.717]
      },
      "population": 2278,
      "surface": 576.37,
      "radius": 1.35
    },
    {
      "nom": "Missiriac",
      "code": "56133",
      "codesPostaux": ["56140"],
      "centre": {
        "type": "Point",
        "coordinates": [-2.3598, 47.821]
      },
      "mairie": {
        "type": "Point",
        "coordinates": [-2.3507, 47.8357]
      },
      "population": 1192,
      "surface": 1348.91,
      "radius": 2.07
    },
    {
      "nom": "Mohon",
      "code": "56134",
      "codesPostaux": ["56490"],
      "centre": {
        "type": "Point",
        "coordinates": [-2.495, 48.0643]
      },
      "mairie": {
        "type": "Point",
        "coordinates": [-2.5261, 48.0536]
      },
      "population": 988,
      "surface": 3866.61,
      "radius": 3.51
    },
    {
      "nom": "Molac",
      "code": "56135",
      "codesPostaux": ["56230"],
      "centre": {
        "type": "Point",
        "coordinates": [-2.4406, 47.7354]
      },
      "mairie": {
        "type": "Point",
        "coordinates": [-2.4355, 47.731]
      },
      "population": 1636,
      "surface": 2857.19,
      "radius": 3.02
    },
    {
      "nom": "Monteneuf",
      "code": "56136",
      "codesPostaux": ["56380"],
      "centre": {
        "type": "Point",
        "coordinates": [-2.1919, 47.881]
      },
      "mairie": {
        "type": "Point",
        "coordinates": [-2.2098, 47.8725]
      },
      "population": 760,
      "surface": 2964.82,
      "radius": 3.07
    },
    {
      "nom": "Monterblanc",
      "code": "56137",
      "codesPostaux": ["56250"],
      "centre": {
        "type": "Point",
        "coordinates": [-2.7034, 47.7345]
      },
      "mairie": {
        "type": "Point",
        "coordinates": [-2.6795, 47.743]
      },
      "population": 3342,
      "surface": 2553.17,
      "radius": 2.85
    },
    {
      "nom": "Montertelot",
      "code": "56139",
      "codesPostaux": ["56800"],
      "centre": {
        "type": "Point",
        "coordinates": [-2.4111, 47.8847]
      },
      "mairie": {
        "type": "Point",
        "coordinates": [-2.4221, 47.881]
      },
      "population": 370,
      "surface": 264.66,
      "radius": 0.92
    },
    {
      "nom": "Moréac",
      "code": "56140",
      "codesPostaux": ["56500"],
      "centre": {
        "type": "Point",
        "coordinates": [-2.8001, 47.9306]
      },
      "mairie": {
        "type": "Point",
        "coordinates": [-2.8205, 47.9189]
      },
      "population": 3692,
      "surface": 6031.94,
      "radius": 4.38
    },
    {
      "nom": "Moustoir-Ac",
      "code": "56141",
      "codesPostaux": ["56500"],
      "centre": {
        "type": "Point",
        "coordinates": [-2.8571, 47.844]
      },
      "mairie": {
        "type": "Point",
        "coordinates": [-2.8337, 47.856]
      },
      "population": 1713,
      "surface": 3390.73,
      "radius": 3.29
    },
    {
      "nom": "Muzillac",
      "code": "56143",
      "codesPostaux": ["56190"],
      "centre": {
        "type": "Point",
        "coordinates": [-2.4741, 47.5484]
      },
      "mairie": {
        "type": "Point",
        "coordinates": [-2.4829, 47.5551]
      },
      "population": 5022,
      "surface": 3807.16,
      "radius": 3.48
    },
    {
      "nom": "Néant-sur-Yvel",
      "code": "56145",
      "codesPostaux": ["56430"],
      "centre": {
        "type": "Point",
        "coordinates": [-2.331, 48.0208]
      },
      "mairie": {
        "type": "Point",
        "coordinates": [-2.3278, 48.0128]
      },
      "population": 1070,
      "surface": 3261.52,
      "radius": 3.22
    },
    {
      "nom": "Neulliac",
      "code": "56146",
      "codesPostaux": ["56300"],
      "centre": {
        "type": "Point",
        "coordinates": [-2.9614, 48.1247]
      },
      "mairie": {
        "type": "Point",
        "coordinates": [-2.9834, 48.1288]
      },
      "population": 1476,
      "surface": 3110.52,
      "radius": 3.15
    },
    {
      "nom": "Nivillac",
      "code": "56147",
      "codesPostaux": ["56130"],
      "centre": {
        "type": "Point",
        "coordinates": [-2.2527, 47.5404]
      },
      "mairie": {
        "type": "Point",
        "coordinates": [-2.2816, 47.5354]
      },
      "population": 4874,
      "surface": 5579.86,
      "radius": 4.21
    },
    {
      "nom": "Nostang",
      "code": "56148",
      "codesPostaux": ["56690"],
      "centre": {
        "type": "Point",
        "coordinates": [-3.1755, 47.7509]
      },
      "mairie": {
        "type": "Point",
        "coordinates": [-3.1885, 47.7496]
      },
      "population": 1650,
      "surface": 1723.98,
      "radius": 2.34
    },
    {
      "nom": "Noyal-Muzillac",
      "code": "56149",
      "codesPostaux": ["56190"],
      "centre": {
        "type": "Point",
        "coordinates": [-2.4614, 47.5946]
      },
      "mairie": {
        "type": "Point",
        "coordinates": [-2.4571, 47.5921]
      },
      "population": 2548,
      "surface": 4931.34,
      "radius": 3.96
    },
    {
      "nom": "Noyal-Pontivy",
      "code": "56151",
      "codesPostaux": ["56920"],
      "centre": {
        "type": "Point",
        "coordinates": [-2.8786, 48.0544]
      },
      "mairie": {
        "type": "Point",
        "coordinates": [-2.8811, 48.0674]
      },
      "population": 3605,
      "surface": 5347.81,
      "radius": 4.13
    },
    {
      "nom": "Péaule",
      "code": "56153",
      "codesPostaux": ["56130"],
      "centre": {
        "type": "Point",
        "coordinates": [-2.3376, 47.5843]
      },
      "mairie": {
        "type": "Point",
        "coordinates": [-2.3566, 47.5788]
      },
      "population": 2856,
      "surface": 3924.38,
      "radius": 3.53
    },
    {
      "nom": "Peillac",
      "code": "56154",
      "codesPostaux": ["56220"],
      "centre": {
        "type": "Point",
        "coordinates": [-2.2174, 47.7169]
      },
      "mairie": {
        "type": "Point",
        "coordinates": [-2.2204, 47.7134]
      },
      "population": 1865,
      "surface": 2452.04,
      "radius": 2.79
    },
    {
      "nom": "Pénestin",
      "code": "56155",
      "codesPostaux": ["56760"],
      "centre": {
        "type": "Point",
        "coordinates": [-2.4619, 47.468]
      },
      "mairie": {
        "type": "Point",
        "coordinates": [-2.4757, 47.4822]
      },
      "population": 2057,
      "surface": 2155.63,
      "radius": 2.62
    },
    {
      "nom": "Persquen",
      "code": "56156",
      "codesPostaux": ["56160"],
      "centre": {
        "type": "Point",
        "coordinates": [-3.2174, 48.0131]
      },
      "mairie": {
        "type": "Point",
        "coordinates": [-3.1956, 48.0305]
      },
      "population": 358,
      "surface": 2011.05,
      "radius": 2.53
    },
    {
      "nom": "Plaudren",
      "code": "56157",
      "codesPostaux": ["56420"],
      "centre": {
        "type": "Point",
        "coordinates": [-2.6894, 47.7856]
      },
      "mairie": {
        "type": "Point",
        "coordinates": [-2.6937, 47.7789]
      },
      "population": 1970,
      "surface": 4113.62,
      "radius": 3.62
    },
    {
      "nom": "Plescop",
      "code": "56158",
      "codesPostaux": ["56890"],
      "centre": {
        "type": "Point",
        "coordinates": [-2.8318, 47.6972]
      },
      "mairie": {
        "type": "Point",
        "coordinates": [-2.8047, 47.6982]
      },
      "population": 6200,
      "surface": 2345.07,
      "radius": 2.73
    },
    {
      "nom": "Pleucadeuc",
      "code": "56159",
      "codesPostaux": ["56140"],
      "centre": {
        "type": "Point",
        "coordinates": [-2.3918, 47.7722]
      },
      "mairie": {
        "type": "Point",
        "coordinates": [-2.3737, 47.7593]
      },
      "population": 1850,
      "surface": 3503.92,
      "radius": 3.34
    },
    {
      "nom": "Pleugriffet",
      "code": "56160",
      "codesPostaux": ["56120"],
      "centre": {
        "type": "Point",
        "coordinates": [-2.6896, 47.9924]
      },
      "mairie": {
        "type": "Point",
        "coordinates": [-2.6853, 47.99]
      },
      "population": 1281,
      "surface": 3854.68,
      "radius": 3.5
    },
    {
      "nom": "Ploemel",
      "code": "56161",
      "codesPostaux": ["56400"],
      "centre": {
        "type": "Point",
        "coordinates": [-3.0754, 47.6629]
      },
      "mairie": {
        "type": "Point",
        "coordinates": [-3.0718, 47.651]
      },
      "population": 3109,
      "surface": 2542.64,
      "radius": 2.84
    },
    {
      "nom": "Ploemeur",
      "code": "56162",
      "codesPostaux": ["56270"],
      "centre": {
        "type": "Point",
        "coordinates": [-3.4486, 47.7312]
      },
      "mairie": {
        "type": "Point",
        "coordinates": [-3.4263, 47.7368]
      },
      "population": 18873,
      "surface": 3983.88,
      "radius": 3.56
    },
    {
      "nom": "Ploërdut",
      "code": "56163",
      "codesPostaux": ["56160"],
      "centre": {
        "type": "Point",
        "coordinates": [-3.2802, 48.0979]
      },
      "mairie": {
        "type": "Point",
        "coordinates": [-3.2882, 48.0866]
      },
      "population": 1259,
      "surface": 7620.34,
      "radius": 4.93
    },
    {
      "nom": "Ploeren",
      "code": "56164",
      "codesPostaux": ["56880"],
      "centre": {
        "type": "Point",
        "coordinates": [-2.8394, 47.6585]
      },
      "mairie": {
        "type": "Point",
        "coordinates": [-2.8665, 47.6565]
      },
      "population": 6781,
      "surface": 2050.42,
      "radius": 2.55
    },
    {
      "nom": "Ploërmel",
      "code": "56165",
      "codesPostaux": ["56800"],
      "centre": {
        "type": "Point",
        "coordinates": [-2.3769, 47.9167]
      },
      "mairie": {
        "type": "Point",
        "coordinates": [-2.3967, 47.9292]
      },
      "population": 10021,
      "surface": 5847.24,
      "radius": 4.31
    },
    {
      "nom": "Plouay",
      "code": "56166",
      "codesPostaux": ["56240"],
      "centre": {
        "type": "Point",
        "coordinates": [-3.3455, 47.9296]
      },
      "mairie": {
        "type": "Point",
        "coordinates": [-3.3348, 47.9156]
      },
      "population": 5779,
      "surface": 6710.6,
      "radius": 4.62
    },
    {
      "nom": "Plougoumelen",
      "code": "56167",
      "codesPostaux": ["56400"],
      "centre": {
        "type": "Point",
        "coordinates": [-2.8932, 47.6589]
      },
      "mairie": {
        "type": "Point",
        "coordinates": [-2.9174, 47.6533]
      },
      "population": 2599,
      "surface": 2188.53,
      "radius": 2.64
    },
    {
      "nom": "Plouharnel",
      "code": "56168",
      "codesPostaux": ["56340"],
      "centre": {
        "type": "Point",
        "coordinates": [-3.1272, 47.5934]
      },
      "mairie": {
        "type": "Point",
        "coordinates": [-3.1125, 47.5981]
      },
      "population": 2272,
      "surface": 1895.58,
      "radius": 2.46
    },
    {
      "nom": "Plouhinec",
      "code": "56169",
      "codesPostaux": ["56680"],
      "centre": {
        "type": "Point",
        "coordinates": [-3.2399, 47.6909]
      },
      "mairie": {
        "type": "Point",
        "coordinates": [-3.252, 47.6975]
      },
      "population": 5343,
      "surface": 3703.14,
      "radius": 3.43
    },
    {
      "nom": "Plouray",
      "code": "56170",
      "codesPostaux": ["56770"],
      "centre": {
        "type": "Point",
        "coordinates": [-3.3753, 48.1333]
      },
      "mairie": {
        "type": "Point",
        "coordinates": [-3.3886, 48.1454]
      },
      "population": 1022,
      "surface": 3928.59,
      "radius": 3.54
    },
    {
      "nom": "Pluherlin",
      "code": "56171",
      "codesPostaux": ["56220"],
      "centre": {
        "type": "Point",
        "coordinates": [-2.3668, 47.711]
      },
      "mairie": {
        "type": "Point",
        "coordinates": [-2.3622, 47.6967]
      },
      "population": 1515,
      "surface": 3533.33,
      "radius": 3.35
    },
    {
      "nom": "Plumelec",
      "code": "56172",
      "codesPostaux": ["56420"],
      "centre": {
        "type": "Point",
        "coordinates": [-2.6227, 47.8237]
      },
      "mairie": {
        "type": "Point",
        "coordinates": [-2.6395, 47.8377]
      },
      "population": 2730,
      "surface": 5844.73,
      "radius": 4.31
    },
    {
      "nom": "Pluméliau-Bieuzy",
      "code": "56173",
      "codesPostaux": ["56310", "56930"],
      "centre": {
        "type": "Point",
        "coordinates": [-2.9896, 47.9726]
      },
      "mairie": {
        "type": "Point",
        "coordinates": [-2.9728, 47.9582]
      },
      "population": 4535,
      "surface": 8736.34,
      "radius": 5.27
    },
    {
      "nom": "Plumelin",
      "code": "56174",
      "codesPostaux": ["56500"],
      "centre": {
        "type": "Point",
        "coordinates": [-2.8843, 47.8711]
      },
      "mairie": {
        "type": "Point",
        "coordinates": [-2.8868, 47.8612]
      },
      "population": 2841,
      "surface": 3135.05,
      "radius": 3.16
    },
    {
      "nom": "Plumergat",
      "code": "56175",
      "codesPostaux": ["56400"],
      "centre": {
        "type": "Point",
        "coordinates": [-2.9318, 47.7264]
      },
      "mairie": {
        "type": "Point",
        "coordinates": [-2.9185, 47.7411]
      },
      "population": 4199,
      "surface": 4219.39,
      "radius": 3.66
    },
    {
      "nom": "Pluneret",
      "code": "56176",
      "codesPostaux": ["56400"],
      "centre": {
        "type": "Point",
        "coordinates": [-2.9373, 47.6756]
      },
      "mairie": {
        "type": "Point",
        "coordinates": [-2.9581, 47.6751]
      },
      "population": 6257,
      "surface": 2717.24,
      "radius": 2.94
    },
    {
      "nom": "Pluvigner",
      "code": "56177",
      "codesPostaux": ["56330"],
      "centre": {
        "type": "Point",
        "coordinates": [-3.0204, 47.7821]
      },
      "mairie": {
        "type": "Point",
        "coordinates": [-3.0096, 47.7773]
      },
      "population": 7644,
      "surface": 8307.4,
      "radius": 5.14
    },
    {
      "nom": "Pont-Scorff",
      "code": "56179",
      "codesPostaux": ["56620"],
      "centre": {
        "type": "Point",
        "coordinates": [-3.422, 47.8385]
      },
      "mairie": {
        "type": "Point",
        "coordinates": [-3.3992, 47.8354]
      },
      "population": 4015,
      "surface": 2349.27,
      "radius": 2.73
    },
    {
      "nom": "Pontivy",
      "code": "56178",
      "codesPostaux": ["56300"],
      "centre": {
        "type": "Point",
        "coordinates": [-2.9697, 48.0663]
      },
      "mairie": {
        "type": "Point",
        "coordinates": [-2.9678, 48.0644]
      },
      "population": 14547,
      "surface": 2508.6,
      "radius": 2.83
    },
    {
      "nom": "Porcaro",
      "code": "56180",
      "codesPostaux": ["56380"],
      "centre": {
        "type": "Point",
        "coordinates": [-2.1917, 47.9204]
      },
      "mairie": {
        "type": "Point",
        "coordinates": [-2.1993, 47.9093]
      },
      "population": 749,
      "surface": 1559.36,
      "radius": 2.23
    },
    {
      "nom": "Port-Louis",
      "code": "56181",
      "codesPostaux": ["56290"],
      "centre": {
        "type": "Point",
        "coordinates": [-3.3517, 47.7091]
      },
      "mairie": {
        "type": "Point",
        "coordinates": [-3.356, 47.7085]
      },
      "population": 2689,
      "surface": 121.76,
      "radius": 0.62
    },
    {
      "nom": "Priziac",
      "code": "56182",
      "codesPostaux": ["56320"],
      "centre": {
        "type": "Point",
        "coordinates": [-3.4305, 48.0593]
      },
      "mairie": {
        "type": "Point",
        "coordinates": [-3.411, 48.0604]
      },
      "population": 1024,
      "surface": 4582.39,
      "radius": 3.82
    },
    {
      "nom": "Questembert",
      "code": "56184",
      "codesPostaux": ["56230"],
      "centre": {
        "type": "Point",
        "coordinates": [-2.4348, 47.6643]
      },
      "mairie": {
        "type": "Point",
        "coordinates": [-2.4507, 47.66]
      },
      "population": 8081,
      "surface": 6566.33,
      "radius": 4.57
    },
    {
      "nom": "Quéven",
      "code": "56185",
      "codesPostaux": ["56530"],
      "centre": {
        "type": "Point",
        "coordinates": [-3.4172, 47.7871]
      },
      "mairie": {
        "type": "Point",
        "coordinates": [-3.4193, 47.7902]
      },
      "population": 8906,
      "surface": 2461.35,
      "radius": 2.8
    },
    {
      "nom": "Quiberon",
      "code": "56186",
      "codesPostaux": ["56170"],
      "centre": {
        "type": "Point",
        "coordinates": [-3.109, 47.4848]
      },
      "mairie": {
        "type": "Point",
        "coordinates": [-3.121, 47.4818]
      },
      "population": 4782,
      "surface": 910.78,
      "radius": 1.7
    },
    {
      "nom": "Quistinic",
      "code": "56188",
      "codesPostaux": ["56310"],
      "centre": {
        "type": "Point",
        "coordinates": [-3.1374, 47.9123]
      },
      "mairie": {
        "type": "Point",
        "coordinates": [-3.1343, 47.9051]
      },
      "population": 1423,
      "surface": 4294.77,
      "radius": 3.7
    },
    {
      "nom": "Radenac",
      "code": "56189",
      "codesPostaux": ["56500"],
      "centre": {
        "type": "Point",
        "coordinates": [-2.7095, 47.9485]
      },
      "mairie": {
        "type": "Point",
        "coordinates": [-2.7136, 47.9618]
      },
      "population": 1067,
      "surface": 2165.69,
      "radius": 2.63
    },
    {
      "nom": "Réguiny",
      "code": "56190",
      "codesPostaux": ["56500"],
      "centre": {
        "type": "Point",
        "coordinates": [-2.7661, 47.9879]
      },
      "mairie": {
        "type": "Point",
        "coordinates": [-2.7452, 47.9764]
      },
      "population": 1944,
      "surface": 2805.36,
      "radius": 2.99
    },
    {
      "nom": "Réminiac",
      "code": "56191",
      "codesPostaux": ["56140"],
      "centre": {
        "type": "Point",
        "coordinates": [-2.2466, 47.8648]
      },
      "mairie": {
        "type": "Point",
        "coordinates": [-2.238, 47.86]
      },
      "population": 431,
      "surface": 1215.37,
      "radius": 1.97
    },
    {
      "nom": "Riantec",
      "code": "56193",
      "codesPostaux": ["56670"],
      "centre": {
        "type": "Point",
        "coordinates": [-3.3029, 47.7208]
      },
      "mairie": {
        "type": "Point",
        "coordinates": [-3.3102, 47.7119]
      },
      "population": 5742,
      "surface": 1427.36,
      "radius": 2.13
    },
    {
      "nom": "Rieux",
      "code": "56194",
      "codesPostaux": ["56350"],
      "centre": {
        "type": "Point",
        "coordinates": [-2.1288, 47.6063]
      },
      "mairie": {
        "type": "Point",
        "coordinates": [-2.1071, 47.5978]
      },
      "population": 2841,
      "surface": 2766.59,
      "radius": 2.97
    },
    {
      "nom": "Rochefort-en-Terre",
      "code": "56196",
      "codesPostaux": ["56220"],
      "centre": {
        "type": "Point",
        "coordinates": [-2.3415, 47.698]
      },
      "mairie": {
        "type": "Point",
        "coordinates": [-2.3367, 47.6993]
      },
      "population": 636,
      "surface": 126.68,
      "radius": 0.64
    },
    {
      "nom": "Rohan",
      "code": "56198",
      "codesPostaux": ["56580"],
      "centre": {
        "type": "Point",
        "coordinates": [-2.7475, 48.0891]
      },
      "mairie": {
        "type": "Point",
        "coordinates": [-2.7521, 48.0693]
      },
      "population": 1541,
      "surface": 2342.07,
      "radius": 2.73
    },
    {
      "nom": "Roudouallec",
      "code": "56199",
      "codesPostaux": ["56110"],
      "centre": {
        "type": "Point",
        "coordinates": [-3.6968, 48.1208]
      },
      "mairie": {
        "type": "Point",
        "coordinates": [-3.7205, 48.1262]
      },
      "population": 715,
      "surface": 2497.45,
      "radius": 2.82
    },
    {
      "nom": "Ruffiac",
      "code": "56200",
      "codesPostaux": ["56140"],
      "centre": {
        "type": "Point",
        "coordinates": [-2.2869, 47.8122]
      },
      "mairie": {
        "type": "Point",
        "coordinates": [-2.2818, 47.8188]
      },
      "population": 1396,
      "surface": 3683.37,
      "radius": 3.42
    },
    {
      "nom": "Saint-Abraham",
      "code": "56202",
      "codesPostaux": ["56140"],
      "centre": {
        "type": "Point",
        "coordinates": [-2.4081, 47.8476]
      },
      "mairie": {
        "type": "Point",
        "coordinates": [-2.4114, 47.8566]
      },
      "population": 540,
      "surface": 672.16,
      "radius": 1.46
    },
    {
      "nom": "Saint-Aignan",
      "code": "56203",
      "codesPostaux": ["56480"],
      "centre": {
        "type": "Point",
        "coordinates": [-3.0493, 48.1801]
      },
      "mairie": {
        "type": "Point",
        "coordinates": [-3.0152, 48.1816]
      },
      "population": 632,
      "surface": 2758.17,
      "radius": 2.96
    },
    {
      "nom": "Saint-Allouestre",
      "code": "56204",
      "codesPostaux": ["56500"],
      "centre": {
        "type": "Point",
        "coordinates": [-2.7349, 47.9092]
      },
      "mairie": {
        "type": "Point",
        "coordinates": [-2.7235, 47.9106]
      },
      "population": 651,
      "surface": 1665.13,
      "radius": 2.3
    },
    {
      "nom": "Saint-Armel",
      "code": "56205",
      "codesPostaux": ["56450"],
      "centre": {
        "type": "Point",
        "coordinates": [-2.7221, 47.5667]
      },
      "mairie": {
        "type": "Point",
        "coordinates": [-2.7116, 47.5719]
      },
      "population": 885,
      "surface": 829.69,
      "radius": 1.63
    },
    {
      "nom": "Saint-Avé",
      "code": "56206",
      "codesPostaux": ["56890"],
      "centre": {
        "type": "Point",
        "coordinates": [-2.7434, 47.7008]
      },
      "mairie": {
        "type": "Point",
        "coordinates": [-2.7357, 47.69]
      },
      "population": 12173,
      "surface": 2612.17,
      "radius": 2.88
    },
    {
      "nom": "Saint-Barthélemy",
      "code": "56207",
      "codesPostaux": ["56150"],
      "centre": {
        "type": "Point",
        "coordinates": [-3.0413, 47.9277]
      },
      "mairie": {
        "type": "Point",
        "coordinates": [-3.0435, 47.9266]
      },
      "population": 1182,
      "surface": 2215.79,
      "radius": 2.66
    },
    {
      "nom": "Saint-Brieuc-de-Mauron",
      "code": "56208",
      "codesPostaux": ["56430"],
      "centre": {
        "type": "Point",
        "coordinates": [-2.3562, 48.09]
      },
      "mairie": {
        "type": "Point",
        "coordinates": [-2.3646, 48.09]
      },
      "population": 294,
      "surface": 1491.6,
      "radius": 2.18
    },
    {
      "nom": "Saint-Caradec-Trégomel",
      "code": "56210",
      "codesPostaux": ["56540"],
      "centre": {
        "type": "Point",
        "coordinates": [-3.3458, 48.0338]
      },
      "mairie": {
        "type": "Point",
        "coordinates": [-3.3524, 48.0373]
      },
      "population": 468,
      "surface": 1610.25,
      "radius": 2.26
    },
    {
      "nom": "Saint-Congard",
      "code": "56211",
      "codesPostaux": ["56140"],
      "centre": {
        "type": "Point",
        "coordinates": [-2.3281, 47.7705]
      },
      "mairie": {
        "type": "Point",
        "coordinates": [-2.3174, 47.7691]
      },
      "population": 806,
      "surface": 2178.49,
      "radius": 2.63
    },
    {
      "nom": "Saint-Dolay",
      "code": "56212",
      "codesPostaux": ["56130"],
      "centre": {
        "type": "Point",
        "coordinates": [-2.1695, 47.5402]
      },
      "mairie": {
        "type": "Point",
        "coordinates": [-2.154, 47.5451]
      },
      "population": 2636,
      "surface": 4883.28,
      "radius": 3.94
    },
    {
      "nom": "Saint-Gérand-Croixanvec",
      "code": "56213",
      "codesPostaux": ["56920"],
      "centre": {
        "type": "Point",
        "coordinates": [-2.8825, 48.119]
      },
      "mairie": {
        "type": "Point",
        "coordinates": [-2.887, 48.109]
      },
      "population": 1309,
      "surface": 2443.84,
      "radius": 2.79
    },
    {
      "nom": "Saint-Gildas-de-Rhuys",
      "code": "56214",
      "codesPostaux": ["56730"],
      "centre": {
        "type": "Point",
        "coordinates": [-2.835, 47.5138]
      },
      "mairie": {
        "type": "Point",
        "coordinates": [-2.8354, 47.5003]
      },
      "population": 1784,
      "surface": 1543.58,
      "radius": 2.22
    },
    {
      "nom": "Saint-Gonnery",
      "code": "56215",
      "codesPostaux": ["56920"],
      "centre": {
        "type": "Point",
        "coordinates": [-2.8208, 48.1248]
      },
      "mairie": {
        "type": "Point",
        "coordinates": [-2.8201, 48.1247]
      },
      "population": 1087,
      "surface": 1666.25,
      "radius": 2.3
    },
    {
      "nom": "Saint-Gorgon",
      "code": "56216",
      "codesPostaux": ["56350"],
      "centre": {
        "type": "Point",
        "coordinates": [-2.2371, 47.6424]
      },
      "mairie": {
        "type": "Point",
        "coordinates": [-2.2357, 47.649]
      },
      "population": 428,
      "surface": 575.01,
      "radius": 1.35
    },
    {
      "nom": "Saint-Gravé",
      "code": "56218",
      "codesPostaux": ["56220"],
      "centre": {
        "type": "Point",
        "coordinates": [-2.2906, 47.7254]
      },
      "mairie": {
        "type": "Point",
        "coordinates": [-2.2817, 47.7261]
      },
      "population": 745,
      "surface": 1592.82,
      "radius": 2.25
    },
    {
      "nom": "Saint-Guyomard",
      "code": "56219",
      "codesPostaux": ["56460"],
      "centre": {
        "type": "Point",
        "coordinates": [-2.5006, 47.779]
      },
      "mairie": {
        "type": "Point",
        "coordinates": [-2.5133, 47.781]
      },
      "population": 1446,
      "surface": 1979.68,
      "radius": 2.51
    },
    {
      "nom": "Saint-Jacut-les-Pins",
      "code": "56221",
      "codesPostaux": ["56220"],
      "centre": {
        "type": "Point",
        "coordinates": [-2.2041, 47.6765]
      },
      "mairie": {
        "type": "Point",
        "coordinates": [-2.2152, 47.6849]
      },
      "population": 1733,
      "surface": 2278.72,
      "radius": 2.69
    },
    {
      "nom": "Saint-Jean-Brévelay",
      "code": "56222",
      "codesPostaux": ["56660"],
      "centre": {
        "type": "Point",
        "coordinates": [-2.7243, 47.8314]
      },
      "mairie": {
        "type": "Point",
        "coordinates": [-2.7209, 47.8452]
      },
      "population": 2860,
      "surface": 4172.6,
      "radius": 3.64
    },
    {
      "nom": "Saint-Jean-la-Poterie",
      "code": "56223",
      "codesPostaux": ["56350"],
      "centre": {
        "type": "Point",
        "coordinates": [-2.1192, 47.645]
      },
      "mairie": {
        "type": "Point",
        "coordinates": [-2.1261, 47.6367]
      },
      "population": 1430,
      "surface": 837.91,
      "radius": 1.63
    },
    {
      "nom": "Saint-Laurent-sur-Oust",
      "code": "56224",
      "codesPostaux": ["56140"],
      "centre": {
        "type": "Point",
        "coordinates": [-2.313, 47.7921]
      },
      "mairie": {
        "type": "Point",
        "coordinates": [-2.3197, 47.7954]
      },
      "population": 394,
      "surface": 386.14,
      "radius": 1.11
    },
    {
      "nom": "Saint-Léry",
      "code": "56225",
      "codesPostaux": ["56430"],
      "centre": {
        "type": "Point",
        "coordinates": [-2.2636, 48.0905]
      },
      "mairie": {
        "type": "Point",
        "coordinates": [-2.2552, 48.0903]
      },
      "population": 205,
      "surface": 162.61,
      "radius": 0.72
    },
    {
      "nom": "Saint-Malo-de-Beignon",
      "code": "56226",
      "codesPostaux": ["56380"],
      "centre": {
        "type": "Point",
        "coordinates": [-2.1397, 47.9545]
      },
      "mairie": {
        "type": "Point",
        "coordinates": [-2.1511, 47.9581]
      },
      "population": 543,
      "surface": 350.93,
      "radius": 1.06
    },
    {
      "nom": "Saint-Malo-des-Trois-Fontaines",
      "code": "56227",
      "codesPostaux": ["56490"],
      "centre": {
        "type": "Point",
        "coordinates": [-2.4741, 48.0145]
      },
      "mairie": {
        "type": "Point",
        "coordinates": [-2.4724, 48.0138]
      },
      "population": 562,
      "surface": 1615.9,
      "radius": 2.27
    },
    {
      "nom": "Saint-Marcel",
      "code": "56228",
      "codesPostaux": ["56140"],
      "centre": {
        "type": "Point",
        "coordinates": [-2.4181, 47.8116]
      },
      "mairie": {
        "type": "Point",
        "coordinates": [-2.4185, 47.8042]
      },
      "population": 1129,
      "surface": 1294.77,
      "radius": 2.03
    },
    {
      "nom": "Saint-Martin-sur-Oust",
      "code": "56229",
      "codesPostaux": ["56200"],
      "centre": {
        "type": "Point",
        "coordinates": [-2.2664, 47.7619]
      },
      "mairie": {
        "type": "Point",
        "coordinates": [-2.2534, 47.745]
      },
      "population": 1305,
      "surface": 2820.74,
      "radius": 3
    },
    {
      "nom": "Saint-Nicolas-du-Tertre",
      "code": "56230",
      "codesPostaux": ["56910"],
      "centre": {
        "type": "Point",
        "coordinates": [-2.2163, 47.7943]
      },
      "mairie": {
        "type": "Point",
        "coordinates": [-2.2204, 47.8028]
      },
      "population": 455,
      "surface": 1317.25,
      "radius": 2.05
    },
    {
      "nom": "Saint-Nolff",
      "code": "56231",
      "codesPostaux": ["56250"],
      "centre": {
        "type": "Point",
        "coordinates": [-2.6681, 47.7066]
      },
      "mairie": {
        "type": "Point",
        "coordinates": [-2.6514, 47.703]
      },
      "population": 3952,
      "surface": 2606.76,
      "radius": 2.88
    },
    {
      "nom": "Saint-Perreux",
      "code": "56232",
      "codesPostaux": ["56350"],
      "centre": {
        "type": "Point",
        "coordinates": [-2.1249, 47.6708]
      },
      "mairie": {
        "type": "Point",
        "coordinates": [-2.1064, 47.6678]
      },
      "population": 1049,
      "surface": 618.65,
      "radius": 1.4
    },
    {
      "nom": "Saint-Philibert",
      "code": "56233",
      "codesPostaux": ["56470"],
      "centre": {
        "type": "Point",
        "coordinates": [-3.0014, 47.585]
      },
      "mairie": {
        "type": "Point",
        "coordinates": [-3.0009, 47.5866]
      },
      "population": 1580,
      "surface": 729.11,
      "radius": 1.52
    },
    {
      "nom": "Saint-Pierre-Quiberon",
      "code": "56234",
      "codesPostaux": ["56510"],
      "centre": {
        "type": "Point",
        "coordinates": [-3.1464, 47.5334]
      },
      "mairie": {
        "type": "Point",
        "coordinates": [-3.1311, 47.5199]
      },
      "population": 2327,
      "surface": 781.06,
      "radius": 1.58
    },
    {
      "nom": "Saint-Servant",
      "code": "56236",
      "codesPostaux": ["56120"],
      "centre": {
        "type": "Point",
        "coordinates": [-2.508, 47.8968]
      },
      "mairie": {
        "type": "Point",
        "coordinates": [-2.5134, 47.9154]
      },
      "population": 789,
      "surface": 2257.17,
      "radius": 2.68
    },
    {
      "nom": "Saint-Thuriau",
      "code": "56237",
      "codesPostaux": ["56300"],
      "centre": {
        "type": "Point",
        "coordinates": [-2.9438, 48.02]
      },
      "mairie": {
        "type": "Point",
        "coordinates": [-2.9495, 48.0162]
      },
      "population": 1880,
      "surface": 2153.87,
      "radius": 2.62
    },
    {
      "nom": "Saint-Tugdual",
      "code": "56238",
      "codesPostaux": ["56540"],
      "centre": {
        "type": "Point",
        "coordinates": [-3.3672, 48.0955]
      },
      "mairie": {
        "type": "Point",
        "coordinates": [-3.3391, 48.0996]
      },
      "population": 375,
      "surface": 2012.79,
      "radius": 2.53
    },
    {
      "nom": "Saint-Vincent-sur-Oust",
      "code": "56239",
      "codesPostaux": ["56350"],
      "centre": {
        "type": "Point",
        "coordinates": [-2.149, 47.702]
      },
      "mairie": {
        "type": "Point",
        "coordinates": [-2.1465, 47.6999]
      },
      "population": 1647,
      "surface": 1594.55,
      "radius": 2.25
    },
    {
      "nom": "Sainte-Anne-d'Auray",
      "code": "56263",
      "codesPostaux": ["56400"],
      "centre": {
        "type": "Point",
        "coordinates": [-2.9497, 47.7007]
      },
      "mairie": {
        "type": "Point",
        "coordinates": [-2.9504, 47.7035]
      },
      "population": 2837,
      "surface": 497.61,
      "radius": 1.26
    },
    {
      "nom": "Sainte-Brigitte",
      "code": "56209",
      "codesPostaux": ["56480"],
      "centre": {
        "type": "Point",
        "coordinates": [-3.1048, 48.1777]
      },
      "mairie": {
        "type": "Point",
        "coordinates": [-3.1291, 48.1643]
      },
      "population": 178,
      "surface": 1771.78,
      "radius": 2.37
    },
    {
      "nom": "Sainte-Hélène",
      "code": "56220",
      "codesPostaux": ["56700"],
      "centre": {
        "type": "Point",
        "coordinates": [-3.1879, 47.7158]
      },
      "mairie": {
        "type": "Point",
        "coordinates": [-3.2036, 47.7197]
      },
      "population": 1298,
      "surface": 1071.22,
      "radius": 1.85
    },
    {
      "nom": "Sarzeau",
      "code": "56240",
      "codesPostaux": ["56370"],
      "centre": {
        "type": "Point",
        "coordinates": [-2.7584, 47.5253]
      },
      "mairie": {
        "type": "Point",
        "coordinates": [-2.7686, 47.5279]
      },
      "population": 9068,
      "surface": 6006.24,
      "radius": 4.37
    },
    {
      "nom": "Sauzon",
      "code": "56241",
      "codesPostaux": ["56360"],
      "centre": {
        "type": "Point",
        "coordinates": [-3.2295, 47.356]
      },
      "mairie": {
        "type": "Point",
        "coordinates": [-3.2232, 47.3713]
      },
      "population": 1043,
      "surface": 2251.64,
      "radius": 2.68
    },
    {
      "nom": "Séglien",
      "code": "56242",
      "codesPostaux": ["56160"],
      "centre": {
        "type": "Point",
        "coordinates": [-3.1481, 48.102]
      },
      "mairie": {
        "type": "Point",
        "coordinates": [-3.1595, 48.1071]
      },
      "population": 656,
      "surface": 3832.05,
      "radius": 3.49
    },
    {
      "nom": "Séné",
      "code": "56243",
      "codesPostaux": ["56860"],
      "centre": {
        "type": "Point",
        "coordinates": [-2.7394, 47.6227]
      },
      "mairie": {
        "type": "Point",
        "coordinates": [-2.7374, 47.62]
      },
      "population": 9265,
      "surface": 2173.76,
      "radius": 2.63
    },
    {
      "nom": "Sérent",
      "code": "56244",
      "codesPostaux": ["56460"],
      "centre": {
        "type": "Point",
        "coordinates": [-2.4993, 47.8246]
      },
      "mairie": {
        "type": "Point",
        "coordinates": [-2.5063, 47.8224]
      },
      "population": 3386,
      "surface": 6019.46,
      "radius": 4.38
    },
    {
      "nom": "Silfiac",
      "code": "56245",
      "codesPostaux": ["56480"],
      "centre": {
        "type": "Point",
        "coordinates": [-3.171, 48.1475]
      },
      "mairie": {
        "type": "Point",
        "coordinates": [-3.1577, 48.1491]
      },
      "population": 488,
      "surface": 2257.77,
      "radius": 2.68
    },
    {
      "nom": "Sulniac",
      "code": "56247",
      "codesPostaux": ["56250"],
      "centre": {
        "type": "Point",
        "coordinates": [-2.5538, 47.6539]
      },
      "mairie": {
        "type": "Point",
        "coordinates": [-2.571, 47.6754]
      },
      "population": 3847,
      "surface": 2810.85,
      "radius": 2.99
    },
    {
      "nom": "Surzur",
      "code": "56248",
      "codesPostaux": ["56450"],
      "centre": {
        "type": "Point",
        "coordinates": [-2.6246, 47.5698]
      },
      "mairie": {
        "type": "Point",
        "coordinates": [-2.6287, 47.5777]
      },
      "population": 5110,
      "surface": 5903.73,
      "radius": 4.33
    },
    {
      "nom": "Taupont",
      "code": "56249",
      "codesPostaux": ["56800"],
      "centre": {
        "type": "Point",
        "coordinates": [-2.4416, 47.9605]
      },
      "mairie": {
        "type": "Point",
        "coordinates": [-2.4392, 47.9578]
      },
      "population": 2400,
      "surface": 3048.89,
      "radius": 3.12
    },
    {
      "nom": "Théhillac",
      "code": "56250",
      "codesPostaux": ["56130"],
      "centre": {
        "type": "Point",
        "coordinates": [-2.1208, 47.552]
      },
      "mairie": {
        "type": "Point",
        "coordinates": [-2.1166, 47.5667]
      },
      "population": 610,
      "surface": 1452.47,
      "radius": 2.15
    },
    {
      "nom": "Theix-Noyalo",
      "code": "56251",
      "codesPostaux": ["56450"],
      "centre": {
        "type": "Point",
        "coordinates": [-2.6472, 47.6304]
      },
      "mairie": {
        "type": "Point",
        "coordinates": [-2.6498, 47.6295]
      },
      "population": 8476,
      "surface": 5457.51,
      "radius": 4.17
    },
    {
      "nom": "Tréal",
      "code": "56253",
      "codesPostaux": ["56140"],
      "centre": {
        "type": "Point",
        "coordinates": [-2.2332, 47.83]
      },
      "mairie": {
        "type": "Point",
        "coordinates": [-2.2236, 47.8391]
      },
      "population": 679,
      "surface": 1920.77,
      "radius": 2.47
    },
    {
      "nom": "Trédion",
      "code": "56254",
      "codesPostaux": ["56250"],
      "centre": {
        "type": "Point",
        "coordinates": [-2.5857, 47.7812]
      },
      "mairie": {
        "type": "Point",
        "coordinates": [-2.5912, 47.7926]
      },
      "population": 1369,
      "surface": 2588.19,
      "radius": 2.87
    },
    {
      "nom": "Treffléan",
      "code": "56255",
      "codesPostaux": ["56250"],
      "centre": {
        "type": "Point",
        "coordinates": [-2.6263, 47.6771]
      },
      "mairie": {
        "type": "Point",
        "coordinates": [-2.6142, 47.6808]
      },
      "population": 2531,
      "surface": 1844.97,
      "radius": 2.42
    },
    {
      "nom": "Tréhorenteuc",
      "code": "56256",
      "codesPostaux": ["56430"],
      "centre": {
        "type": "Point",
        "coordinates": [-2.2957, 48.0059]
      },
      "mairie": {
        "type": "Point",
        "coordinates": [-2.2876, 48.0088]
      },
      "population": 112,
      "surface": 543.1,
      "radius": 1.31
    },
    {
      "nom": "Val d'Oust",
      "code": "56197",
      "codesPostaux": ["56460", "56800"],
      "centre": {
        "type": "Point",
        "coordinates": [-2.425, 47.8694]
      },
      "mairie": {
        "type": "Point",
        "coordinates": [-2.4488, 47.8641]
      },
      "population": 2808,
      "surface": 3195.42,
      "radius": 3.19
    },
    {
      "nom": "Vannes",
      "code": "56260",
      "codesPostaux": ["56000"],
      "centre": {
        "type": "Point",
        "coordinates": [-2.7485, 47.6577]
      },
      "mairie": {
        "type": "Point",
        "coordinates": [-2.7609, 47.6584]
      },
      "population": 54955,
      "surface": 3333.7,
      "radius": 3.26
    }
  ],
  "postalCodes": {
    "56000": {
      "communes": ["Vannes"],
      "communeCount": 1,
      "center": [-2.7609, 47.6584],
      "coverageRadius": 3.26,
      "totalPopulation": 54955,
      "totalSurface": 3334
    },
    "56100": {
      "communes": ["Lorient"],
      "communeCount": 1,
      "center": [-3.3661, 47.7483],
      "coverageRadius": 2.19,
      "totalPopulation": 58202,
      "totalSurface": 1500
    },
    "56110": {
      "communes": ["Gourin", "Roudouallec", "Le Saint"],
      "communeCount": 3,
      "center": [-3.6165, 48.1322],
      "coverageRadius": 7.8,
      "boundingBox": {
        "minLat": 48.0896,
        "maxLat": 48.14,
        "minLon": -3.7205,
        "maxLon": -3.5619
      },
      "totalPopulation": 5218,
      "totalSurface": 13136
    },
    "56120": {
      "communes": [
        "La Croix-Helléan",
        "La Grée-Saint-Laurent",
        "Guégon",
        "Helléan",
        "Josselin",
        "Forges de Lanouée",
        "Lantillac",
        "Pleugriffet",
        "Saint-Servant"
      ],
      "communeCount": 9,
      "center": [-2.567, 47.9637],
      "coverageRadius": 9.3,
      "boundingBox": {
        "minLat": 47.9154,
        "maxLat": 48.002,
        "minLon": -2.6853,
        "maxLon": -2.4743
      },
      "totalPopulation": 10993,
      "totalSurface": 25457
    },
    "56130": {
      "communes": ["Camoël", "Férel", "Marzan", "Nivillac", "Péaule", "La Roche-Bernard", "Saint-Dolay", "Théhillac"],
      "communeCount": 8,
      "center": [-2.295, 47.5314],
      "coverageRadius": 14,
      "boundingBox": {
        "minLat": 47.4808,
        "maxLat": 47.5788,
        "minLon": -2.3972,
        "maxLon": -2.1166
      },
      "totalPopulation": 18908,
      "totalSurface": 23669
    },
    "56140": {
      "communes": [
        "Bohal",
        "Caro",
        "Malestroit",
        "Missiriac",
        "Pleucadeuc",
        "Réminiac",
        "Ruffiac",
        "Saint-Abraham",
        "Saint-Congard",
        "Saint-Laurent-sur-Oust",
        "Saint-Marcel",
        "Tréal"
      ],
      "communeCount": 12,
      "center": [-2.3511, 47.8105],
      "coverageRadius": 10.1,
      "boundingBox": {
        "minLat": 47.7593,
        "maxLat": 47.8632,
        "minLon": -2.4377,
        "maxLon": -2.2236
      },
      "totalPopulation": 12944,
      "totalSurface": 21456
    },
    "56150": {
      "communes": ["Baud", "Guénin", "Saint-Barthélemy"],
      "communeCount": 3,
      "center": [-3.0157, 47.8875],
      "coverageRadius": 4.9,
      "boundingBox": {
        "minLat": 47.8741,
        "maxLat": 47.9266,
        "minLon": -3.0435,
        "maxLon": -2.9798
      },
      "totalPopulation": 9323,
      "totalSurface": 9978
    },
    "56160": {
      "communes": ["Guémené-sur-Scorff", "Langoëlan", "Lignol", "Locmalo", "Persquen", "Ploërdut", "Séglien"],
      "communeCount": 7,
      "center": [-3.2282, 48.0738],
      "coverageRadius": 6.4,
      "boundingBox": {
        "minLat": 48.0305,
        "maxLat": 48.1197,
        "minLon": -3.2882,
        "maxLon": -3.1595
      },
      "totalPopulation": 5562,
      "totalSurface": 22125
    },
    "56170": {
      "communes": ["Hœdic", "Île-d'Houat", "Quiberon"],
      "communeCount": 3,
      "center": [-3.1091, 47.4751],
      "coverageRadius": 23.1,
      "boundingBox": {
        "minLat": 47.3398,
        "maxLat": 47.4818,
        "minLon": -3.121,
        "maxLon": -2.8779
      },
      "totalPopulation": 5099,
      "totalSurface": 1461
    },
    "56190": {
      "communes": [
        "Ambon",
        "Arzal",
        "Billiers",
        "Le Guerno",
        "Lauzach",
        "Muzillac",
        "Noyal-Muzillac",
        "La Trinité-Surzur"
      ],
      "communeCount": 8,
      "center": [-2.4882, 47.5663],
      "coverageRadius": 10.1,
      "boundingBox": {
        "minLat": 47.5167,
        "maxLat": 47.6139,
        "minLon": -2.5916,
        "maxLon": -2.3763
      },
      "totalPopulation": 16422,
      "totalSurface": 17819
    },
    "56200": {
      "communes": ["Cournon", "Les Fougerêts", "La Gacilly", "Saint-Martin-sur-Oust"],
      "communeCount": 4,
      "center": [-2.1636, 47.7565],
      "coverageRadius": 6.9,
      "boundingBox": {
        "minLat": 47.7388,
        "maxLat": 47.7666,
        "minLon": -2.2534,
        "maxLon": -2.1046
      },
      "totalPopulation": 7081,
      "totalSurface": 9726
    },
    "56220": {
      "communes": [
        "Caden",
        "Limerzel",
        "Malansac",
        "Peillac",
        "Pluherlin",
        "Rochefort-en-Terre",
        "Saint-Gravé",
        "Saint-Jacut-les-Pins"
      ],
      "communeCount": 8,
      "center": [-2.2873, 47.6804],
      "coverageRadius": 7,
      "boundingBox": {
        "minLat": 47.6316,
        "maxLat": 47.7261,
        "minLon": -2.3622,
        "maxLon": -2.2152
      },
      "totalPopulation": 11662,
      "totalSurface": 19959
    },
    "56230": {
      "communes": ["Berric", "Le Cours", "Larré", "Molac", "Questembert"],
      "communeCount": 5,
      "center": [-2.4682, 47.6726],
      "coverageRadius": 8.1,
      "boundingBox": {
        "minLat": 47.6329,
        "maxLat": 47.7417,
        "minLon": -2.5256,
        "maxLon": -2.4355
      },
      "totalPopulation": 13611,
      "totalSurface": 14867
    },
    "56240": {
      "communes": ["Berné", "Calan", "Inguiniel", "Lanvaudan", "Plouay"],
      "communeCount": 5,
      "center": [-3.3264, 47.9322],
      "coverageRadius": 8.7,
      "boundingBox": {
        "minLat": 47.8749,
        "maxLat": 47.9954,
        "minLon": -3.3931,
        "maxLon": -3.2617
      },
      "totalPopulation": 11609,
      "totalSurface": 18413
    },
    "56250": {
      "communes": ["Elven", "Monterblanc", "Saint-Nolff", "Sulniac", "Trédion", "Treffléan", "La Vraie-Croix"],
      "communeCount": 7,
      "center": [-2.6103, 47.7141],
      "coverageRadius": 8.9,
      "boundingBox": {
        "minLat": 47.6754,
        "maxLat": 47.7926,
        "minLon": -2.6795,
        "maxLon": -2.5435
      },
      "totalPopulation": 23068,
      "totalSurface": 20503
    },
    "56260": {
      "communes": ["Larmor-Plage"],
      "communeCount": 1,
      "center": [-3.3835, 47.7061],
      "coverageRadius": 1.63,
      "totalPopulation": 8368,
      "totalSurface": 832
    },
    "56270": {
      "communes": ["Ploemeur"],
      "communeCount": 1,
      "center": [-3.4263, 47.7368],
      "coverageRadius": 3.56,
      "totalPopulation": 18873,
      "totalSurface": 3984
    },
    "56290": {
      "communes": ["Port-Louis"],
      "communeCount": 1,
      "center": [-3.356, 47.7085],
      "coverageRadius": 0.62,
      "totalPopulation": 2689,
      "totalSurface": 122
    },
    "56300": {
      "communes": ["Kergrist", "Malguénac", "Neulliac", "Pontivy", "Saint-Thuriau", "Le Sourn"],
      "communeCount": 6,
      "center": [-2.9759, 48.0666],
      "coverageRadius": 9,
      "boundingBox": {
        "minLat": 48.0162,
        "maxLat": 48.1459,
        "minLon": -3.0531,
        "maxLon": -2.9495
      },
      "totalPopulation": 22593,
      "totalSurface": 16208
    },
    "56310": {
      "communes": ["Bubry", "Guern", "Melrand", "Pluméliau-Bieuzy", "Quistinic"],
      "communeCount": 5,
      "center": [-3.0679, 47.9646],
      "coverageRadius": 8.3,
      "boundingBox": {
        "minLat": 47.9051,
        "maxLat": 48.0295,
        "minLon": -3.1726,
        "maxLon": -2.9728
      },
      "totalPopulation": 11158,
      "totalSurface": 28731
    },
    "56320": {
      "communes": ["Le Faouët", "Lanvénégen", "Meslan", "Priziac"],
      "communeCount": 4,
      "center": [-3.4729, 48.0217],
      "coverageRadius": 6.4,
      "boundingBox": {
        "minLat": 47.9938,
        "maxLat": 48.0604,
        "minLon": -3.5404,
        "maxLon": -3.411
      },
      "totalPopulation": 6448,
      "totalSurface": 14969
    },
    "56330": {
      "communes": ["Camors", "Pluvigner"],
      "communeCount": 2,
      "center": [-3.0068, 47.7974],
      "coverageRadius": 5.5,
      "boundingBox": {
        "minLat": 47.7773,
        "maxLat": 47.8458,
        "minLon": -3.0096,
        "maxLon": -3.0002
      },
      "totalPopulation": 10824,
      "totalSurface": 12017
    },
    "56340": {
      "communes": ["Carnac", "Plouharnel"],
      "communeCount": 2,
      "center": [-3.09, 47.5895],
      "coverageRadius": 2,
      "boundingBox": {
        "minLat": 47.5848,
        "maxLat": 47.5981,
        "minLon": -3.1125,
        "maxLon": -3.0778
      },
      "totalPopulation": 6487,
      "totalSurface": 5263
    },
    "56350": {
      "communes": [
        "Allaire",
        "Béganne",
        "Rieux",
        "Saint-Gorgon",
        "Saint-Jean-la-Poterie",
        "Saint-Perreux",
        "Saint-Vincent-sur-Oust"
      ],
      "communeCount": 7,
      "center": [-2.1507, 47.6348],
      "coverageRadius": 8,
      "boundingBox": {
        "minLat": 47.5957,
        "maxLat": 47.6999,
        "minLon": -2.2394,
        "maxLon": -2.1064
      },
      "totalPopulation": 12759,
      "totalSurface": 14181
    },
    "56360": {
      "communes": ["Bangor", "Locmaria", "Le Palais", "Sauzon"],
      "communeCount": 4,
      "center": [-3.1624, 47.3368],
      "coverageRadius": 7.7,
      "boundingBox": {
        "minLat": 47.294,
        "maxLat": 47.3713,
        "minLon": -3.2232,
        "maxLon": -3.0838
      },
      "totalPopulation": 5594,
      "totalSurface": 8635
    },
    "56370": {
      "communes": ["Sarzeau", "Le Tour-du-Parc"],
      "communeCount": 2,
      "center": [-2.7536, 47.5277],
      "coverageRadius": 8.2,
      "boundingBox": {
        "minLat": 47.5259,
        "maxLat": 47.5279,
        "minLon": -2.7686,
        "maxLon": -2.6452
      },
      "totalPopulation": 10327,
      "totalSurface": 6995
    },
    "56380": {
      "communes": ["Beignon", "Guer", "Monteneuf", "Porcaro", "Saint-Malo-de-Beignon"],
      "communeCount": 5,
      "center": [-2.1443, 47.9175],
      "coverageRadius": 7,
      "boundingBox": {
        "minLat": 47.8725,
        "maxLat": 47.97,
        "minLon": -2.2098,
        "maxLon": -2.12
      },
      "totalPopulation": 10047,
      "totalSurface": 12597
    },
    "56390": {
      "communes": ["Brandivy", "Colpo", "Grand-Champ", "Locmaria-Grand-Champ", "Locqueltas"],
      "communeCount": 5,
      "center": [-2.8294, 47.7699],
      "coverageRadius": 8.8,
      "boundingBox": {
        "minLat": 47.7574,
        "maxLat": 47.8179,
        "minLon": -2.9459,
        "maxLon": -2.7657
      },
      "totalPopulation": 13345,
      "totalSurface": 15368
    },
    "56400": {
      "communes": [
        "Auray",
        "Brech",
        "Ploemel",
        "Plougoumelen",
        "Plumergat",
        "Pluneret",
        "Le Bono",
        "Sainte-Anne-d'Auray"
      ],
      "communeCount": 8,
      "center": [-2.9738, 47.6828],
      "coverageRadius": 8.2,
      "boundingBox": {
        "minLat": 47.6404,
        "maxLat": 47.7411,
        "minLon": -3.0718,
        "maxLon": -2.9174
      },
      "totalPopulation": 43069,
      "totalSurface": 17490
    },