{
  "departmentCode": "77",
  "departmentName": "Seine-et-Marne",
  "stats": {
    "communeCount": 507,
    "totalPopulation": 1452399,
    "totalSurface": 592250
  },
  "communes": [
    {
      "nom": "Achères-la-Forêt",
      "code": "77001",
      "codesPostaux": ["77760"],
      "centre": {
        "type": "Point",
        "coordinates": [2.5653, 48.3476]
      },
      "mairie": {
        "type": "Point",
        "coordinates": [2.5648, 48.3483]
      },
      "population": 1183,
      "surface": 1261.02,
      "radius": 2
    },
    {
      "nom": "Amillis",
      "code": "77002",
      "codesPostaux": ["77120"],
      "centre": {
        "type": "Point",
        "coordinates": [3.14, 48.7327]
      },
      "mairie": {
        "type": "Point",
        "coordinates": [3.1284, 48.741]
      },
      "population": 821,
      "surface": 2013.71,
      "radius": 2.53
    },
    {
      "nom": "Amponville",
      "code": "77003",
      "codesPostaux": ["77760"],
      "centre": {
        "type": "Point",
        "coordinates": [2.5295, 48.2897]
      },
      "mairie": {
        "type": "Point",
        "coordinates": [2.5296, 48.2791]
      },
      "population": 351,
      "surface": 1193.01,
      "radius": 1.95
    },
    {
      "nom": "Andrezel",
      "code": "77004",
      "codesPostaux": ["77390"],
      "centre": {
        "type": "Point",
        "coordinates": [2.8051, 48.6139]
      },
      "mairie": {
        "type": "Point",
        "coordinates": [2.8127, 48.6115]
      },
      "population": 324,
      "surface": 807.61,
      "radius": 1.6
    },
    {
      "nom": "Annet-sur-Marne",
      "code": "77005",
      "codesPostaux": ["77410"],
      "centre": {
        "type": "Point",
        "coordinates": [2.7067, 48.9232]
      },
      "mairie": {
        "type": "Point",
        "coordinates": [2.7211, 48.9256]
      },
      "population": 3329,
      "surface": 1312.66,
      "radius": 2.04
    },
    {
      "nom": "Arbonne-la-Forêt",
      "code": "77006",
      "codesPostaux": ["77630"],
      "centre": {
        "type": "Point",
        "coordinates": [2.5561, 48.4064]
      },
      "mairie": {
        "type": "Point",
        "coordinates": [2.5653, 48.4139]
      },
      "population": 1007,
      "surface": 1503.03,
      "radius": 2.19
    },
    {
      "nom": "Argentières",
      "code": "77007",
      "codesPostaux": ["77390"],
      "centre": {
        "type": "Point",
        "coordinates": [2.8686, 48.6524]
      },
      "mairie": {
        "type": "Point",
        "coordinates": [2.8699, 48.6551]
      },
      "population": 352,
      "surface": 256.85,
      "radius": 0.9
    },
    {
      "nom": "Armentières-en-Brie",
      "code": "77008",
      "codesPostaux": ["77440"],
      "centre": {
        "type": "Point",
        "coordinates": [3.0124, 48.9773]
      },
      "mairie": {
        "type": "Point",
        "coordinates": [3.0217, 48.9778]
      },
      "population": 1196,
      "surface": 719.95,
      "radius": 1.51
    },
    {
      "nom": "Arville",
      "code": "77009",
      "codesPostaux": ["77890"],
      "centre": {
        "type": "Point",
        "coordinates": [2.5578, 48.1819]
      },
      "mairie": {
        "type": "Point",
        "coordinates": [2.548, 48.1882]
      },
      "population": 140,
      "surface": 1142.04,
      "radius": 1.91
    },
    {
      "nom": "Aubepierre-Ozouer-le-Repos",
      "code": "77010",
      "codesPostaux": ["77720"],
      "centre": {
        "type": "Point",
        "coordinates": [2.8951, 48.619]
      },
      "mairie": {
        "type": "Point",
        "coordinates": [2.8885, 48.6319]
      },
      "population": 965,
      "surface": 2680.63,
      "radius": 2.92
    },
    {
      "nom": "Aufferville",
      "code": "77011",
      "codesPostaux": ["77570"],
      "centre": {
        "type": "Point",
        "coordinates": [2.6022, 48.2028]
      },
      "mairie": {
        "type": "Point",
        "coordinates": [2.6093, 48.2146]
      },
      "population": 482,
      "surface": 1775.25,
      "radius": 2.38
    },
    {
      "nom": "Augers-en-Brie",
      "code": "77012",
      "codesPostaux": ["77560"],
      "centre": {
        "type": "Point",
        "coordinates": [3.354, 48.6668]
      },
      "mairie": {
        "type": "Point",
        "coordinates": [3.3556, 48.6793]
      },
      "population": 275,
      "surface": 1339.22,
      "radius": 2.06
    },
    {
      "nom": "Aulnoy",
      "code": "77013",
      "codesPostaux": ["77120"],
      "centre": {
        "type": "Point",
        "coordinates": [3.0887, 48.8488]
      },
      "mairie": {
        "type": "Point",
        "coordinates": [3.0951, 48.8407]
      },
      "population": 363,
      "surface": 1425.94,
      "radius": 2.13
    },
    {
      "nom": "Avon",
      "code": "77014",
      "codesPostaux": ["77210"],
      "centre": {
        "type": "Point",
        "coordinates": [2.7337, 48.4124]
      },
      "mairie": {
        "type": "Point",
        "coordinates": [2.7206, 48.4048]
      },
      "population": 13526,
      "surface": 380.89,
      "radius": 1.1
    },
    {
      "nom": "Baby",
      "code": "77015",
      "codesPostaux": ["77480"],
      "centre": {
        "type": "Point",
        "coordinates": [3.3462, 48.3925]
      },
      "mairie": {
        "type": "Point",
        "coordinates": [3.3426, 48.3959]
      },
      "population": 112,
      "surface": 411.01,
      "radius": 1.14
    },
    {
      "nom": "Bagneaux-sur-Loing",
      "code": "77016",
      "codesPostaux": ["77167"],
      "centre": {
        "type": "Point",
        "coordinates": [2.708, 48.2206]
      },
      "mairie": {
        "type": "Point",
        "coordinates": [2.7054, 48.231]
      },
      "population": 1582,
      "surface": 531.96,
      "radius": 1.3
    },
    {
      "nom": "Bailly-Romainvilliers",
      "code": "77018",
      "codesPostaux": ["77700"],
      "centre": {
        "type": "Point",
        "coordinates": [2.8191, 48.845]
      },
      "mairie": {
        "type": "Point",
        "coordinates": [2.8237, 48.8473]
      },
      "population": 7049,
      "surface": 851.82,
      "radius": 1.65
    },
    {
      "nom": "Balloy",
      "code": "77019",
      "codesPostaux": ["77118"],
      "centre": {
        "type": "Point",
        "coordinates": [3.1493, 48.3951]
      },
      "mairie": {
        "type": "Point",
        "coordinates": [3.1465, 48.3983]
      },
      "population": 351,
      "surface": 1338.84,
      "radius": 2.06
    },
    {
      "nom": "Bannost-Villegagnon",
      "code": "77020",
      "codesPostaux": ["77970"],
      "centre": {
        "type": "Point",
        "coordinates": [3.1952, 48.6762]
      },
      "mairie": {
        "type": "Point",
        "coordinates": [3.1921, 48.678]
      },
      "population": 658,
      "surface": 1945.84,
      "radius": 2.49
    },
    {
      "nom": "Barbey",
      "code": "77021",
      "codesPostaux": ["77130"],
      "centre": {
        "type": "Point",
        "coordinates": [3.0481, 48.3655]
      },
      "mairie": {
        "type": "Point",
        "coordinates": [3.0577, 48.3648]
      },
      "population": 151,
      "surface": 430.69,
      "radius": 1.17
    },
    {
      "nom": "Barbizon",
      "code": "77022",
      "codesPostaux": ["77630"],
      "centre": {
        "type": "Point",
        "coordinates": [2.6034, 48.4472]
      },
      "mairie": {
        "type": "Point",
        "coordinates": [2.6101, 48.4431]
      },
      "population": 1265,
      "surface": 535.05,
      "radius": 1.31
    },
    {
      "nom": "Barcy",
      "code": "77023",
      "codesPostaux": ["77910"],
      "centre": {
        "type": "Point",
        "coordinates": [2.8793, 49.0159]
      },
      "mairie": {
        "type": "Point",
        "coordinates": [2.8807, 49.0174]
      },
      "population": 375,
      "surface": 700.98,
      "radius": 1.49
    },
    {
      "nom": "Bassevelle",
      "code": "77024",
      "codesPostaux": ["77750"],
      "centre": {
        "type": "Point",
        "coordinates": [3.2766, 48.9244]
      },
      "mairie": {
        "type": "Point",
        "coordinates": [3.276, 48.9247]
      },
      "population": 385,
      "surface": 1748.82,
      "radius": 2.36
    },
    {
      "nom": "Bazoches-lès-Bray",
      "code": "77025",
      "codesPostaux": ["77118"],
      "centre": {
        "type": "Point",
        "coordinates": [3.1902, 48.3978]
      },
      "mairie": {
        "type": "Point",
        "coordinates": [3.1877, 48.3987]
      },
      "population": 889,
      "surface": 2264.86,
      "radius": 2.69
    },
    {
      "nom": "Beauchery-Saint-Martin",
      "code": "77026",
      "codesPostaux": ["77560"],
      "centre": {
        "type": "Point",
        "coordinates": [3.4218, 48.6005]
      },
      "mairie": {
        "type": "Point",
        "coordinates": [3.4035, 48.6155]
      },
      "population": 374,
      "surface": 2783.15,
      "radius": 2.98
    },
    {
      "nom": "Beaumont-du-Gâtinais",
      "code": "77027",
      "codesPostaux": ["77890"],
      "centre": {
        "type": "Point",
        "coordinates": [2.4896, 48.1435]
      },
      "mairie": {
        "type": "Point",
        "coordinates": [2.4779, 48.1375]
      },
      "population": 1136,
      "surface": 1658.1,
      "radius": 2.3
    },
    {
      "nom": "Beautheil-Saints",
      "code": "77433",
      "codesPostaux": ["77120"],
      "centre": {
        "type": "Point",
        "coordinates": [3.0728, 48.7617]
      },
      "mairie": {
        "type": "Point",
        "coordinates": [3.046, 48.7597]
      },
      "population": 2064,
      "surface": 3834.89,
      "radius": 3.49
    },
    {
      "nom": "Beauvoir",
      "code": "77029",
      "codesPostaux": ["77390"],
      "centre": {
        "type": "Point",
        "coordinates": [2.8669, 48.6432]
      },
      "mairie": {
        "type": "Point",
        "coordinates": [2.8627, 48.6449]
      },
      "population": 185,
      "surface": 395.61,
      "radius": 1.12
    },
    {
      "nom": "Bellot",
      "code": "77030",
      "codesPostaux": ["77510"],
      "centre": {
        "type": "Point",
        "coordinates": [3.3252, 48.8431]
      },
      "mairie": {
        "type": "Point",
        "coordinates": [3.3183, 48.8574]
      },
      "population": 776,
      "surface": 1633.78,
      "radius": 2.28
    },
    {
      "nom": "Bernay-Vilbert",
      "code": "77031",
      "codesPostaux": ["77540"],
      "centre": {
        "type": "Point",
        "coordinates": [2.9353, 48.6772]
      },
      "mairie": {
        "type": "Point",
        "coordinates": [2.9389, 48.6731]
      },
      "population": 991,
      "surface": 1687.62,
      "radius": 2.32
    },
    {
      "nom": "Beton-Bazoches",
      "code": "77032",
      "codesPostaux": ["77320"],
      "centre": {
        "type": "Point",
        "coordinates": [3.2489, 48.7059]
      },
      "mairie": {
        "type": "Point",
        "coordinates": [3.2458, 48.701]
      },
      "population": 912,
      "surface": 1816.46,
      "radius": 2.4
    },
    {
      "nom": "Bezalles",
      "code": "77033",
      "codesPostaux": ["77970"],
      "centre": {
        "type": "Point",
        "coordinates": [3.2392, 48.6674]
      },
      "mairie": {
        "type": "Point",
        "coordinates": [3.2423, 48.6781]
      },
      "population": 224,
      "surface": 265.05,
      "radius": 0.92
    },
    {
      "nom": "Blandy",
      "code": "77034",
      "codesPostaux": ["77115"],
      "centre": {
        "type": "Point",
        "coordinates": [2.796, 48.5614]
      },
      "mairie": {
        "type": "Point",
        "coordinates": [2.7823, 48.5667]
      },
      "population": 769,
      "surface": 1407.02,
      "radius": 2.12
    },
    {
      "nom": "Blennes",
      "code": "77035",
      "codesPostaux": ["77940"],
      "centre": {
        "type": "Point",
        "coordinates": [3.0135, 48.241]
      },
      "mairie": {
        "type": "Point",
        "coordinates": [3.0231, 48.2576]
      },
      "population": 546,
      "surface": 2024.92,
      "radius": 2.54
    },
    {
      "nom": "Bois-le-Roi",
      "code": "77037",
      "codesPostaux": ["77590"],
      "centre": {
        "type": "Point",
        "coordinates": [2.7091, 48.4735]
      },
      "mairie": {
        "type": "Point",
        "coordinates": [2.6941, 48.4764]
      },
      "population": 6026,
      "surface": 693.98,
      "radius": 1.49
    },
    {
      "nom": "Boisdon",
      "code": "77036",
      "codesPostaux": ["77970"],
      "centre": {
        "type": "Point",
        "coordinates": [3.2243, 48.6752]
      },
      "mairie": {
        "type": "Point",
        "coordinates": [3.2273, 48.6839]
      },
      "population": 135,
      "surface": 435.36,
      "radius": 1.18
    },
    {
      "nom": "Boissettes",
      "code": "77038",
      "codesPostaux": ["77350"],
      "centre": {
        "type": "Point",
        "coordinates": [2.6164, 48.5237]
      },
      "mairie": {
        "type": "Point",
        "coordinates": [2.6108, 48.5205]
      },
      "population": 432,
      "surface": 156.36,
      "radius": 0.71
    },
    {
      "nom": "Boissise-la-Bertrand",
      "code": "77039",
      "codesPostaux": ["77350"],
      "centre": {
        "type": "Point",
        "coordinates": [2.5896, 48.532]
      },
      "mairie": {
        "type": "Point",
        "coordinates": [2.5884, 48.5269]
      },
      "population": 1194,
      "surface": 777.65,
      "radius": 1.57
    },
    {
      "nom": "Boissise-le-Roi",
      "code": "77040",
      "codesPostaux": ["77310"],
      "centre": {
        "type": "Point",
        "coordinates": [2.5686, 48.514]
      },
      "mairie": {
        "type": "Point",
        "coordinates": [2.574, 48.5282]
      },
      "population": 3828,
      "surface": 712.8,
      "radius": 1.51
    },
    {
      "nom": "Boissy-aux-Cailles",
      "code": "77041",
      "codesPostaux": ["77760"],
      "centre": {
        "type": "Point",
        "coordinates": [2.4897, 48.3099]
      },
      "mairie": {
        "type": "Point",
        "coordinates": [2.5044, 48.3187]
      },
      "population": 274,
      "surface": 1637.33,
      "radius": 2.28
    },
    {
      "nom": "Boissy-le-Châtel",
      "code": "77042",
      "codesPostaux": ["77169"],
      "centre": {
        "type": "Point",
        "coordinates": [3.1379, 48.8247]
      },
      "mairie": {
        "type": "Point",
        "coordinates": [3.1361, 48.821]
      },
      "population": 3313,
      "surface": 994.23,
      "radius": 1.78
    },
    {
      "nom": "Boitron",
      "code": "77043",
      "codesPostaux": ["77750"],
      "centre": {
        "type": "Point",
        "coordinates": [3.2613, 48.8974]
      },
      "mairie": {
        "type": "Point",
        "coordinates": [3.2607, 48.8975]
      },
      "population": 326,
      "surface": 513.23,
      "radius": 1.28
    },
    {
      "nom": "Bombon",
      "code": "77044",
      "codesPostaux": ["77720"],
      "centre": {
        "type": "Point",
        "coordinates": [2.8734, 48.5686]
      },
      "mairie": {
        "type": "Point",
        "coordinates": [2.8586, 48.5725]
      },
      "population": 936,
      "surface": 1500.2,
      "radius": 2.19
    },
    {
      "nom": "Bougligny",
      "code": "77045",
      "codesPostaux": ["77570"],
      "centre": {
        "type": "Point",
        "coordinates": [2.6608, 48.1958]
      },
      "mairie": {
        "type": "Point",
        "coordinates": [2.6572, 48.1952]
      },
      "population": 730,
      "surface": 1636.85,
      "radius": 2.28
    },
    {
      "nom": "Boulancourt",
      "code": "77046",
      "codesPostaux": ["77760"],
      "centre": {
        "type": "Point",
        "coordinates": [2.4483, 48.2606]
      },
      "mairie": {
        "type": "Point",
        "coordinates": [2.4352, 48.2577]
      },
      "population": 341,
      "surface": 647.43,
      "radius": 1.44
    },
    {
      "nom": "Bouleurs",
      "code": "77047",
      "codesPostaux": ["77580"],
      "centre": {
        "type": "Point",
        "coordinates": [2.9102, 48.8816]
      },
      "mairie": {
        "type": "Point",
        "coordinates": [2.9064, 48.8814]
      },
      "population": 1731,
      "surface": 819.66,
      "radius": 1.62
    },
    {
      "nom": "Bourron-Marlotte",
      "code": "77048",
      "codesPostaux": ["77780"],
      "centre": {
        "type": "Point",
        "coordinates": [2.6982, 48.3366]
      },
      "mairie": {
        "type": "Point",
        "coordinates": [2.7087, 48.3408]
      },
      "population": 2782,
      "surface": 1124.99,
      "radius": 1.89
    },
    {
      "nom": "Boutigny",
      "code": "77049",
      "codesPostaux": ["77470"],
      "centre": {
        "type": "Point",
        "coordinates": [2.9326, 48.9144]
      },
      "mairie": {
        "type": "Point",
        "coordinates": [2.9284, 48.9196]
      },
      "population": 850,
      "surface": 985.53,
      "radius": 1.77
    },
    {
      "nom": "Bransles",
      "code": "77050",
      "codesPostaux": ["77620"],
      "centre": {
        "type": "Point",
        "coordinates": [2.8318, 48.1481]
      },
      "mairie": {
        "type": "Point",
        "coordinates": [2.835, 48.1521]
      },
      "population": 529,
      "surface": 1384.31,
      "radius": 2.1
    },
    {
      "nom": "Bray-sur-Seine",
      "code": "77051",
      "codesPostaux": ["77480"],
      "centre": {
        "type": "Point",
        "coordinates": [3.2457, 48.4157]
      },
      "mairie": {
        "type": "Point",
        "coordinates": [3.2396, 48.4151]
      },
      "population": 2378,
      "surface": 213.85,
      "radius": 0.83
    },
    {
      "nom": "Bréau",
      "code": "77052",
      "codesPostaux": ["77720"],
      "centre": {
        "type": "Point",
        "coordinates": [2.8805, 48.5571]
      },
      "mairie": {
        "type": "Point",
        "coordinates": [2.8779, 48.5614]
      },
      "population": 371,
      "surface": 135.1,
      "radius": 0.66
    },
    {
      "nom": "Brie-Comte-Robert",
      "code": "77053",
      "codesPostaux": ["77170"],
      "centre": {
        "type": "Point",
        "coordinates": [2.6131, 48.6904]
      },
      "mairie": {
        "type": "Point",
        "coordinates": [2.6107, 48.6945]
      },
      "population": 18999,
      "surface": 1993.9,
      "radius": 2.52
    },
    {
      "nom": "Brou-sur-Chantereine",
      "code": "77055",
      "codesPostaux": ["77177"],
      "centre": {
        "type": "Point",
        "coordinates": [2.6394, 48.8891]
      },
      "mairie": {
        "type": "Point",
        "coordinates": [2.6297, 48.8826]
      },
      "population": 5094,
      "surface": 437.29,
      "radius": 1.18
    },
    {
      "nom": "Burcy",
      "code": "77056",
      "codesPostaux": ["77760"],
      "centre": {
        "type": "Point",
        "coordinates": [2.5266, 48.2327]
      },
      "mairie": {
        "type": "Point",
        "coordinates": [2.5225, 48.2382]
      },
      "population": 148,
      "surface": 699.42,
      "radius": 1.49
    },
    {
      "nom": "Bussières",
      "code": "77057",
      "codesPostaux": ["77750"],
      "centre": {
        "type": "Point",
        "coordinates": [3.2346, 48.9286]
      },
      "mairie": {
        "type": "Point",
        "coordinates": [3.2366, 48.9226]
      },
      "population": 573,
      "surface": 835.32,
      "radius": 1.63
    },
    {
      "nom": "Bussy-Saint-Georges",
      "code": "77058",
      "codesPostaux": ["77600"],
      "centre": {
        "type": "Point",
        "coordinates": [2.7091, 48.8297]
      },
      "mairie": {
        "type": "Point",
        "coordinates": [2.6982, 48.8438]
      },
      "population": 26334,
      "surface": 1527.8,
      "radius": 2.21
    },
    {
      "nom": "Bussy-Saint-Martin",
      "code": "77059",
      "codesPostaux": ["77600"],
      "centre": {
        "type": "Point",
        "coordinates": [2.6783, 48.8463]
      },
      "mairie": {
        "type": "Point",
        "coordinates": [2.6895, 48.85]
      },
      "population": 728,
      "surface": 244.72,
      "radius": 0.88
    },
    {
      "nom": "Buthiers",
      "code": "77060",
      "codesPostaux": ["77760"],
      "centre": {
        "type": "Point",
        "coordinates": [2.4603, 48.2902]
      },
      "mairie": {
        "type": "Point",
        "coordinates": [2.4306, 48.2875]
      },
      "population": 771,
      "surface": 1959.73,
      "radius": 2.5
    },
    {
      "nom": "Cannes-Écluse",
      "code": "77061",
      "codesPostaux": ["77130"],
      "centre": {
        "type": "Point",
        "coordinates": [2.9888, 48.3608]
      },
      "mairie": {
        "type": "Point",
        "coordinates": [2.983, 48.3652]
      },
      "population": 2742,
      "surface": 861.99,
      "radius": 1.66
    },
    {
      "nom": "Carnetin",
      "code": "77062",
      "codesPostaux": ["77400"],
      "centre": {
        "type": "Point",
        "coordinates": [2.6997, 48.9041]
      },
      "mairie": {
        "type": "Point",
        "coordinates": [2.7061, 48.8994]
      },
      "population": 457,
      "surface": 160.18,
      "radius": 0.71
    },
    {
      "nom": "Cély",
      "code": "77065",
      "codesPostaux": ["77930"],
      "centre": {
        "type": "Point",
        "coordinates": [2.5237, 48.4601]
      },
      "mairie": {
        "type": "Point",
        "coordinates": [2.5303, 48.4595]
      },
      "population": 1256,
      "surface": 618.16,
      "radius": 1.4
    },
    {
      "nom": "Cerneux",
      "code": "77066",
      "codesPostaux": ["77320"],
      "centre": {
        "type": "Point",
        "coordinates": [3.3433, 48.711]
      },
      "mairie": {
        "type": "Point",
        "coordinates": [3.3447, 48.6935]
      },
      "population": 277,
      "surface": 2198.46,
      "radius": 2.65
    },
    {
      "nom": "Cesson",
      "code": "77067",
      "codesPostaux": ["77240"],
      "centre": {
        "type": "Point",
        "coordinates": [2.5898, 48.5693]
      },
      "mairie": {
        "type": "Point",
        "coordinates": [2.6026, 48.5627]
      },
      "population": 11141,
      "surface": 700.49,
      "radius": 1.49
    },
    {
      "nom": "Cessoy-en-Montois",
      "code": "77068",
      "codesPostaux": ["77520"],
      "centre": {
        "type": "Point",
        "coordinates": [3.1407, 48.5091]
      },
      "mairie": {
        "type": "Point",
        "coordinates": [3.1467, 48.5048]
      },
      "population": 213,
      "surface": 527.77,
      "radius": 1.3
    },
    {
      "nom": "Chailly-en-Bière",
      "code": "77069",
      "codesPostaux": ["77930"],
      "centre": {
        "type": "Point",
        "coordinates": [2.6117, 48.4723]
      },
      "mairie": {
        "type": "Point",
        "coordinates": [2.6074, 48.4657]
      },
      "population": 2172,
      "surface": 1311.17,
      "radius": 2.04
    },
    {
      "nom": "Chailly-en-Brie",
      "code": "77070",
      "codesPostaux": ["77120"],
      "centre": {
        "type": "Point",
        "coordinates": [3.1343, 48.7865]
      },
      "mairie": {
        "type": "Point",
        "coordinates": [3.1245, 48.7893]
      },
      "population": 1557,
      "surface": 1792.85,
      "radius": 2.39
    },
    {
      "nom": "Chaintreaux",
      "code": "77071",
      "codesPostaux": ["77460"],
      "centre": {
        "type": "Point",
        "coordinates": [2.8154, 48.1914]
      },
      "mairie": {
        "type": "Point",
        "coordinates": [2.8208, 48.1996]
      },
      "population": 831,
      "surface": 2383.38,
      "radius": 2.75
    },
    {
      "nom": "Chalautre-la-Grande",
      "code": "77072",
      "codesPostaux": ["77171"],
      "centre": {
        "type": "Point",
        "coordinates": [3.4482, 48.5505]
      },
      "mairie": {
        "type": "Point",
        "coordinates": [3.4596, 48.5418]
      },
      "population": 657,
      "surface": 1825.72,
      "radius": 2.41
    },
    {
      "nom": "Chalautre-la-Petite",
      "code": "77073",
      "codesPostaux": ["77160"],
      "centre": {
        "type": "Point",
        "coordinates": [3.3068, 48.5288]
      },
      "mairie": {
        "type": "Point",
        "coordinates": [3.3139, 48.529]
      },
      "population": 545,
      "surface": 937.17,
      "radius": 1.73
    },
    {
      "nom": "Chalifert",
      "code": "77075",
      "codesPostaux": ["77144"],
      "centre": {
        "type": "Point",
        "coordinates": [2.7737, 48.8959]
      },
      "mairie": {
        "type": "Point",
        "coordinates": [2.7729, 48.8873]
      },
      "population": 1581,
      "surface": 241.9,
      "radius": 0.88
    },
    {
      "nom": "Chalmaison",
      "code": "77076",
      "codesPostaux": ["77650"],
      "centre": {
        "type": "Point",
        "coordinates": [3.2568, 48.4904]
      },
      "mairie": {
        "type": "Point",
        "coordinates": [3.2506, 48.483]
      },
      "population": 758,
      "surface": 1005.73,
      "radius": 1.79
    },
    {
      "nom": "Chambry",
      "code": "77077",
      "codesPostaux": ["77910"],
      "centre": {
        "type": "Point",
        "coordinates": [2.886, 48.9991]
      },
      "mairie": {
        "type": "Point",
        "coordinates": [2.8924, 48.9976]
      },
      "population": 1051,
      "surface": 973.51,
      "radius": 1.76
    },
    {
      "nom": "Chamigny",
      "code": "77078",
      "codesPostaux": ["77260"],
      "centre": {
        "type": "Point",
        "coordinates": [3.1397, 48.987]
      },
      "mairie": {
        "type": "Point",
        "coordinates": [3.1508, 48.9739]
      },
      "population": 1431,
      "surface": 1421.19,
      "radius": 2.13
    },
    {
      "nom": "Champagne-sur-Seine",
      "code": "77079",
      "codesPostaux": ["77430"],
      "centre": {
        "type": "Point",
        "coordinates": [2.8101, 48.4072]
      },
      "mairie": {
        "type": "Point",
        "coordinates": [2.8048, 48.3948]
      },
      "population": 6491,
      "surface": 730.14,
      "radius": 1.52
    },
    {
      "nom": "Champcenest",
      "code": "77080",
      "codesPostaux": ["77560"],
      "centre": {
        "type": "Point",
        "coordinates": [3.2791, 48.6695]
      },
      "mairie": {
        "type": "Point",
        "coordinates": [3.2832, 48.6697]
      },
      "population": 197,
      "surface": 1271.69,
      "radius": 2.01
    },
    {
      "nom": "Champdeuil",
      "code": "77081",
      "codesPostaux": ["77390"],
      "centre": {
        "type": "Point",
        "coordinates": [2.7316, 48.6223]
      },
      "mairie": {
        "type": "Point",
        "coordinates": [2.7316, 48.6208]
      },
      "population": 735,
      "surface": 401.67,
      "radius": 1.13
    },
    {
      "nom": "Champeaux",
      "code": "77082",
      "codesPostaux": ["77720"],
      "centre": {
        "type": "Point",
        "coordinates": [2.8181, 48.5869]
      },
      "mairie": {
        "type": "Point",
        "coordinates": [2.8058, 48.5837]
      },
      "population": 814,
      "surface": 1307.37,
      "radius": 2.04
    },
    {
      "nom": "Champs-sur-Marne",
      "code": "77083",
      "codesPostaux": ["77420"],
      "centre": {
        "type": "Point",
        "coordinates": [2.594, 48.8485]
      },
      "mairie": {
        "type": "Point",
        "coordinates": [2.6027, 48.853]
      },
      "population": 26661,
      "surface": 768.03,
      "radius": 1.56
    },
    {
      "nom": "Changis-sur-Marne",
      "code": "77084",
      "codesPostaux": ["77660"],
      "centre": {
        "type": "Point",
        "coordinates": [3.0299, 48.9659]
      },
      "mairie": {
        "type": "Point",
        "coordinates": [3.0141, 48.9586]
      },
      "population": 1352,
      "surface": 700.07,
      "radius": 1.49
    },
    {
      "nom": "Chanteloup-en-Brie",
      "code": "77085",
      "codesPostaux": ["77600"],
      "centre": {
        "type": "Point",
        "coordinates": [2.7399, 48.8581]
      },
      "mairie": {
        "type": "Point",
        "coordinates": [2.7389, 48.8566]
      },
      "population": 4166,
      "surface": 318.21,
      "radius": 1.01
    },
    {
      "nom": "Charmentray",
      "code": "77094",
      "codesPostaux": ["77410"],
      "centre": {
        "type": "Point",
        "coordinates": [2.7775, 48.9513]
      },
      "mairie": {
        "type": "Point",
        "coordinates": [2.7766, 48.9461]
      },
      "population": 294,
      "surface": 467.74,
      "radius": 1.22
    },
    {
      "nom": "Charny",
      "code": "77095",
      "codesPostaux": ["77410"],
      "centre": {
        "type": "Point",
        "coordinates": [2.7559, 48.972]
      },
      "mairie": {
        "type": "Point",
        "coordinates": [2.7609, 48.971]
      },
      "population": 1584,
      "surface": 1253.67,
      "radius": 2
    },
    {
      "nom": "Chartrettes",
      "code": "77096",
      "codesPostaux": ["77590"],
      "centre": {
        "type": "Point",
        "coordinates": [2.7091, 48.4958]
      },
      "mairie": {
        "type": "Point",
        "coordinates": [2.7007, 48.4883]
      },
      "population": 2593,
      "surface": 1009.52,
      "radius": 1.79
    },
    {
      "nom": "Chartronges",
      "code": "77097",
      "codesPostaux": ["77320"],
      "centre": {
        "type": "Point",
        "coordinates": [3.2637, 48.7529]
      },
      "mairie": {
        "type": "Point",
        "coordinates": [3.2697, 48.7452]
      },
      "population": 302,
      "surface": 823.37,
      "radius": 1.62
    },
    {
      "nom": "Château-Landon",
      "code": "77099",
      "codesPostaux": ["77570"],
      "centre": {
        "type": "Point",
        "coordinates": [2.6976, 48.149]
      },
      "mairie": {
        "type": "Point",
        "coordinates": [2.7046, 48.1501]
      },
      "population": 3150,
      "surface": 2950.87,
      "radius": 3.06
    },
    {
      "nom": "Châteaubleau",
      "code": "77098",
      "codesPostaux": ["77370"],
      "centre": {
        "type": "Point",
        "coordinates": [3.108, 48.584]
      },
      "mairie": {
        "type": "Point",
        "coordinates": [3.1085, 48.5882]
      },
      "population": 363,
      "surface": 338.51,
      "radius": 1.04
    },
    {
      "nom": "Châtenay-sur-Seine",
      "code": "77101",
      "codesPostaux": ["77126"],
      "centre": {
        "type": "Point",
        "coordinates": [3.097, 48.4198]
      },
      "mairie": {
        "type": "Point",
        "coordinates": [3.0964, 48.4188]
      },
      "population": 1049,
      "surface": 1338.4,
      "radius": 2.06
    },
    {
      "nom": "Châtenoy",
      "code": "77102",
      "codesPostaux": ["77167"],
      "centre": {
        "type": "Point",
        "coordinates": [2.6274, 48.2311]
      },
      "mairie": {
        "type": "Point",
        "coordinates": [2.6253, 48.2335]
      },
      "population": 157,
      "surface": 496.5,
      "radius": 1.26
    },
    {
      "nom": "Châtillon-la-Borde",
      "code": "77103",
      "codesPostaux": ["77820"],
      "centre": {
        "type": "Point",
        "coordinates": [2.8225, 48.539]
      },
      "mairie": {
        "type": "Point",
        "coordinates": [2.8353, 48.5295]
      },
      "population": 224,
      "surface": 724.08,
      "radius": 1.52
    },
    {
      "nom": "Châtres",
      "code": "77104",
      "codesPostaux": ["77610"],
      "centre": {
        "type": "Point",
        "coordinates": [2.8166, 48.7066]
      },
      "mairie": {
        "type": "Point",
        "coordinates": [2.8091, 48.7113]
      },
      "population": 712,
      "surface": 1514.74,
      "radius": 2.2
    },
    {
      "nom": "Chauconin-Neufmontiers",
      "code": "77335",
      "codesPostaux": ["77124"],
      "centre": {
        "type": "Point",
        "coordinates": [2.8323, 48.97]
      },
      "mairie": {
        "type": "Point",
        "coordinates": [2.8383, 48.9736]
      },
      "population": 3726,
      "surface": 1736.67,
      "radius": 2.35
    },
    {
      "nom": "Chauffry",
      "code": "77106",
      "codesPostaux": ["77169"],
      "centre": {
        "type": "Point",
        "coordinates": [3.1822, 48.8231]
      },
      "mairie": {
        "type": "Point",
        "coordinates": [3.1851, 48.8182]
      },
      "population": 1004,
      "surface": 514.68,
      "radius": 1.28
    },
    {
      "nom": "Chaumes-en-Brie",
      "code": "77107",
      "codesPostaux": ["77390"],
      "centre": {
        "type": "Point",
        "coordinates": [2.8472, 48.6635]
      },
      "mairie": {
        "type": "Point",
        "coordinates": [2.8422, 48.6647]
      },
      "population": 3452,
      "surface": 2002.68,
      "radius": 2.52
    },
    {
      "nom": "Chelles",
      "code": "77108",
      "codesPostaux": ["77500"],
      "centre": {
        "type": "Point",
        "coordinates": [2.5954, 48.8845]
      },
      "mairie": {
        "type": "Point",
        "coordinates": [2.5901, 48.8779]
      },
      "population": 54372,
      "surface": 1599.8,
      "radius": 2.26
    },
    {
      "nom": "Chenoise-Cucharmoy",
      "code": "77109",
      "codesPostaux": ["77160"],
      "centre": {
        "type": "Point",
        "coordinates": [3.1809, 48.611]
      },
      "mairie": {
        "type": "Point",
        "coordinates": [3.1954, 48.6163]
      },
      "population": 1629,
      "surface": 4873.41,
      "radius": 3.94
    },
    {
      "nom": "Chenou",
      "code": "77110",
      "codesPostaux": ["77570"],
      "centre": {
        "type": "Point",
        "coordinates": [2.6525, 48.1648]
      },
      "mairie": {
        "type": "Point",
        "coordinates": [2.6585, 48.1653]
      },
      "population": 295,
      "surface": 1379.3,
      "radius": 2.1
    },
    {
      "nom": "Chessy",
      "code": "77111",
      "codesPostaux": ["77700"],
      "centre": {
        "type": "Point",
        "coordinates": [2.7697, 48.8718]
      },
      "mairie": {
        "type": "Point",
        "coordinates": [2.7658, 48.8795]
      },
      "population": 7242,
      "surface": 582.3,
      "radius": 1.36
    },
    {
      "nom": "Chevrainvilliers",
      "code": "77112",
      "codesPostaux": ["77760"],
      "centre": {
        "type": "Point",
        "coordinates": [2.603, 48.246]
      },
      "mairie": {
        "type": "Point",
        "coordinates": [2.614, 48.2446]
      },
      "population": 255,
      "surface": 894.72,
      "radius": 1.69
    },
    {
      "nom": "Chevru",
      "code": "77113",
      "codesPostaux": ["77320"],
      "centre": {
        "type": "Point",
        "coordinates": [3.1964, 48.7365]
      },
      "mairie": {
        "type": "Point",
        "coordinates": [3.1937, 48.7357]
      },
      "population": 1026,
      "surface": 1396.48,
      "radius": 2.11
    },
    {
      "nom": "Chevry-Cossigny",
      "code": "77114",
      "codesPostaux": ["77173"],
      "centre": {
        "type": "Point",
        "coordinates": [2.6747, 48.7209]
      },
      "mairie": {
        "type": "Point",
        "coordinates": [2.657, 48.7247]
      },
      "population": 4019,
      "surface": 1678.47,
      "radius": 2.31
    },
    {
      "nom": "Chevry-en-Sereine",
      "code": "77115",
      "codesPostaux": ["77710"],
      "centre": {
        "type": "Point",
        "coordinates": [2.964, 48.246]
      },
      "mairie": {
        "type": "Point",
        "coordinates": [2.9428, 48.2545]
      },
      "population": 504,
      "surface": 2285.82,
      "radius": 2.7
    },
    {
      "nom": "Choisy-en-Brie",
      "code": "77116",
      "codesPostaux": ["77320"],
      "centre": {
        "type": "Point",
        "coordinates": [3.2078, 48.7637]
      },
      "mairie": {
        "type": "Point",
        "coordinates": [3.2233, 48.7593]
      },
      "population": 1331,
      "surface": 2512.13,
      "radius": 2.83
    },
    {
      "nom": "Citry",
      "code": "77117",
      "codesPostaux": ["77730"],
      "centre": {
        "type": "Point",
        "coordinates": [3.2462, 48.961]
      },
      "mairie": {
        "type": "Point",
        "coordinates": [3.2376, 48.9697]
      },
      "population": 924,
      "surface": 505.16,
      "radius": 1.27
    },
    {
      "nom": "Claye-Souilly",
      "code": "77118",
      "codesPostaux": ["77410"],
      "centre": {
        "type": "Point",
        "coordinates": [2.68, 48.941]
      },
      "mairie": {
        "type": "Point",
        "coordinates": [2.6883, 48.9461]
      },
      "population": 12381,
      "surface": 1507.24,
      "radius": 2.19
    },
    {
      "nom": "Clos-Fontaine",
      "code": "77119",
      "codesPostaux": ["77370"],
      "centre": {
        "type": "Point",
        "coordinates": [3.0123, 48.6037]
      },
      "mairie": {
        "type": "Point",
        "coordinates": [3.017, 48.6083]
      },
      "population": 235,
      "surface": 597.32,
      "radius": 1.38
    },
    {
      "nom": "Cocherel",
      "code": "77120",
      "codesPostaux": ["77440"],
      "centre": {
        "type": "Point",
        "coordinates": [3.1074, 49.0182]
      },
      "mairie": {
        "type": "Point",
        "coordinates": [3.1008, 49.0213]
      },
      "population": 619,
      "surface": 829.34,
      "radius": 1.62
    },
    {
      "nom": "Collégien",
      "code": "77121",
      "codesPostaux": ["77090"],
      "centre": {
        "type": "Point",
        "coordinates": [2.6758, 48.8249]
      },
      "mairie": {
        "type": "Point",
        "coordinates": [2.6717, 48.8367]
      },
      "population": 3332,
      "surface": 338.33,
      "radius": 1.04
    },
    {
      "nom": "Combs-la-Ville",
      "code": "77122",
      "codesPostaux": ["77380"],
      "centre": {
        "type": "Point",
        "coordinates": [2.5765, 48.6602]
      },
      "mairie": {
        "type": "Point",
        "coordinates": [2.5651, 48.6649]
      },
      "population": 22712,
      "surface": 1452.18,
      "radius": 2.15
    },
    {
      "nom": "Compans",
      "code": "77123",
      "codesPostaux": ["77290"],
      "centre": {
        "type": "Point",
        "coordinates": [2.6502, 48.9907]
      },
      "mairie": {
        "type": "Point",
        "coordinates": [2.6623, 48.9939]
      },
      "population": 821,
      "surface": 529.9,
      "radius": 1.3
    },
    {
      "nom": "Conches-sur-Gondoire",
      "code": "77124",
      "codesPostaux": ["77600"],
      "centre": {
        "type": "Point",
        "coordinates": [2.7207, 48.8589]
      },
      "mairie": {
        "type": "Point",
        "coordinates": [2.7164, 48.8559]
      },
      "population": 1751,
      "surface": 151.41,
      "radius": 0.69
    },
    {
      "nom": "Condé-Sainte-Libiaire",
      "code": "77125",
      "codesPostaux": ["77450"],
      "centre": {
        "type": "Point",
        "coordinates": [2.8365, 48.8982]
      },
      "mairie": {
        "type": "Point",
        "coordinates": [2.8307, 48.8972]
      },
      "population": 1470,
      "surface": 212.22,
      "radius": 0.82
    },
    {
      "nom": "Congis-sur-Thérouanne",
      "code": "77126",
      "codesPostaux": ["77440"],
      "centre": {
        "type": "Point",
        "coordinates": [2.976, 49.0116]
      },
      "mairie": {
        "type": "Point",
        "coordinates": [2.974, 49.0072]
      },
      "population": 1776,
      "surface": 1520.9,
      "radius": 2.2
    },
    {
      "nom": "Coubert",
      "code": "77127",
      "codesPostaux": ["77170"],
      "centre": {
        "type": "Point",
        "coordinates": [2.7074, 48.6782]
      },
      "mairie": {
        "type": "Point",
        "coordinates": [2.6964, 48.6715]
      },
      "population": 1942,
      "surface": 838.83,
      "radius": 1.63
    },
    {
      "nom": "Couilly-Pont-aux-Dames",
      "code": "77128",
      "codesPostaux": ["77860"],
      "centre": {
        "type": "Point",
        "coordinates": [2.8634, 48.8817]
      },
      "mairie": {
        "type": "Point",
        "coordinates": [2.8599, 48.8839]
      },
      "population": 2131,
      "surface": 471.81,
      "radius": 1.23
    },
    {
      "nom": "Coulombs-en-Valois",
      "code": "77129",
      "codesPostaux": ["77840"],
      "centre": {
        "type": "Point",
        "coordinates": [3.126, 49.0754]
      },
      "mairie": {
        "type": "Point",
        "coordinates": [3.126, 49.0681]
      },
      "population": 579,
      "surface": 2250.72,
      "radius": 2.68
    },
    {
      "nom": "Coulommes",
      "code": "77130",
      "codesPostaux": ["77580"],
      "centre": {
        "type": "Point",
        "coordinates": [2.9251, 48.8908]
      },
      "mairie": {
        "type": "Point",
        "coordinates": [2.9321, 48.8913]
      },
      "population": 534,
      "surface": 366.22,
      "radius": 1.08
    },
    {
      "nom": "Coulommiers",
      "code": "77131",
      "codesPostaux": ["77120"],
      "centre": {
        "type": "Point",
        "coordinates": [3.0918, 48.8096]
      },
      "mairie": {
        "type": "Point",
        "coordinates": [3.0838, 48.8122]
      },
      "population": 15696,
      "surface": 1091.34,
      "radius": 1.86
    },
    {
      "nom": "Coupvray",
      "code": "77132",
      "codesPostaux": ["77700"],
      "centre": {
        "type": "Point",
        "coordinates": [2.7935, 48.8853]
      },
      "mairie": {
        "type": "Point",
        "coordinates": [2.7937, 48.8917]
      },
      "population": 3008,
      "surface": 809.01,
      "radius": 1.6
    },
    {
      "nom": "Courcelles-en-Bassée",
      "code": "77133",
      "codesPostaux": ["77126"],
      "centre": {
        "type": "Point",
        "coordinates": [3.0471, 48.4148]
      },
      "mairie": {
        "type": "Point",
        "coordinates": [3.0564, 48.41]
      },
      "population": 214,
      "surface": 1079.3,
      "radius": 1.85
    },
    {
      "nom": "Courchamp",
      "code": "77134",
      "codesPostaux": ["77560"],
      "centre": {
        "type": "Point",
        "coordinates": [3.289, 48.6427]
      },
      "mairie": {
        "type": "Point",
        "coordinates": [3.2886, 48.6354]
      },
      "population": 151,
      "surface": 1243.78,
      "radius": 1.99
    },
    {
      "nom": "Courpalay",
      "code": "77135",
      "codesPostaux": ["77540"],
      "centre": {
        "type": "Point",
        "coordinates": [2.955, 48.6456]
      },
      "mairie": {
        "type": "Point",
        "coordinates": [2.9603, 48.6484]
      },
      "population": 1497,
      "surface": 1473.54,
      "radius": 2.17
    },
    {
      "nom": "Courquetaine",
      "code": "77136",
      "codesPostaux": ["77390"],
      "centre": {
        "type": "Point",
        "coordinates": [2.7477, 48.6796]
      },
      "mairie": {
        "type": "Point",
        "coordinates": [2.7465, 48.6774]
      },
      "population": 187,
      "surface": 780.44,
      "radius": 1.58
    },
    {
      "nom": "Courtacon",
      "code": "77137",
      "codesPostaux": ["77560"],
      "centre": {
        "type": "Point",
        "coordinates": [3.291, 48.7058]
      },
      "mairie": {
        "type": "Point",
        "coordinates": [3.2904, 48.6949]
      },
      "population": 244,
      "surface": 1212.72,
      "radius": 1.96
    },
    {
      "nom": "Courtomer",
      "code": "77138",
      "codesPostaux": ["77390"],
      "centre": {
        "type": "Point",
        "coordinates": [2.8978, 48.6595]
      },
      "mairie": {
        "type": "Point",
        "coordinates": [2.9033, 48.6533]
      },
      "population": 568,
      "surface": 461.53,
      "radius": 1.21
    },
    {
      "nom": "Courtry",
      "code": "77139",
      "codesPostaux": ["77181"],
      "centre": {
        "type": "Point",
        "coordinates": [2.6029, 48.9169]
      },
      "mairie": {
        "type": "Point",
        "coordinates": [2.6049, 48.9183]
      },
      "population": 7107,
      "surface": 416.28,
      "radius": 1.15
    },
    {
      "nom": "Coutençon",
      "code": "77140",
      "codesPostaux": ["77154"],
      "centre": {
        "type": "Point",
        "coordinates": [2.997, 48.4719]
      },
      "mairie": {
        "type": "Point",
        "coordinates": [2.9953, 48.4714]
      },
      "population": 265,
      "surface": 627.91,
      "radius": 1.41
    },
    {
      "nom": "Coutevroult",
      "code": "77141",
      "codesPostaux": ["77580"],
      "centre": {
        "type": "Point",
        "coordinates": [2.8448, 48.8525]
      },
      "mairie": {
        "type": "Point",
        "coordinates": [2.854, 48.8623]
      },
      "population": 1191,
      "surface": 719.86,
      "radius": 1.51
    },
    {
      "nom": "Crécy-la-Chapelle",
      "code": "77142",
      "codesPostaux": ["77580"],
      "centre": {
        "type": "Point",
        "coordinates": [2.9246, 48.8583]
      },
      "mairie": {
        "type": "Point",
        "coordinates": [2.9086, 48.858]
      },
      "population": 4881,
      "surface": 1544.64,
      "radius": 2.22
    },
    {
      "nom": "Crégy-lès-Meaux",
      "code": "77143",
      "codesPostaux": ["77124"],
      "centre": {
        "type": "Point",
        "coordinates": [2.874, 48.9759]
      },
      "mairie": {
        "type": "Point",
        "coordinates": [2.8777, 48.9778]
      },
      "population": 5419,
      "surface": 365.61,
      "radius": 1.08
    },
    {
      "nom": "Crèvecœur-en-Brie",
      "code": "77144",
      "codesPostaux": ["77610"],
      "centre": {
        "type": "Point",
        "coordinates": [2.9143, 48.7578]
      },
      "mairie": {
        "type": "Point",
        "coordinates": [2.9078, 48.7548]
      },
      "population": 450,
      "surface": 922.71,
      "radius": 1.71
    },
    {
      "nom": "Crisenoy",
      "code": "77145",
      "codesPostaux": ["77390"],
      "centre": {
        "type": "Point",
        "coordinates": [2.7476, 48.6006]
      },
      "mairie": {
        "type": "Point",
        "coordinates": [2.7404, 48.5957]
      },
      "population": 595,
      "surface": 1289.27,
      "radius": 2.03
    },
    {
      "nom": "Croissy-Beaubourg",
      "code": "77146",
      "codesPostaux": ["77183"],
      "centre": {
        "type": "Point",
        "coordinates": [2.6575, 48.8164]
      },
      "mairie": {
        "type": "Point",
        "coordinates": [2.6594, 48.8279]
      },
      "population": 1969,
      "surface": 1086.82,
      "radius": 1.86
    },
    {
      "nom": "Crouy-sur-Ourcq",
      "code": "77148",
      "codesPostaux": ["77840"],
      "centre": {
        "type": "Point",
        "coordinates": [3.0812, 49.0853]
      },
      "mairie": {
        "type": "Point",
        "coordinates": [3.0745, 49.0908]
      },
      "population": 1806,
      "surface": 1939.79,
      "radius": 2.48
    },
    {
      "nom": "Cuisy",
      "code": "77150",
      "codesPostaux": ["77165"],
      "centre": {
        "type": "Point",
        "coordinates": [2.7804, 49.0203]
      },
      "mairie": {
        "type": "Point",
        "coordinates": [2.7716, 49.0208]
      },
      "population": 471,
      "surface": 334.95,
      "radius": 1.03
    },
    {
      "nom": "Dagny",
      "code": "77151",
      "codesPostaux": ["77320"],
      "centre": {
        "type": "Point",
        "coordinates": [3.1638, 48.7158]
      },
      "mairie": {
        "type": "Point",
        "coordinates": [3.1706, 48.7176]
      },
      "population": 293,
      "surface": 788.34,
      "radius": 1.58
    },
    {
      "nom": "Dammarie-les-Lys",
      "code": "77152",
      "codesPostaux": ["77190"],
      "centre": {
        "type": "Point",
        "coordinates": [2.6199, 48.5147]
      },
      "mairie": {
        "type": "Point",
        "coordinates": [2.6348, 48.5153]
      },
      "population": 23252,
      "surface": 1025.34,
      "radius": 1.81
    },
    {
      "nom": "Dammartin-en-Goële",
      "code": "77153",
      "codesPostaux": ["77230"],
      "centre": {
        "type": "Point",
        "coordinates": [2.6777, 49.0504]
      },
      "mairie": {
        "type": "Point",
        "coordinates": [2.6786, 49.0542]
      },
      "population": 11508,
      "surface": 896.16,
      "radius": 1.69
    },
    {
      "nom": "Dammartin-sur-Tigeaux",
      "code": "77154",
      "codesPostaux": ["77163"],
      "centre": {
        "type": "Point",
        "coordinates": [2.9016, 48.8086]
      },
      "mairie": {
        "type": "Point",
        "coordinates": [2.9227, 48.8158]
      },
      "population": 1268,
      "surface": 904.35,
      "radius": 1.7
    },
    {
      "nom": "Dampmart",
      "code": "77155",
      "codesPostaux": ["77400"],
      "centre": {
        "type": "Point",
        "coordinates": [2.7465, 48.8935]
      },
      "mairie": {
        "type": "Point",
        "coordinates": [2.7365, 48.8857]
      },
      "population": 3655,
      "surface": 595.39,
      "radius": 1.38
    },
    {
      "nom": "Darvault",
      "code": "77156",
      "codesPostaux": ["77140"],
      "centre": {
        "type": "Point",
        "coordinates": [2.722, 48.2757]
      },
      "mairie": {
        "type": "Point",
        "coordinates": [2.7348, 48.2709]
      },
      "population": 946,
      "surface": 782.14,
      "radius": 1.58
    },
    {
      "nom": "Dhuisy",
      "code": "77157",
      "codesPostaux": ["77440"],
      "centre": {
        "type": "Point",
        "coordinates": [3.1644, 49.0365]
      },
      "mairie": {
        "type": "Point",
        "coordinates": [3.1595, 49.04]
      },
      "population": 330,
      "surface": 813.99,
      "radius": 1.61
    },
    {
      "nom": "Diant",
      "code": "77158",
      "codesPostaux": ["77940"],
      "centre": {
        "type": "Point",
        "coordinates": [3.0055, 48.2914]
      },
      "mairie": {
        "type": "Point",
        "coordinates": [2.9933, 48.2816]
      },
      "population": 196,
      "surface": 1098.61,
      "radius": 1.87
    },
    {
      "nom": "Donnemarie-Dontilly",
      "code": "77159",
      "codesPostaux": ["77520"],
      "centre": {
        "type": "Point",
        "coordinates": [3.1206, 48.4816]
      },
      "mairie": {
        "type": "Point",
        "coordinates": [3.1325, 48.4786]
      },
      "population": 2726,
      "surface": 1207.82,
      "radius": 1.96
    },
    {
      "nom": "Dormelles",
      "code": "77161",
      "codesPostaux": ["77130"],
      "centre": {
        "type": "Point",
        "coordinates": [2.8906, 48.3115]
      },
      "mairie": {
        "type": "Point",
        "coordinates": [2.9028, 48.315]
      },
      "population": 803,
      "surface": 1299.75,
      "radius": 2.03
    },
    {
      "nom": "Doue",
      "code": "77162",
      "codesPostaux": ["77510"],
      "centre": {
        "type": "Point",
        "coordinates": [3.1682, 48.8713]
      },
      "mairie": {
        "type": "Point",
        "coordinates": [3.1637, 48.8654]
      },
      "population": 1119,
      "surface": 2002.55,
      "radius": 2.52
    },
    {
      "nom": "Douy-la-Ramée",
      "code": "77163",
      "codesPostaux": ["77139"],
      "centre": {
        "type": "Point",
        "coordinates": [2.8827, 49.0616]
      },
      "mairie": {
        "type": "Point",
        "coordinates": [2.882, 49.0672]
      },
      "population": 388,
      "surface": 794.81,
      "radius": 1.59
    },
    {
      "nom": "Échouboulains",
      "code": "77164",
      "codesPostaux": ["77830"],
      "centre": {
        "type": "Point",
        "coordinates": [2.9335, 48.4679]
      },
      "mairie": {
        "type": "Point",
        "coordinates": [2.9452, 48.4639]
      },
      "population": 557,
      "surface": 2088.1,
      "radius": 2.58
    },
    {
      "nom": "Égligny",
      "code": "77167",
      "codesPostaux": ["77126"],
      "centre": {
        "type": "Point",
        "coordinates": [3.1251, 48.4367]
      },
      "mairie": {
        "type": "Point",
        "coordinates": [3.1214, 48.4272]
      },
      "population": 313,
      "surface": 1663.2,
      "radius": 2.3
    },
    {
      "nom": "Égreville",
      "code": "77168",
      "codesPostaux": ["77620"],
      "centre": {
        "type": "Point",
        "coordinates": [2.887, 48.1857]
      },
      "mairie": {
        "type": "Point",
        "coordinates": [2.8719, 48.1751]
      },
      "population": 2164,
      "surface": 3170.27,
      "radius": 3.18
    },
    {
      "nom": "Émerainville",
      "code": "77169",
      "codesPostaux": ["77184"],
      "centre": {
        "type": "Point",
        "coordinates": [2.608, 48.8186]
      },
      "mairie": {
        "type": "Point",
        "coordinates": [2.6214, 48.8118]
      },
      "population": 7536,
      "surface": 536.19,
      "radius": 1.31
    },
    {
      "nom": "Esbly",
      "code": "77171",
      "codesPostaux": ["77450"],
      "centre": {
        "type": "Point",
        "coordinates": [2.8123, 48.9011]
      },
      "mairie": {
        "type": "Point",
        "coordinates": [2.8132, 48.901]
      },
      "population": 6237,
      "surface": 310.96,
      "radius": 0.99
    },
    {
      "nom": "Esmans",
      "code": "77172",
      "codesPostaux": ["77940"],
      "centre": {
        "type": "Point",
        "coordinates": [2.9711, 48.3416]
      },
      "mairie": {
        "type": "Point",
        "coordinates": [2.9758, 48.348]
      },
      "population": 904,
      "surface": 1783.36,
      "radius": 2.38
    },
    {
      "nom": "Étrépilly",
      "code": "77173",
      "codesPostaux": ["77139"],
      "centre": {
        "type": "Point",
        "coordinates": [2.9279, 49.0489]
      },
      "mairie": {
        "type": "Point",
        "coordinates": [2.9303, 49.0341]
      },
      "population": 813,
      "surface": 1322.67,
      "radius": 2.05
    },
    {
      "nom": "Everly",
      "code": "77174",
      "codesPostaux": ["77157"],
      "centre": {
        "type": "Point",
        "coordinates": [3.2643, 48.4599]
      },
      "mairie": {
        "type": "Point",
        "coordinates": [3.2522, 48.4672]
      },
      "population": 570,
      "surface": 877.16,
      "radius": 1.67
    },
    {
      "nom": "Évry-Grégy-sur-Yerre",
      "code": "77175",
      "codesPostaux": ["77166"],
      "centre": {
        "type": "Point",
        "coordinates": [2.641, 48.6531]
      },
      "mairie": {
        "type": "Point",
        "coordinates": [2.6318, 48.653]
      },
      "population": 3236,
      "surface": 1908.35,
      "radius": 2.46
    },
    {
      "nom": "Faremoutiers",
      "code": "77176",
      "codesPostaux": ["77515"],
      "centre": {
        "type": "Point",
        "coordinates": [3.0038, 48.7787]
      },
      "mairie": {
        "type": "Point",
        "coordinates": [2.9977, 48.8009]
      },
      "population": 3035,
      "surface": 1089.36,
      "radius": 1.86
    },
    {
      "nom": "Favières",
      "code": "77177",
      "codesPostaux": ["77220"],
      "centre": {
        "type": "Point",
        "coordinates": [2.7702, 48.782]
      },
      "mairie": {
        "type": "Point",
        "coordinates": [2.7745, 48.7625]
      },
      "population": 1293,
      "surface": 2833.68,
      "radius": 3
    },
    {
      "nom": "Faÿ-lès-Nemours",
      "code": "77178",
      "codesPostaux": ["77167"],
      "centre": {
        "type": "Point",
        "coordinates": [2.6646, 48.2265]
      },
      "mairie": {
        "type": "Point",
        "coordinates": [2.6739, 48.2309]
      },
      "population": 498,
      "surface": 782.39,
      "radius": 1.58
    },
    {
      "nom": "Féricy",
      "code": "77179",
      "codesPostaux": ["77133"],
      "centre": {
        "type": "Point",
        "coordinates": [2.8024, 48.4645]
      },
      "mairie": {
        "type": "Point",
        "coordinates": [2.7994, 48.4594]
      },
      "population": 613,
      "surface": 930.74,
      "radius": 1.72
    },
    {
      "nom": "Férolles-Attilly",
      "code": "77180",
      "codesPostaux": ["77150"],
      "centre": {
        "type": "Point",
        "coordinates": [2.6413, 48.7342]
      },
      "mairie": {
        "type": "Point",
        "coordinates": [2.6287, 48.7321]
      },
      "population": 1251,
      "surface": 1276.61,
      "radius": 2.02
    },
    {
      "nom": "Ferrières-en-Brie",
      "code": "77181",
      "codesPostaux": ["77164"],
      "centre": {
        "type": "Point",
        "coordinates": [2.7046, 48.818]
      },
      "mairie": {
        "type": "Point",
        "coordinates": [2.7047, 48.8212]
      },
      "population": 3887,
      "surface": 615.66,
      "radius": 1.4
    },
    {
      "nom": "Flagy",
      "code": "77184",
      "codesPostaux": ["77940"],
      "centre": {
        "type": "Point",
        "coordinates": [2.9172, 48.3083]
      },
      "mairie": {
        "type": "Point",
        "coordinates": [2.9216, 48.3126]
      },
      "population": 594,
      "surface": 718.34,
      "radius": 1.51
    },
    {
      "nom": "Fleury-en-Bière",
      "code": "77185",
      "codesPostaux": ["77930"],
      "centre": {
        "type": "Point",
        "coordinates": [2.5401, 48.4473]
      },
      "mairie": {
        "type": "Point",
        "coordinates": [2.5493, 48.4483]
      },
      "population": 683,
      "surface": 1395.41,
      "radius": 2.11
    },
    {
      "nom": "Fontaine-Fourches",
      "code": "77187",
      "codesPostaux": ["77480"],
      "centre": {
        "type": "Point",
        "coordinates": [3.3947, 48.4122]
      },
      "mairie": {
        "type": "Point",
        "coordinates": [3.3948, 48.4125]
      },
      "population": 578,
      "surface": 1198.95,
      "radius": 1.95
    },
    {
      "nom": "Fontaine-le-Port",
      "code": "77188",
      "codesPostaux": ["77590"],
      "centre": {
        "type": "Point",
        "coordinates": [2.7653, 48.4796]
      },
      "mairie": {
        "type": "Point",
        "coordinates": [2.7572, 48.4869]
      },
      "population": 1014,
      "surface": 790.7,
      "radius": 1.59
    },
    {
      "nom": "Fontainebleau",
      "code": "77186",
      "codesPostaux": ["77300"],
      "centre": {
        "type": "Point",
        "coordinates": [2.6817, 48.4236]
      },
      "mairie": {
        "type": "Point",
        "coordinates": [2.7016, 48.4047]
      },
      "population": 15787,
      "surface": 17228.98,
      "radius": 7.41
    },
    {
      "nom": "Fontains",
      "code": "77190",
      "codesPostaux": ["77370"],
      "centre": {
        "type": "Point",
        "coordinates": [3.0088, 48.5206]
      },
      "mairie": {
        "type": "Point",
        "coordinates": [3.0022, 48.5271]
      },
      "population": 261,
      "surface": 1435.64,
      "radius": 2.14
    },
    {
      "nom": "Fontenailles",
      "code": "77191",
      "codesPostaux": ["77370"],
      "centre": {
        "type": "Point",
        "coordinates": [2.9252, 48.5294]
      },
      "mairie": {
        "type": "Point",
        "coordinates": [2.9541, 48.5556]
      },
      "population": 1090,
      "surface": 2739.72,
      "radius": 2.95
    },
    {
      "nom": "Fontenay-Trésigny",
      "code": "77192",
      "codesPostaux": ["77610"],
      "centre": {
        "type": "Point",
        "coordinates": [2.8667, 48.6989]
      },
      "mairie": {
        "type": "Point",
        "coordinates": [2.8664, 48.7069]
      },
      "population": 5887,
      "surface": 2215.91,
      "radius": 2.66
    },
    {
      "nom": "Forfry",
      "code": "77193",
      "codesPostaux": ["77165"],
      "centre": {
        "type": "Point",
        "coordinates": [2.8518, 49.0539]
      },
      "mairie": {
        "type": "Point",
        "coordinates": [2.848, 49.0578]
      },
      "population": 240,
      "surface": 581.18,
      "radius": 1.36
    },
    {
      "nom": "Forges",
      "code": "77194",
      "codesPostaux": ["77130"],
      "centre": {
        "type": "Point",
        "coordinates": [2.9483, 48.4223]
      },
      "mairie": {
        "type": "Point",
        "coordinates": [2.9612, 48.4194]
      },
      "population": 432,
      "surface": 1332.74,
      "radius": 2.06
    },
    {
      "nom": "Fouju",
      "code": "77195",
      "codesPostaux": ["77390"],
      "centre": {
        "type": "Point",
        "coordinates": [2.7628, 48.5878]
      },
      "mairie": {
        "type": "Point",
        "coordinates": [2.7775, 48.5857]
      },
      "population": 631,
      "surface": 778.52,
      "radius": 1.57
    },
    {
      "nom": "Fresnes-sur-Marne",
      "code": "77196",
      "codesPostaux": ["77410"],
      "centre": {
        "type": "Point",
        "coordinates": [2.7369, 48.9405]
      },
      "mairie": {
        "type": "Point",
        "coordinates": [2.7408, 48.9375]
      },
      "population": 947,
      "surface": 748.15,
      "radius": 1.54
    },
    {
      "nom": "Frétoy",
      "code": "77197",
      "codesPostaux": ["77320"],
      "centre": {
        "type": "Point",
        "coordinates": [3.1991, 48.7065]
      },
      "mairie": {
        "type": "Point",
        "coordinates": [3.1975, 48.7044]
      },
      "population": 173,
      "surface": 656.13,
      "radius": 1.45
    },
    {
      "nom": "Fromont",
      "code": "77198",
      "codesPostaux": ["77760"],
      "centre": {
        "type": "Point",
        "coordinates": [2.5056, 48.255]
      },
      "mairie": {
        "type": "Point",
        "coordinates": [2.504, 48.2555]
      },
      "population": 230,
      "surface": 1066.73,
      "radius": 1.84
    },
    {
      "nom": "Fublaines",
      "code": "77199",
      "codesPostaux": ["77470"],
      "centre": {
        "type": "Point",
        "coordinates": [2.9433, 48.9385]
      },
      "mairie": {
        "type": "Point",
        "coordinates": [2.9374, 48.9376]
      },
      "population": 1381,
      "surface": 547.51,
      "radius": 1.32
    },
    {
      "nom": "Garentreville",
      "code": "77200",
      "codesPostaux": ["77890"],
      "centre": {
        "type": "Point",
        "coordinates": [2.5581, 48.2343]
      },
      "mairie": {
        "type": "Point",
        "coordinates": [2.5498, 48.2353]
      },
      "population": 123,
      "surface": 639.72,
      "radius": 1.43
    },
    {
      "nom": "Gastins",
      "code": "77201",
      "codesPostaux": ["77370"],
      "centre": {
        "type": "Point",
        "coordinates": [3.0219, 48.6269]
      },
      "mairie": {
        "type": "Point",
        "coordinates": [3.0199, 48.6279]
      },
      "population": 722,
      "surface": 1493.56,
      "radius": 2.18
    },
    {
      "nom": "Germigny-l'Évêque",
      "code": "77203",
      "codesPostaux": ["77910"],
      "centre": {
        "type": "Point",
        "coordinates": [2.9577, 48.9888]
      },
      "mairie": {
        "type": "Point",
        "coordinates": [2.9456, 48.9935]
      },
      "population": 1350,
      "surface": 1173.34,
      "radius": 1.93
    },
    {
      "nom": "Germigny-sous-Coulombs",
      "code": "77204",
      "codesPostaux": ["77840"],
      "centre": {
        "type": "Point",
        "coordinates": [3.1627, 49.0638]
      },
      "mairie": {
        "type": "Point",
        "coordinates": [3.1576, 49.0642]
      },
      "population": 203,
      "surface": 654.03,
      "radius": 1.44
    },
    {
      "nom": "Gesvres-le-Chapitre",
      "code": "77205",
      "codesPostaux": ["77165"],
      "centre": {
        "type": "Point",
        "coordinates": [2.8439, 49.0342]
      },
      "mairie": {
        "type": "Point",
        "coordinates": [2.851, 49.0441]
      },
      "population": 146,
      "surface": 423.32,
      "radius": 1.16
    },
    {
      "nom": "Giremoutiers",
      "code": "77206",
      "codesPostaux": ["77120"],
      "centre": {
        "type": "Point",
        "coordinates": [3.0311, 48.8554]
      },
      "mairie": {
        "type": "Point",
        "coordinates": [3.029, 48.8429]
      },
      "population": 186,
      "surface": 600.06,
      "radius": 1.38
    },
    {
      "nom": "Gironville",
      "code": "77207",
      "codesPostaux": ["77890"],
      "centre": {
        "type": "Point",
        "coordinates": [2.5383, 48.1671]
      },
      "mairie": {
        "type": "Point",
        "coordinates": [2.5286, 48.186]
      },
      "population": 161,
      "surface": 1374.09,
      "radius": 2.09
    },
    {
      "nom": "Gouaix",
      "code": "77208",
      "codesPostaux": ["77114"],
      "centre": {
        "type": "Point",
        "coordinates": [3.2972, 48.4758]
      },
      "mairie": {
        "type": "Point",
        "coordinates": [3.2933, 48.48]
      },
      "population": 1320,
      "surface": 1410.21,
      "radius": 2.12
    },
    {
      "nom": "Gouvernes",
      "code": "77209",
      "codesPostaux": ["77400"],
      "centre": {
        "type": "Point",
        "coordinates": [2.6933, 48.8578]
      },
      "mairie": {
        "type": "Point",
        "coordinates": [2.6952, 48.8613]
      },
      "population": 1175,
      "surface": 276.24,
      "radius": 0.94
    },
    {
      "nom": "Grandpuits-Bailly-Carrois",
      "code": "77211",
      "codesPostaux": ["77720"],
      "centre": {
        "type": "Point",
        "coordinates": [2.9782, 48.58]
      },
      "mairie": {
        "type": "Point",
        "coordinates": [2.967, 48.5845]
      },
      "population": 1014,
      "surface": 2445.49,
      "radius": 2.79
    },
    {
      "nom": "Gravon",
      "code": "77212",
      "codesPostaux": ["77118"],
      "centre": {
        "type": "Point",
        "coordinates": [3.1225, 48.3881]
      },
      "mairie": {
        "type": "Point",
        "coordinates": [3.1199, 48.3992]
      },
      "population": 158,
      "surface": 759.16,
      "radius": 1.55
    },
    {
      "nom": "Gressy",
      "code": "77214",
      "codesPostaux": ["77410"],
      "centre": {
        "type": "Point",
        "coordinates": [2.6637, 48.966]
      },
      "mairie": {
        "type": "Point",
        "coordinates": [2.6747, 48.9641]
      },
      "population": 803,
      "surface": 334.43,
      "radius": 1.03
    },
    {
      "nom": "Gretz-Armainvilliers",
      "code": "77215",
      "codesPostaux": ["77220"],
      "centre": {
        "type": "Point",
        "coordinates": [2.7272, 48.7536]
      },
      "mairie": {
        "type": "Point",
        "coordinates": [2.7358, 48.741]
      },
      "population": 8682,
      "surface": 1354.37,
      "radius": 2.08
    },
    {
      "nom": "Grez-sur-Loing",
      "code": "77216",
      "codesPostaux": ["77880"],
      "centre": {
        "type": "Point",
        "coordinates": [2.6842, 48.3078]
      },
      "mairie": {
        "type": "Point",
        "coordinates": [2.6905, 48.3152]
      },
      "population": 1457,
      "surface": 1305.57,
      "radius": 2.04
    },
    {
      "nom": "Grisy-Suisnes",
      "code": "77217",
      "codesPostaux": ["77166"],
      "centre": {
        "type": "Point",
        "coordinates": [2.6801, 48.68]
      },
      "mairie": {
        "type": "Point",
        "coordinates": [2.666, 48.6851]
      },
      "population": 2848,
      "surface": 1827.15,
      "radius": 2.41
    },
    {
      "nom": "Grisy-sur-Seine",
      "code": "77218",
      "codesPostaux": ["77480"],
      "centre": {
        "type": "Point",
        "coordinates": [3.3191, 48.4413]
      },
      "mairie": {
        "type": "Point",
        "coordinates": [3.3177, 48.4373]
      },
      "population": 115,
      "surface": 656.77,
      "radius": 1.45
    },
    {
      "nom": "Guérard",
      "code": "77219",
      "codesPostaux": ["77580"],
      "centre": {
        "type": "Point",
        "coordinates": [2.9533, 48.8128]
      },
      "mairie": {
        "type": "Point",
        "coordinates": [2.9583, 48.824]
      },
      "population": 2669,
      "surface": 1977.41,
      "radius": 2.51
    },
    {
      "nom": "Guercheville",
      "code": "77220",
      "codesPostaux": ["77760"],
      "centre": {
        "type": "Point",
        "coordinates": [2.5569, 48.262]
      },
      "mairie": {
        "type": "Point",
        "coordinates": [2.5602, 48.2617]
      },
      "population": 272,
      "surface": 921.07,
      "radius": 1.71
    },
    {
      "nom": "Guermantes",
      "code": "77221",
      "codesPostaux": ["77600"],
      "centre": {
        "type": "Point",
        "coordinates": [2.7141, 48.8519]
      },
      "mairie": {
        "type": "Point",
        "coordinates": [2.706, 48.8544]
      },
      "population": 1151,
      "surface": 125.98,
      "radius": 0.63
    },
    {
      "nom": "Guignes",
      "code": "77222",
      "codesPostaux": ["77390"],
      "centre": {
        "type": "Point",
        "coordinates": [2.8024, 48.6364]
      },
      "mairie": {
        "type": "Point",
        "coordinates": [2.7979, 48.6372]
      },
      "population": 4434,
      "surface": 571.3,
      "radius": 1.35
    },
    {
      "nom": "Gurcy-le-Châtel",
      "code": "77223",
      "codesPostaux": ["77520"],
      "centre": {
        "type": "Point",
        "coordinates": [3.0824, 48.4869]
      },
      "mairie": {
        "type": "Point",
        "coordinates": [3.0867, 48.4712]
      },
      "population": 563,
      "surface": 1270.04,
      "radius": 2.01
    },
    {
      "nom": "Hautefeuille",
      "code": "77224",
      "codesPostaux": ["77515"],
      "centre": {
        "type": "Point",
        "coordinates": [2.9638, 48.7663]
      },
      "mairie": {
        "type": "Point",
        "coordinates": [2.9671, 48.7662]
      },
      "population": 254,
      "surface": 979.81,
      "radius": 1.77
    },
    {
      "nom": "Héricy",
      "code": "77226",
      "codesPostaux": ["77850"],
      "centre": {
        "type": "Point",
        "coordinates": [2.7859, 48.4439]
      },
      "mairie": {
        "type": "Point",
        "coordinates": [2.764, 48.4494]
      },
      "population": 2511,
      "surface": 1071.73,
      "radius": 1.85
    },
    {
      "nom": "Hermé",
      "code": "77227",
      "codesPostaux": ["77114"],
      "centre": {
        "type": "Point",
        "coordinates": [3.3475, 48.4881]
      },
      "mairie": {
        "type": "Point",
        "coordinates": [3.3495, 48.4837]
      },
      "population": 634,
      "surface": 1595.45,
      "radius": 2.25
    },
    {
      "nom": "Hondevilliers",
      "code": "77228",
      "codesPostaux": ["77510"],
      "centre": {
        "type": "Point",
        "coordinates": [3.3114, 48.905]
      },
      "mairie": {
        "type": "Point",
        "coordinates": [3.308, 48.9009]
      },
      "population": 260,
      "surface": 552.22,
      "radius": 1.33
    },
    {
      "nom": "Ichy",
      "code": "77230",
      "codesPostaux": ["77890"],
      "centre": {
        "type": "Point",
        "coordinates": [2.544, 48.2079]
      },
      "mairie": {
        "type": "Point",
        "coordinates": [2.546, 48.2039]
      },
      "population": 158,
      "surface": 776.33,
      "radius": 1.57
    },
    {
      "nom": "Isles-les-Meldeuses",
      "code": "77231",
      "codesPostaux": ["77440"],
      "centre": {
        "type": "Point",
        "coordinates": [3.0108, 48.998]
      },
      "mairie": {
        "type": "Point",
        "coordinates": [3.0063, 48.9983]
      },
      "population": 780,
      "surface": 685.38,
      "radius": 1.48
    },
    {
      "nom": "Isles-lès-Villenoy",
      "code": "77232",
      "codesPostaux": ["77450"],
      "centre": {
        "type": "Point",
        "coordinates": [2.8285, 48.9167]
      },
      "mairie": {
        "type": "Point",
        "coordinates": [2.8267, 48.9112]
      },
      "population": 1136,
      "surface": 700.11,
      "radius": 1.49
    },
    {
      "nom": "Iverny",
      "code": "77233",
      "codesPostaux": ["77165"],
      "centre": {
        "type": "Point",
        "coordinates": [2.7922, 48.9974]
      },
      "mairie": {
        "type": "Point",
        "coordinates": [2.7872, 48.9987]
      },
      "population": 610,
      "surface": 175.33,
      "radius": 0.75
    },
    {
      "nom": "Jablines",
      "code": "77234",
      "codesPostaux": ["77450"],
      "centre": {
        "type": "Point",
        "coordinates": [2.7606, 48.9157]
      },
      "mairie": {
        "type": "Point",
        "coordinates": [2.7621, 48.9185]
      },
      "population": 665,
      "surface": 807.58,
      "radius": 1.6
    },
    {
      "nom": "Jaignes",
      "code": "77235",
      "codesPostaux": ["77440"],
      "centre": {
        "type": "Point",
        "coordinates": [3.0799, 48.983]
      },
      "mairie": {
        "type": "Point",
        "coordinates": [3.0549, 48.9912]
      },
      "population": 320,
      "surface": 1014.53,
      "radius": 1.8
    },
    {
      "nom": "Jaulnes",
      "code": "77236",
      "codesPostaux": ["77480"],
      "centre": {
        "type": "Point",
        "coordinates": [3.273, 48.4143]
      },
      "mairie": {
        "type": "Point",
        "coordinates": [3.2711, 48.4179]
      },
      "population": 346,
      "surface": 1585.53,
      "radius": 2.25
    },
    {
      "nom": "Jossigny",
      "code": "77237",
      "codesPostaux": ["77600"],
      "centre": {
        "type": "Point",
        "coordinates": [2.7641, 48.8289]
      },
      "mairie": {
        "type": "Point",
        "coordinates": [2.7514, 48.8381]
      },
      "population": 639,
      "surface": 961.97,
      "radius": 1.75
    },
    {
      "nom": "Jouarre",
      "code": "77238",
      "codesPostaux": ["77640"],
      "centre": {
        "type": "Point",
        "coordinates": [3.1159, 48.9053]
      },
      "mairie": {
        "type": "Point",
        "coordinates": [3.1304, 48.9271]
      },
      "population": 4262,
      "surface": 4227.5,
      "radius": 3.67
    },
    {
      "nom": "Jouy-le-Châtel",
      "code": "77239",
      "codesPostaux": ["77970"],
      "centre": {
        "type": "Point",
        "coordinates": [3.1395, 48.6664]
      },
      "mairie": {
        "type": "Point",
        "coordinates": [3.1287, 48.6654]
      },
      "population": 1581,
      "surface": 3765.77,
      "radius": 3.46
    },
    {
      "nom": "Jouy-sur-Morin",
      "code": "77240",
      "codesPostaux": ["77320"],
      "centre": {
        "type": "Point",
        "coordinates": [3.2736, 48.795]
      },
      "mairie": {
        "type": "Point",
        "coordinates": [3.2734, 48.7941]
      },
      "population": 2221,
      "surface": 1843.88,
      "radius": 2.42
    },
    {
      "nom": "Juilly",
      "code": "77241",
      "codesPostaux": ["77230"],
      "centre": {
        "type": "Point",
        "coordinates": [2.7053, 49.0216]
      },
      "mairie": {
        "type": "Point",
        "coordinates": [2.7055, 49.0155]
      },
      "population": 2031,
      "surface": 775.72,
      "radius": 1.57
    },
    {
      "nom": "Jutigny",
      "code": "77242",
      "codesPostaux": ["77650"],
      "centre": {
        "type": "Point",
        "coordinates": [3.2253, 48.4925]
      },
      "mairie": {
        "type": "Point",
        "coordinates": [3.2329, 48.4987]
      },
      "population": 542,
      "surface": 459.35,
      "radius": 1.21
    },
    {
      "nom": "La Brosse-Montceaux",
      "code": "77054",
      "codesPostaux": ["77940"],
      "centre": {
        "type": "Point",
        "coordinates": [3.027, 48.3354]
      },
      "mairie": {
        "type": "Point",
        "coordinates": [3.0191, 48.3449]
      },
      "population": 736,
      "surface": 1202.15,
      "radius": 1.96
    },
    {
      "nom": "La Celle-sur-Morin",
      "code": "77063",
      "codesPostaux": ["77515"],
      "centre": {
        "type": "Point",
        "coordinates": [2.9681, 48.799]
      },
      "mairie": {
        "type": "Point",
        "coordinates": [2.9657, 48.8064]
      },
      "population": 1246,
      "surface": 757.41,
      "radius": 1.55
    },
    {
      "nom": "La Chapelle-Gauthier",
      "code": "77086",
      "codesPostaux": ["77720"],
      "centre": {
        "type": "Point",
        "coordinates": [2.8571, 48.5316]
      },
      "mairie": {
        "type": "Point",
        "coordinates": [2.9013, 48.5509]
      },
      "population": 1398,
      "surface": 1732.47,
      "radius": 2.35
    },
    {
      "nom": "La Chapelle-Iger",
      "code": "77087",
      "codesPostaux": ["77540"],
      "centre": {
        "type": "Point",
        "coordinates": [2.9943, 48.6519]
      },
      "mairie": {
        "type": "Point",
        "coordinates": [2.9903, 48.6521]
      },
      "population": 191,
      "surface": 872.48,
      "radius": 1.67
    },
    {
      "nom": "La Chapelle-la-Reine",
      "code": "77088",
      "codesPostaux": ["77760"],
      "centre": {
        "type": "Point",
        "coordinates": [2.569, 48.3137]
      },
      "mairie": {
        "type": "Point",
        "coordinates": [2.5692, 48.3164]
      },
      "population": 2236,
      "surface": 1595.69,
      "radius": 2.25
    },
    {
      "nom": "La Chapelle-Moutils",
      "code": "77093",
      "codesPostaux": ["77320"],
      "centre": {
        "type": "Point",
        "coordinates": [3.3822, 48.7752]
      },
      "mairie": {
        "type": "Point",
        "coordinates": [3.3899, 48.7747]
      },
      "population": 405,
      "surface": 1945.69,
      "radius": 2.49
    },
    {
      "nom": "La Chapelle-Rablais",
      "code": "77089",
      "codesPostaux": ["77370"],
      "centre": {
        "type": "Point",
        "coordinates": [2.9601, 48.5086]
      },
      "mairie": {
        "type": "Point",
        "coordinates": [2.9709, 48.5122]
      },
      "population": 907,
      "surface": 1545.4,
      "radius": 2.22
    },
    {
      "nom": "La Chapelle-Saint-Sulpice",
      "code": "77090",
      "codesPostaux": ["77160"],
      "centre": {
        "type": "Point",
        "coordinates": [3.1778, 48.5588]
      },
      "mairie": {
        "type": "Point",
        "coordinates": [3.1836, 48.5562]
      },
      "population": 239,
      "surface": 638.35,
      "radius": 1.43
    },
    {
      "nom": "La Croix-en-Brie",
      "code": "77147",
      "codesPostaux": ["77370"],
      "centre": {
        "type": "Point",
        "coordinates": [3.069, 48.5955]
      },
      "mairie": {
        "type": "Point",
        "coordinates": [3.0766, 48.5934]
      },
      "population": 672,
      "surface": 2950.98,
      "radius": 3.06
    },
    {
      "nom": "La Ferté-Gaucher",
      "code": "77182",
      "codesPostaux": ["77320"],
      "centre": {
        "type": "Point",
        "coordinates": [3.3047, 48.7914]
      },
      "mairie": {
        "type": "Point",
        "coordinates": [3.3057, 48.7815]
      },
      "population": 4762,
      "surface": 1736.61,
      "radius": 2.35
    },
    {
      "nom": "La Ferté-sous-Jouarre",
      "code": "77183",
      "codesPostaux": ["77260"],
      "centre": {
        "type": "Point",
        "coordinates": [3.1349, 48.9562]
      },
      "mairie": {
        "type": "Point",
        "coordinates": [3.1299, 48.9503]
      },
      "population": 10004,
      "surface": 1004.15,
      "radius": 1.79
    },
    {
      "nom": "La Genevraye",
      "code": "77202",
      "codesPostaux": ["77690"],
      "centre": {
        "type": "Point",
        "coordinates": [2.7509, 48.3164]
      },
      "mairie": {
        "type": "Point",
        "coordinates": [2.7469, 48.3207]
      },
      "population": 827,
      "surface": 1331.18,
      "radius": 2.06
    },
    {
      "nom": "La Grande-Paroisse",
      "code": "77210",
      "codesPostaux": ["77130"],
      "centre": {
        "type": "Point",
        "coordinates": [2.8918, 48.3938]
      },
      "mairie": {
        "type": "Point",
        "coordinates": [2.9008, 48.3862]
      },
      "population": 2899,
      "surface": 2907.25,
      "radius": 3.04
    },
    {
      "nom": "La Haute-Maison",
      "code": "77225",
      "codesPostaux": ["77580"],
      "centre": {
        "type": "Point",
        "coordinates": [3.0059, 48.883]
      },
      "mairie": {
        "type": "Point",
        "coordinates": [3.0006, 48.8818]
      },
      "population": 342,
      "surface": 1295.38,
      "radius": 2.03
    },
    {
      "nom": "La Houssaye-en-Brie",
      "code": "77229",
      "codesPostaux": ["77610"],
      "centre": {
        "type": "Point",
        "coordinates": [2.8696, 48.757]
      },
      "mairie": {
        "type": "Point",
        "coordinates": [2.8746, 48.7539]
      },
      "population": 1703,
      "surface": 1244.04,
      "radius": 1.99
    },
    {
      "nom": "La Madeleine-sur-Loing",
      "code": "77267",
      "codesPostaux": ["77570"],
      "centre": {
        "type": "Point",
        "coordinates": [2.7015, 48.2036]
      },
      "mairie": {
        "type": "Point",
        "coordinates": [2.7055, 48.2037]
      },
      "population": 351,
      "surface": 617.02,
      "radius": 1.4
    },
    {
      "nom": "La Rochette",
      "code": "77389",
      "codesPostaux": ["77000"],
      "centre": {
        "type": "Point",
        "coordinates": [2.6578, 48.507]
      },
      "mairie": {
        "type": "Point",
        "coordinates": [2.6559, 48.5202]
      },
      "population": 3919,
      "surface": 584.01,
      "radius": 1.36
    },
    {
      "nom": "La Tombe",
      "code": "77467",
      "codesPostaux": ["77130"],
      "centre": {
        "type": "Point",
        "coordinates": [3.0949, 48.3873]
      },
      "mairie": {
        "type": "Point",
        "coordinates": [3.0897, 48.3884]
      },
      "population": 201,
      "surface": 784.45,
      "radius": 1.58
    },
    {
      "nom": "La Trétoire",
      "code": "77472",
      "codesPostaux": ["77510"],
      "centre": {
        "type": "Point",
        "coordinates": [3.2425, 48.8777]
      },
      "mairie": {
        "type": "Point",
        "coordinates": [3.2521, 48.874]
      },
      "population": 467,
      "surface": 926.99,
      "radius": 1.72
    },
    {
      "nom": "Lagny-sur-Marne",
      "code": "77243",
      "codesPostaux": ["77400"],
      "centre": {
        "type": "Point",
        "coordinates": [2.7045, 48.8716]
      },
      "mairie": {
        "type": "Point",
        "coordinates": [2.7056, 48.8776]
      },
      "population": 21433,
      "surface": 578.09,
      "radius": 1.36
    },
    {
      "nom": "Larchant",
      "code": "77244",
      "codesPostaux": ["77760"],
      "centre": {
        "type": "Point",
        "coordinates": [2.6, 48.2857]
      },
      "mairie": {
        "type": "Point",
        "coordinates": [2.5977, 48.2841]
      },
      "population": 729,
      "surface": 2927.72,
      "radius": 3.05
    },
    {
      "nom": "Laval-en-Brie",
      "code": "77245",
      "codesPostaux": ["77148"],
      "centre": {
        "type": "Point",
        "coordinates": [2.9718, 48.4541]
      },
      "mairie": {
        "type": "Point",
        "coordinates": [2.998, 48.4243]
      },
      "population": 394,
      "surface": 2025.19,
      "radius": 2.54
    },
    {
      "nom": "Le Châtelet-en-Brie",
      "code": "77100",
      "codesPostaux": ["77820"],
      "centre": {
        "type": "Point",
        "coordinates": [2.8016, 48.5014]
      },
      "mairie": {
        "type": "Point",
        "coordinates": [2.7948, 48.505]
      },
      "population": 4231,
      "surface": 2270.88,
      "radius": 2.69
    },
    {
      "nom": "Le Mée-sur-Seine",
      "code": "77285",
      "codesPostaux": ["77350"],
      "centre": {
        "type": "Point",
        "coordinates": [2.6301, 48.5401]
      },
      "mairie": {
        "type": "Point",
        "coordinates": [2.6335, 48.5384]
      },
      "population": 19527,
      "surface": 556.69,
      "radius": 1.33
    },
    {
      "nom": "Le Mesnil-Amelot",
      "code": "77291",
      "codesPostaux": ["77990"],
      "centre": {
        "type": "Point",
        "coordinates": [2.5974, 49.0175]
      },
      "mairie": {
        "type": "Point",
        "coordinates": [2.591, 49.017]
      },
      "population": 992,
      "surface": 980.29,
      "radius": 1.77
    },
    {
      "nom": "Le Pin",
      "code": "77363",
      "codesPostaux": ["77181"],
      "centre": {
        "type": "Point",
        "coordinates": [2.6286, 48.9138]
      },
      "mairie": {
        "type": "Point",
        "coordinates": [2.63, 48.9152]
      },
      "population": 1528,
      "surface": 670.53,
      "radius": 1.46
    },
    {
      "nom": "Le Plessis-aux-Bois",
      "code": "77364",
      "codesPostaux": ["77165"],
      "centre": {
        "type": "Point",
        "coordinates": [2.7696, 49.0049]
      },
      "mairie": {
        "type": "Point",
        "coordinates": [2.7712, 49.0033]
      },
      "population": 255,
      "surface": 340.74,
      "radius": 1.04
    },
    {
      "nom": "Le Plessis-Feu-Aussoux",
      "code": "77365",
      "codesPostaux": ["77540"],
      "centre": {
        "type": "Point",
        "coordinates": [3.04, 48.713]
      },
      "mairie": {
        "type": "Point",
        "coordinates": [3.0322, 48.7154]
      },
      "population": 606,
      "surface": 558.93,
      "radius": 1.33
    },
    {
      "nom": "Le Plessis-l'Évêque",
      "code": "77366",
      "codesPostaux": ["77165"],
      "centre": {
        "type": "Point",
        "coordinates": [2.7912, 49.0049]
      },
      "mairie": {
        "type": "Point",
        "coordinates": [2.7851, 49.0072]
      },
      "population": 291,
      "surface": 357.91,
      "radius": 1.07
    },
    {
      "nom": "Le Plessis-Placy",
      "code": "77367",
      "codesPostaux": ["77440"],
      "centre": {
        "type": "Point",
        "coordinates": [2.9852, 49.0534]
      },
      "mairie": {
        "type": "Point",
        "coordinates": [2.9892, 49.0565]
      },
      "population": 296,
      "surface": 823.93,
      "radius": 1.62
    },
    {
      "nom": "Le Vaudoué",
      "code": "77485",
      "codesPostaux": ["77123"],
      "centre": {
        "type": "Point",
        "coordinates": [2.5194, 48.3468]
      },
      "mairie": {
        "type": "Point",
        "coordinates": [2.5193, 48.3556]
      },
      "population": 731,
      "surface": 1714.17,
      "radius": 2.34
    },
    {
      "nom": "Léchelle",
      "code": "77246",
      "codesPostaux": ["77171"],
      "centre": {
        "type": "Point",
        "coordinates": [3.388, 48.5729]
      },
      "mairie": {
        "type": "Point",
        "coordinates": [3.3864, 48.5781]
      },
      "population": 577,
      "surface": 2193.66,
      "radius": 2.64
    },
    {
      "nom": "Les Chapelles-Bourbon",
      "code": "77091",
      "codesPostaux": ["77610"],
      "centre": {
        "type": "Point",
        "coordinates": [2.8352, 48.7443]
      },
      "mairie": {
        "type": "Point",
        "coordinates": [2.8409, 48.7415]
      },
      "population": 464,
      "surface": 643.86,
      "radius": 1.43
    },
    {
      "nom": "Les Écrennes",
      "code": "77165",
      "codesPostaux": ["77820"],
      "centre": {
        "type": "Point",
        "coordinates": [2.8733, 48.4953]
      },
      "mairie": {
        "type": "Point",
        "coordinates": [2.8572, 48.5036]
      },
      "population": 619,
      "surface": 1853.7,
      "radius": 2.43
    },
    {
      "nom": "Les Marêts",
      "code": "77275",
      "codesPostaux": ["77560"],
      "centre": {
        "type": "Point",
        "coordinates": [3.3159, 48.6712]
      },
      "mairie": {
        "type": "Point",
        "coordinates": [3.314, 48.6706]
      },
      "population": 154,
      "surface": 538.28,
      "radius": 1.31
    },
    {
      "nom": "Les Ormes-sur-Voulzie",
      "code": "77347",
      "codesPostaux": ["77134"],
      "centre": {
        "type": "Point",
        "coordinates": [3.2255, 48.4613]
      },
      "mairie": {
        "type": "Point",
        "coordinates": [3.2272, 48.4616]
      },
      "population": 862,
      "surface": 1224.84,
      "radius": 1.97
    },
    {
      "nom": "Lescherolles",
      "code": "77247",
      "codesPostaux": ["77320"],
      "centre": {
        "type": "Point",
        "coordinates": [3.353, 48.7645]
      },
      "mairie": {
        "type": "Point",
        "coordinates": [3.3457, 48.762]
      },
      "population": 450,
      "surface": 1102.4,
      "radius": 1.87
    },
    {
      "nom": "Lesches",
      "code": "77248",
      "codesPostaux": ["77450"],
      "centre": {
        "type": "Point",
        "coordinates": [2.7917, 48.9173]
      },
      "mairie": {
        "type": "Point",
        "coordinates": [2.7803, 48.9086]
      },
      "population": 767,
      "surface": 411.14,
      "radius": 1.14
    },
    {
      "nom": "Lésigny",
      "code": "77249",
      "codesPostaux": ["77150"],
      "centre": {
        "type": "Point",
        "coordinates": [2.6182, 48.748]
      },
      "mairie": {
        "type": "Point",
        "coordinates": [2.6161, 48.7443]
      },
      "population": 7015,
      "surface": 1002.14,
      "radius": 1.79
    },
    {
      "nom": "Leudon-en-Brie",
      "code": "77250",
      "codesPostaux": ["77320"],
      "centre": {
        "type": "Point",
        "coordinates": [3.263, 48.7275]
      },
      "mairie": {
        "type": "Point",
        "coordinates": [3.2696, 48.7335]
      },
      "population": 167,
      "surface": 432.63,
      "radius": 1.17
    },
    {
      "nom": "Lieusaint",
      "code": "77251",
      "codesPostaux": ["77127"],
      "centre": {
        "type": "Point",
        "coordinates": [2.549, 48.6277]
      },
      "mairie": {
        "type": "Point",
        "coordinates": [2.5514, 48.6312]
      },
      "population": 14096,
      "surface": 1194.98,
      "radius": 1.95
    },
    {
      "nom": "Limoges-Fourches",
      "code": "77252",
      "codesPostaux": ["77550"],
      "centre": {
        "type": "Point",
        "coordinates": [2.6662, 48.6257]
      },
      "mairie": {
        "type": "Point",
        "coordinates": [2.664, 48.6269]
      },
      "population": 599,
      "surface": 797.28,
      "radius": 1.59
    },
    {
      "nom": "Lissy",
      "code": "77253",
      "codesPostaux": ["77550"],
      "centre": {
        "type": "Point",
        "coordinates": [2.703, 48.6185]
      },
      "mairie": {
        "type": "Point",
        "coordinates": [2.6943, 48.6265]
      },
      "population": 343,
      "surface": 673.41,
      "radius": 1.46
    },
    {
      "nom": "Liverdy-en-Brie",
      "code": "77254",
      "codesPostaux": ["77220"],
      "centre": {
        "type": "Point",
        "coordinates": [2.7797, 48.6957]
      },
      "mairie": {
        "type": "Point",
        "coordinates": [2.7761, 48.7004]
      },
      "population": 1366,
      "surface": 912.3,
      "radius": 1.7
    },
    {
      "nom": "Livry-sur-Seine",
      "code": "77255",
      "codesPostaux": ["77000"],
      "centre": {
        "type": "Point",
        "coordinates": [2.6898, 48.5039]
      },
      "mairie": {
        "type": "Point",
        "coordinates": [2.6834, 48.5105]
      },
      "population": 2224,
      "surface": 534.7,
      "radius": 1.3
    },
    {
      "nom": "Lizines",
      "code": "77256",
      "codesPostaux": ["77650"],
      "centre": {
        "type": "Point",
        "coordinates": [3.1654, 48.5283]
      },
      "mairie": {
        "type": "Point",
        "coordinates": [3.1767, 48.5282]
      },
      "population": 178,
      "surface": 581.42,
      "radius": 1.36
    },
    {
      "nom": "Lizy-sur-Ourcq",
      "code": "77257",
      "codesPostaux": ["77440"],
      "centre": {
        "type": "Point",
        "coordinates": [3.0189, 49.0344]
      },
      "mairie": {
        "type": "Point",
        "coordinates": [3.0269, 49.0256]
      },
      "population": 3575,
      "surface": 1116.83,
      "radius": 1.89
    },
    {
      "nom": "Lognes",
      "code": "77258",
      "codesPostaux": ["77185"],
      "centre": {
        "type": "Point",
        "coordinates": [2.6366, 48.8325]
      },
      "mairie": {
        "type": "Point",
        "coordinates": [2.6323, 48.8387]
      },
      "population": 14678,
      "surface": 399.63,
      "radius": 1.13
    },
    {
      "nom": "Longperrier",
      "code": "77259",
      "codesPostaux": ["77230"],
      "centre": {
        "type": "Point",
        "coordinates": [2.6566, 49.0506]
      },
      "mairie": {
        "type": "Point",
        "coordinates": [2.6652, 49.0531]
      },
      "population": 2911,
      "surface": 464.24,
      "radius": 1.22
    },
    {
      "nom": "Longueville",
      "code": "77260",
      "codesPostaux": ["77650"],
      "centre": {
        "type": "Point",
        "coordinates": [3.2414, 48.5148]
      },
      "mairie": {
        "type": "Point",
        "coordinates": [3.2475, 48.5147]
      },
      "population": 1802,
      "surface": 559.58,
      "radius": 1.33
    },
    {
      "nom": "Lorrez-le-Bocage-Préaux",
      "code": "77261",
      "codesPostaux": ["77710"],
      "centre": {
        "type": "Point",
        "coordinates": [2.8932, 48.2423]
      },
      "mairie": {
        "type": "Point",
        "coordinates": [2.9013, 48.2375]
      },
      "population": 1244,
      "surface": 1985.27,
      "radius": 2.51
    },
    {
      "nom": "Louan-Villegruis-Fontaine",
      "code": "77262",
      "codesPostaux": ["77560"],
      "centre": {
        "type": "Point",
        "coordinates": [3.4984, 48.6101]
      },
      "mairie": {
        "type": "Point",
        "coordinates": [3.4777, 48.6264]
      },
      "population": 492,
      "surface": 3796.9,
      "radius": 3.48
    },
    {
      "nom": "Luisetaines",
      "code": "77263",
      "codesPostaux": ["77520"],
      "centre": {
        "type": "Point",
        "coordinates": [3.1847, 48.4602]
      },
      "mairie": {
        "type": "Point",
        "coordinates": [3.1813, 48.4682]
      },
      "population": 231,
      "surface": 506,
      "radius": 1.27
    },
    {
      "nom": "Lumigny-Nesles-Ormeaux",
      "code": "77264",
      "codesPostaux": ["77540"],
      "centre": {
        "type": "Point",
        "coordinates": [2.9572, 48.7244]
      },
      "mairie": {
        "type": "Point",
        "coordinates": [2.9524, 48.7369]
      },
      "population": 1482,
      "surface": 3634.31,
      "radius": 3.4
    },
    {
      "nom": "Luzancy",
      "code": "77265",
      "codesPostaux": ["77138"],
      "centre": {
        "type": "Point",
        "coordinates": [3.1791, 48.9754]
      },
      "mairie": {
        "type": "Point",
        "coordinates": [3.1868, 48.9725]
      },
      "population": 1048,
      "surface": 660.95,
      "radius": 1.45
    },
    {
      "nom": "Machault",
      "code": "77266",
      "codesPostaux": ["77133"],
      "centre": {
        "type": "Point",
        "coordinates": [2.8493, 48.4524]
      },
      "mairie": {
        "type": "Point",
        "coordinates": [2.829, 48.4551]
      },
      "population": 790,
      "surface": 1627.11,
      "radius": 2.28
    },
    {
      "nom": "Magny-le-Hongre",
      "code": "77268",
      "codesPostaux": ["77700"],
      "centre": {
        "type": "Point",
        "coordinates": [2.8171, 48.8675]
      },
      "mairie": {
        "type": "Point",
        "coordinates": [2.8137, 48.8661]
      },
      "population": 9058,
      "surface": 467.02,
      "radius": 1.22
    },
    {
      "nom": "Maincy",
      "code": "77269",
      "codesPostaux": ["77950"],
      "centre": {
        "type": "Point",
        "coordinates": [2.7038, 48.5541]
      },
      "mairie": {
        "type": "Point",
        "coordinates": [2.7015, 48.5486]
      },
      "population": 1833,
      "surface": 1026.75,
      "radius": 1.81
    },
    {
      "nom": "Maison-Rouge",
      "code": "77272",
      "codesPostaux": ["77370"],
      "centre": {
        "type": "Point",
        "coordinates": [3.1533, 48.5549]
      },
      "mairie": {
        "type": "Point",
        "coordinates": [3.1525, 48.559]
      },
      "population": 853,
      "surface": 1388.49,
      "radius": 2.1
    },
    {
      "nom": "Maisoncelles-en-Brie",
      "code": "77270",
      "codesPostaux": ["77580"],
      "centre": {
        "type": "Point",
        "coordinates": [2.9957, 48.8565]
      },
      "mairie": {
        "type": "Point",
        "coordinates": [2.991, 48.8628]
      },
      "population": 967,
      "surface": 1353.08,
      "radius": 2.08
    },
    {
      "nom": "Maisoncelles-en-Gâtinais",
      "code": "77271",
      "codesPostaux": ["77570"],
      "centre": {
        "type": "Point",
        "coordinates": [2.6222, 48.1837]
      },
      "mairie": {
        "type": "Point",
        "coordinates": [2.6261, 48.1875]
      },
      "population": 139,
      "surface": 857.86,
      "radius": 1.65
    },
    {
      "nom": "Marchémoret",
      "code": "77273",
      "codesPostaux": ["77230"],
      "centre": {
        "type": "Point",
        "coordinates": [2.7508, 49.0528]
      },
      "mairie": {
        "type": "Point",
        "coordinates": [2.7714, 49.05]
      },
      "population": 614,
      "surface": 702.79,
      "radius": 1.5
    },
    {
      "nom": "Marcilly",
      "code": "77274",
      "codesPostaux": ["77139"],
      "centre": {
        "type": "Point",
        "coordinates": [2.8781, 49.0369]
      },
      "mairie": {
        "type": "Point",
        "coordinates": [2.8779, 49.0369]
      },
      "population": 463,
      "surface": 694.77,
      "radius": 1.49
    },
    {
      "nom": "Mareuil-lès-Meaux",
      "code": "77276",
      "codesPostaux": ["77100"],
      "centre": {
        "type": "Point",
        "coordinates": [2.8769, 48.9252]
      },
      "mairie": {
        "type": "Point",
        "coordinates": [2.8595, 48.9273]
      },
      "population": 3313,
      "surface": 715.98,
      "radius": 1.51
    },
    {
      "nom": "Marles-en-Brie",
      "code": "77277",
      "codesPostaux": ["77610"],
      "centre": {
        "type": "Point",
        "coordinates": [2.8856, 48.7253]
      },
      "mairie": {
        "type": "Point",
        "coordinates": [2.8788, 48.7283]
      },
      "population": 1889,
      "surface": 1281.17,
      "radius": 2.02
    },
    {
      "nom": "Marolles-en-Brie",
      "code": "77278",
      "codesPostaux": ["77120"],
      "centre": {
        "type": "Point",
        "coordinates": [3.1635, 48.7719]
      },
      "mairie": {
        "type": "Point",
        "coordinates": [3.1624, 48.7759]
      },
      "population": 413,
      "surface": 908.24,
      "radius": 1.7
    },
    {
      "nom": "Marolles-sur-Seine",
      "code": "77279",
      "codesPostaux": ["77130"],
      "centre": {
        "type": "Point",
        "coordinates": [3.0295, 48.3813]
      },