{
  "departmentCode": "88",
  "departmentName": "Vosges",
  "stats": {
    "communeCount": 506,
    "totalPopulation": 358394,
    "totalSurface": 589344
  },
  "communes": [
    {
      "nom": "Ahéville",
      "code": "88002",
      "codesPostaux": ["88500"],
      "centre": {
        "type": "Point",
        "coordinates": [6.2007, 48.2836]
      },
      "mairie": {
        "type": "Point",
        "coordinates": [6.1937, 48.2847]
      },
      "population": 67,
      "surface": 582.89,
      "radius": 1.36
    },
    {
      "nom": "Aingeville",
      "code": "88003",
      "codesPostaux": ["88140"],
      "centre": {
        "type": "Point",
        "coordinates": [5.7659, 48.206]
      },
      "mairie": {
        "type": "Point",
        "coordinates": [5.7682, 48.2063]
      },
      "population": 61,
      "surface": 572.61,
      "radius": 1.35
    },
    {
      "nom": "Ainvelle",
      "code": "88004",
      "codesPostaux": ["88320"],
      "centre": {
        "type": "Point",
        "coordinates": [5.8268, 47.9866]
      },
      "mairie": {
        "type": "Point",
        "coordinates": [5.828, 47.9972]
      },
      "population": 136,
      "surface": 908.25,
      "radius": 1.7
    },
    {
      "nom": "Allarmont",
      "code": "88005",
      "codesPostaux": ["88110"],
      "centre": {
        "type": "Point",
        "coordinates": [7.0176, 48.4697]
      },
      "mairie": {
        "type": "Point",
        "coordinates": [7.0146, 48.4842]
      },
      "population": 209,
      "surface": 1311.61,
      "radius": 2.04
    },
    {
      "nom": "Ambacourt",
      "code": "88006",
      "codesPostaux": ["88500"],
      "centre": {
        "type": "Point",
        "coordinates": [6.1394, 48.3515]
      },
      "mairie": {
        "type": "Point",
        "coordinates": [6.1427, 48.3477]
      },
      "population": 290,
      "surface": 679.67,
      "radius": 1.47
    },
    {
      "nom": "Ameuvelle",
      "code": "88007",
      "codesPostaux": ["88410"],
      "centre": {
        "type": "Point",
        "coordinates": [5.9498, 47.951]
      },
      "mairie": {
        "type": "Point",
        "coordinates": [5.948, 47.9428]
      },
      "population": 47,
      "surface": 561.18,
      "radius": 1.34
    },
    {
      "nom": "Anglemont",
      "code": "88008",
      "codesPostaux": ["88700"],
      "centre": {
        "type": "Point",
        "coordinates": [6.6713, 48.3773]
      },
      "mairie": {
        "type": "Point",
        "coordinates": [6.6691, 48.3794]
      },
      "population": 152,
      "surface": 589.77,
      "radius": 1.37
    },
    {
      "nom": "Anould",
      "code": "88009",
      "codesPostaux": ["88650"],
      "centre": {
        "type": "Point",
        "coordinates": [6.939, 48.1794]
      },
      "mairie": {
        "type": "Point",
        "coordinates": [6.9458, 48.1856]
      },
      "population": 3262,
      "surface": 2452.69,
      "radius": 2.79
    },
    {
      "nom": "Aouze",
      "code": "88010",
      "codesPostaux": ["88170"],
      "centre": {
        "type": "Point",
        "coordinates": [5.8675, 48.3836]
      },
      "mairie": {
        "type": "Point",
        "coordinates": [5.8699, 48.3753]
      },
      "population": 196,
      "surface": 1114.87,
      "radius": 1.88
    },
    {
      "nom": "Arches",
      "code": "88011",
      "codesPostaux": ["88380"],
      "centre": {
        "type": "Point",
        "coordinates": [6.5077, 48.1081]
      },
      "mairie": {
        "type": "Point",
        "coordinates": [6.5278, 48.1178]
      },
      "population": 1614,
      "surface": 1763.05,
      "radius": 2.37
    },
    {
      "nom": "Archettes",
      "code": "88012",
      "codesPostaux": ["88380"],
      "centre": {
        "type": "Point",
        "coordinates": [6.5484, 48.1324]
      },
      "mairie": {
        "type": "Point",
        "coordinates": [6.5341, 48.1247]
      },
      "population": 1110,
      "surface": 1389.36,
      "radius": 2.1
    },
    {
      "nom": "Aroffe",
      "code": "88013",
      "codesPostaux": ["88170"],
      "centre": {
        "type": "Point",
        "coordinates": [5.8997, 48.4112]
      },
      "mairie": {
        "type": "Point",
        "coordinates": [5.8989, 48.4007]
      },
      "population": 91,
      "surface": 853.52,
      "radius": 1.65
    },
    {
      "nom": "Arrentès-de-Corcieux",
      "code": "88014",
      "codesPostaux": ["88430"],
      "centre": {
        "type": "Point",
        "coordinates": [6.8716, 48.1336]
      },
      "mairie": {
        "type": "Point",
        "coordinates": [6.8646, 48.1453]
      },
      "population": 177,
      "surface": 1710.68,
      "radius": 2.33
    },
    {
      "nom": "Attignéville",
      "code": "88015",
      "codesPostaux": ["88300"],
      "centre": {
        "type": "Point",
        "coordinates": [5.8266, 48.3969]
      },
      "mairie": {
        "type": "Point",
        "coordinates": [5.8081, 48.3851]
      },
      "population": 210,
      "surface": 1463.88,
      "radius": 2.16
    },
    {
      "nom": "Attigny",
      "code": "88016",
      "codesPostaux": ["88260"],
      "centre": {
        "type": "Point",
        "coordinates": [6.0249, 48.0624]
      },
      "mairie": {
        "type": "Point",
        "coordinates": [6.0355, 48.0653]
      },
      "population": 202,
      "surface": 1606.02,
      "radius": 2.26
    },
    {
      "nom": "Aulnois",
      "code": "88017",
      "codesPostaux": ["88300"],
      "centre": {
        "type": "Point",
        "coordinates": [5.7787, 48.2617]
      },
      "mairie": {
        "type": "Point",
        "coordinates": [5.7844, 48.2569]
      },
      "population": 165,
      "surface": 442.99,
      "radius": 1.19
    },
    {
      "nom": "Autigny-la-Tour",
      "code": "88019",
      "codesPostaux": ["88300"],
      "centre": {
        "type": "Point",
        "coordinates": [5.7869, 48.4137]
      },
      "mairie": {
        "type": "Point",
        "coordinates": [5.7602, 48.3998]
      },
      "population": 136,
      "surface": 1583.37,
      "radius": 2.24
    },
    {
      "nom": "Autreville",
      "code": "88020",
      "codesPostaux": ["88300"],
      "centre": {
        "type": "Point",
        "coordinates": [5.8687, 48.4867]
      },
      "mairie": {
        "type": "Point",
        "coordinates": [5.8493, 48.4829]
      },
      "population": 191,
      "surface": 1095.74,
      "radius": 1.87
    },
    {
      "nom": "Autrey",
      "code": "88021",
      "codesPostaux": ["88700"],
      "centre": {
        "type": "Point",
        "coordinates": [6.725, 48.2918]
      },
      "mairie": {
        "type": "Point",
        "coordinates": [6.6917, 48.2972]
      },
      "population": 275,
      "surface": 1739.8,
      "radius": 2.35
    },
    {
      "nom": "Auzainvilliers",
      "code": "88022",
      "codesPostaux": ["88140"],
      "centre": {
        "type": "Point",
        "coordinates": [5.8559, 48.2375]
      },
      "mairie": {
        "type": "Point",
        "coordinates": [5.841, 48.2371]
      },
      "population": 207,
      "surface": 823.85,
      "radius": 1.62
    },
    {
      "nom": "Avillers",
      "code": "88023",
      "codesPostaux": ["88500"],
      "centre": {
        "type": "Point",
        "coordinates": [6.205, 48.3125]
      },
      "mairie": {
        "type": "Point",
        "coordinates": [6.2082, 48.3122]
      },
      "population": 87,
      "surface": 691.01,
      "radius": 1.48
    },
    {
      "nom": "Avrainville",
      "code": "88024",
      "codesPostaux": ["88130"],
      "centre": {
        "type": "Point",
        "coordinates": [6.2194, 48.3789]
      },
      "mairie": {
        "type": "Point",
        "coordinates": [6.2118, 48.3744]
      },
      "population": 115,
      "surface": 459.1,
      "radius": 1.21
    },
    {
      "nom": "Avranville",
      "code": "88025",
      "codesPostaux": ["88630"],
      "centre": {
        "type": "Point",
        "coordinates": [5.5388, 48.4165]
      },
      "mairie": {
        "type": "Point",
        "coordinates": [5.5274, 48.4231]
      },
      "population": 69,
      "surface": 1089.18,
      "radius": 1.86
    },
    {
      "nom": "Aydoilles",
      "code": "88026",
      "codesPostaux": ["88600"],
      "centre": {
        "type": "Point",
        "coordinates": [6.5738, 48.2121]
      },
      "mairie": {
        "type": "Point",
        "coordinates": [6.5732, 48.2094]
      },
      "population": 1007,
      "surface": 1008.5,
      "radius": 1.79
    },
    {
      "nom": "Badménil-aux-Bois",
      "code": "88027",
      "codesPostaux": ["88330"],
      "centre": {
        "type": "Point",
        "coordinates": [6.5285, 48.3115]
      },
      "mairie": {
        "type": "Point",
        "coordinates": [6.5194, 48.3029]
      },
      "population": 139,
      "surface": 931.03,
      "radius": 1.72
    },
    {
      "nom": "Bainville-aux-Saules",
      "code": "88030",
      "codesPostaux": ["88270"],
      "centre": {
        "type": "Point",
        "coordinates": [6.1329, 48.2082]
      },
      "mairie": {
        "type": "Point",
        "coordinates": [6.1379, 48.2056]
      },
      "population": 160,
      "surface": 565.65,
      "radius": 1.34
    },
    {
      "nom": "Balléville",
      "code": "88031",
      "codesPostaux": ["88170"],
      "centre": {
        "type": "Point",
        "coordinates": [5.8467, 48.3363]
      },
      "mairie": {
        "type": "Point",
        "coordinates": [5.8478, 48.3308]
      },
      "population": 100,
      "surface": 627.51,
      "radius": 1.41
    },
    {
      "nom": "Ban-de-Laveline",
      "code": "88032",
      "codesPostaux": ["88520"],
      "centre": {
        "type": "Point",
        "coordinates": [7.0801, 48.2254]
      },
      "mairie": {
        "type": "Point",
        "coordinates": [7.0664, 48.2453]
      },
      "population": 1163,
      "surface": 2627.25,
      "radius": 2.89
    },
    {
      "nom": "Ban-de-Sapt",
      "code": "88033",
      "codesPostaux": ["88210"],
      "centre": {
        "type": "Point",
        "coordinates": [7.0161, 48.34]
      },
      "mairie": {
        "type": "Point",
        "coordinates": [7.0136, 48.343]
      },
      "population": 358,
      "surface": 2263.93,
      "radius": 2.68
    },
    {
      "nom": "Ban-sur-Meurthe-Clefcy",
      "code": "88106",
      "codesPostaux": ["88230"],
      "centre": {
        "type": "Point",
        "coordinates": [6.9702, 48.1285]
      },
      "mairie": {
        "type": "Point",
        "coordinates": [6.9806, 48.1713]
      },
      "population": 961,
      "surface": 4500.44,
      "radius": 3.78
    },
    {
      "nom": "Barbey-Seroux",
      "code": "88035",
      "codesPostaux": ["88640"],
      "centre": {
        "type": "Point",
        "coordinates": [6.8466, 48.1291]
      },
      "mairie": {
        "type": "Point",
        "coordinates": [6.84, 48.142]
      },
      "population": 144,
      "surface": 733.44,
      "radius": 1.53
    },
    {
      "nom": "Barville",
      "code": "88036",
      "codesPostaux": ["88300"],
      "centre": {
        "type": "Point",
        "coordinates": [5.7709, 48.3785]
      },
      "mairie": {
        "type": "Point",
        "coordinates": [5.7874, 48.3844]
      },
      "population": 80,
      "surface": 852.67,
      "radius": 1.65
    },
    {
      "nom": "Basse-sur-le-Rupt",
      "code": "88037",
      "codesPostaux": ["88120"],
      "centre": {
        "type": "Point",
        "coordinates": [6.7724, 47.9855]
      },
      "mairie": {
        "type": "Point",
        "coordinates": [6.7668, 47.9892]
      },
      "population": 854,
      "surface": 1369.37,
      "radius": 2.09
    },
    {
      "nom": "Battexey",
      "code": "88038",
      "codesPostaux": ["88130"],
      "centre": {
        "type": "Point",
        "coordinates": [6.1841, 48.3892]
      },
      "mairie": {
        "type": "Point",
        "coordinates": [6.1809, 48.3893]
      },
      "population": 34,
      "surface": 272.51,
      "radius": 0.93
    },
    {
      "nom": "Baudricourt",
      "code": "88039",
      "codesPostaux": ["88500"],
      "centre": {
        "type": "Point",
        "coordinates": [6.0566, 48.3087]
      },
      "mairie": {
        "type": "Point",
        "coordinates": [6.0535, 48.3135]
      },
      "population": 330,
      "surface": 345.98,
      "radius": 1.05
    },
    {
      "nom": "Bayecourt",
      "code": "88040",
      "codesPostaux": ["88150"],
      "centre": {
        "type": "Point",
        "coordinates": [6.4941, 48.2714]
      },
      "mairie": {
        "type": "Point",
        "coordinates": [6.4893, 48.2674]
      },
      "population": 234,
      "surface": 708.98,
      "radius": 1.5
    },
    {
      "nom": "Bazegney",
      "code": "88041",
      "codesPostaux": ["88270"],
      "centre": {
        "type": "Point",
        "coordinates": [6.2344, 48.2654]
      },
      "mairie": {
        "type": "Point",
        "coordinates": [6.2273, 48.2663]
      },
      "population": 98,
      "surface": 582.82,
      "radius": 1.36
    },
    {
      "nom": "Bazien",
      "code": "88042",
      "codesPostaux": ["88700"],
      "centre": {
        "type": "Point",
        "coordinates": [6.6806, 48.4151]
      },
      "mairie": {
        "type": "Point",
        "coordinates": [6.6764, 48.4118]
      },
      "population": 79,
      "surface": 318.32,
      "radius": 1.01
    },
    {
      "nom": "Bazoilles-et-Ménil",
      "code": "88043",
      "codesPostaux": ["88500"],
      "centre": {
        "type": "Point",
        "coordinates": [6.1064, 48.259]
      },
      "mairie": {
        "type": "Point",
        "coordinates": [6.1057, 48.2595]
      },
      "population": 115,
      "surface": 575.41,
      "radius": 1.35
    },
    {
      "nom": "Bazoilles-sur-Meuse",
      "code": "88044",
      "codesPostaux": ["88300"],
      "centre": {
        "type": "Point",
        "coordinates": [5.649, 48.2989]
      },
      "mairie": {
        "type": "Point",
        "coordinates": [5.6589, 48.3056]
      },
      "population": 612,
      "surface": 2135.98,
      "radius": 2.61
    },
    {
      "nom": "Beaufremont",
      "code": "88045",
      "codesPostaux": ["88300"],
      "centre": {
        "type": "Point",
        "coordinates": [5.7436, 48.2562]
      },
      "mairie": {
        "type": "Point",
        "coordinates": [5.7548, 48.2569]
      },
      "population": 88,
      "surface": 897.86,
      "radius": 1.69
    },
    {
      "nom": "Beauménil",
      "code": "88046",
      "codesPostaux": ["88600"],
      "centre": {
        "type": "Point",
        "coordinates": [6.7212, 48.1689]
      },
      "mairie": {
        "type": "Point",
        "coordinates": [6.7268, 48.1795]
      },
      "population": 132,
      "surface": 330.73,
      "radius": 1.03
    },
    {
      "nom": "Begnécourt",
      "code": "88047",
      "codesPostaux": ["88270"],
      "centre": {
        "type": "Point",
        "coordinates": [6.1653, 48.2095]
      },
      "mairie": {
        "type": "Point",
        "coordinates": [6.1587, 48.2057]
      },
      "population": 141,
      "surface": 454.34,
      "radius": 1.2
    },
    {
      "nom": "Bellefontaine",
      "code": "88048",
      "codesPostaux": ["88370"],
      "centre": {
        "type": "Point",
        "coordinates": [6.4624, 48.0103]
      },
      "mairie": {
        "type": "Point",
        "coordinates": [6.4433, 48.0136]
      },
      "population": 959,
      "surface": 3932.65,
      "radius": 3.54
    },
    {
      "nom": "Belmont-lès-Darney",
      "code": "88049",
      "codesPostaux": ["88260"],
      "centre": {
        "type": "Point",
        "coordinates": [6.0152, 48.0855]
      },
      "mairie": {
        "type": "Point",
        "coordinates": [6.0119, 48.0858]
      },
      "population": 109,
      "surface": 413.61,
      "radius": 1.15
    },
    {
      "nom": "Belmont-sur-Buttant",
      "code": "88050",
      "codesPostaux": ["88600"],
      "centre": {
        "type": "Point",
        "coordinates": [6.7689, 48.2222]
      },
      "mairie": {
        "type": "Point",
        "coordinates": [6.7627, 48.2244]
      },
      "population": 297,
      "surface": 850.25,
      "radius": 1.65
    },
    {
      "nom": "Belmont-sur-Vair",
      "code": "88051",
      "codesPostaux": ["88800"],
      "centre": {
        "type": "Point",
        "coordinates": [5.9135, 48.2579]
      },
      "mairie": {
        "type": "Point",
        "coordinates": [5.906, 48.2539]
      },
      "population": 124,
      "surface": 617.56,
      "radius": 1.4
    },
    {
      "nom": "Belrupt",
      "code": "88052",
      "codesPostaux": ["88260"],
      "centre": {
        "type": "Point",
        "coordinates": [6.0853, 48.0946]
      },
      "mairie": {
        "type": "Point",
        "coordinates": [6.0922, 48.0896]
      },
      "population": 91,
      "surface": 939.52,
      "radius": 1.73
    },
    {
      "nom": "Belval",
      "code": "88053",
      "codesPostaux": ["88210"],
      "centre": {
        "type": "Point",
        "coordinates": [7.0697, 48.4122]
      },
      "mairie": {
        "type": "Point",
        "coordinates": [7.0524, 48.4091]
      },
      "population": 153,
      "surface": 691.26,
      "radius": 1.48
    },
    {
      "nom": "Bertrimoutier",
      "code": "88054",
      "codesPostaux": ["88520"],
      "centre": {
        "type": "Point",
        "coordinates": [7.0606, 48.2655]
      },
      "mairie": {
        "type": "Point",
        "coordinates": [7.0527, 48.2706]
      },
      "population": 312,
      "surface": 372.08,
      "radius": 1.09
    },
    {
      "nom": "Bettegney-Saint-Brice",
      "code": "88055",
      "codesPostaux": ["88450"],
      "centre": {
        "type": "Point",
        "coordinates": [6.3122, 48.3046]
      },
      "mairie": {
        "type": "Point",
        "coordinates": [6.3059, 48.2993]
      },
      "population": 162,
      "surface": 538.72,
      "radius": 1.31
    },
    {
      "nom": "Bettoncourt",
      "code": "88056",
      "codesPostaux": ["88500"],
      "centre": {
        "type": "Point",
        "coordinates": [6.1635, 48.3392]
      },
      "mairie": {
        "type": "Point",
        "coordinates": [6.1617, 48.3491]
      },
      "population": 91,
      "surface": 325.38,
      "radius": 1.02
    },
    {
      "nom": "Biécourt",
      "code": "88058",
      "codesPostaux": ["88170"],
      "centre": {
        "type": "Point",
        "coordinates": [5.9535, 48.3243]
      },
      "mairie": {
        "type": "Point",
        "coordinates": [5.9546, 48.3231]
      },
      "population": 91,
      "surface": 599.34,
      "radius": 1.38
    },
    {
      "nom": "Biffontaine",
      "code": "88059",
      "codesPostaux": ["88430"],
      "centre": {
        "type": "Point",
        "coordinates": [6.8183, 48.2122]
      },
      "mairie": {
        "type": "Point",
        "coordinates": [6.8054, 48.2111]
      },
      "population": 393,
      "surface": 888.13,
      "radius": 1.68
    },
    {
      "nom": "Blémerey",
      "code": "88060",
      "codesPostaux": ["88500"],
      "centre": {
        "type": "Point",
        "coordinates": [6.0425, 48.3586]
      },
      "mairie": {
        "type": "Point",
        "coordinates": [6.0479, 48.3598]
      },
      "population": 30,
      "surface": 250.12,
      "radius": 0.89
    },
    {
      "nom": "Bleurville",
      "code": "88061",
      "codesPostaux": ["88410"],
      "centre": {
        "type": "Point",
        "coordinates": [5.9588, 48.0677]
      },
      "mairie": {
        "type": "Point",
        "coordinates": [5.9631, 48.062]
      },
      "population": 285,
      "surface": 2043.41,
      "radius": 2.55
    },
    {
      "nom": "Blevaincourt",
      "code": "88062",
      "codesPostaux": ["88320"],
      "centre": {
        "type": "Point",
        "coordinates": [5.7107, 48.1217]
      },
      "mairie": {
        "type": "Point",
        "coordinates": [5.6819, 48.1249]
      },
      "population": 91,
      "surface": 870.5,
      "radius": 1.66
    },
    {
      "nom": "Bocquegney",
      "code": "88063",
      "codesPostaux": ["88270"],
      "centre": {
        "type": "Point",
        "coordinates": [6.3114, 48.2234]
      },
      "mairie": {
        "type": "Point",
        "coordinates": [6.3068, 48.219]
      },
      "population": 133,
      "surface": 457.88,
      "radius": 1.21
    },
    {
      "nom": "Bois-de-Champ",
      "code": "88064",
      "codesPostaux": ["88600"],
      "centre": {
        "type": "Point",
        "coordinates": [6.7942, 48.2416]
      },
      "mairie": {
        "type": "Point",
        "coordinates": [6.7907, 48.2554]
      },
      "population": 105,
      "surface": 1770.92,
      "radius": 2.37
    },
    {
      "nom": "Bonvillet",
      "code": "88065",
      "codesPostaux": ["88260"],
      "centre": {
        "type": "Point",
        "coordinates": [6.0644, 48.1004]
      },
      "mairie": {
        "type": "Point",
        "coordinates": [6.0551, 48.0991]
      },
      "population": 275,
      "surface": 1009.9,
      "radius": 1.79
    },
    {
      "nom": "Boulaincourt",
      "code": "88066",
      "codesPostaux": ["88500"],
      "centre": {
        "type": "Point",
        "coordinates": [6.084, 48.3737]
      },
      "mairie": {
        "type": "Point",
        "coordinates": [6.0815, 48.3736]
      },
      "population": 63,
      "surface": 254.59,
      "radius": 0.9
    },
    {
      "nom": "Bouxières-aux-Bois",
      "code": "88069",
      "codesPostaux": ["88270"],
      "centre": {
        "type": "Point",
        "coordinates": [6.3225, 48.2562]
      },
      "mairie": {
        "type": "Point",
        "coordinates": [6.3168, 48.2641]
      },
      "population": 144,
      "surface": 770.97,
      "radius": 1.57
    },
    {
      "nom": "Bouxurulles",
      "code": "88070",
      "codesPostaux": ["88130"],
      "centre": {
        "type": "Point",
        "coordinates": [6.2304, 48.3322]
      },
      "mairie": {
        "type": "Point",
        "coordinates": [6.2343, 48.3342]
      },
      "population": 178,
      "surface": 678.2,
      "radius": 1.47
    },
    {
      "nom": "Bouzemont",
      "code": "88071",
      "codesPostaux": ["88270"],
      "centre": {
        "type": "Point",
        "coordinates": [6.2392, 48.2498]
      },
      "mairie": {
        "type": "Point",
        "coordinates": [6.2355, 48.2479]
      },
      "population": 47,
      "surface": 497.24,
      "radius": 1.26
    },
    {
      "nom": "Brantigny",
      "code": "88073",
      "codesPostaux": ["88130"],
      "centre": {
        "type": "Point",
        "coordinates": [6.2769, 48.349]
      },
      "mairie": {
        "type": "Point",
        "coordinates": [6.2769, 48.3436]
      },
      "population": 200,
      "surface": 298.33,
      "radius": 0.97
    },
    {
      "nom": "Brechainville",
      "code": "88074",
      "codesPostaux": ["88350"],
      "centre": {
        "type": "Point",
        "coordinates": [5.5023, 48.3618]
      },
      "mairie": {
        "type": "Point",
        "coordinates": [5.4854, 48.3663]
      },
      "population": 57,
      "surface": 1425.3,
      "radius": 2.13
    },
    {
      "nom": "Brouvelieures",
      "code": "88076",
      "codesPostaux": ["88600"],
      "centre": {
        "type": "Point",
        "coordinates": [6.7336, 48.2412]
      },
      "mairie": {
        "type": "Point",
        "coordinates": [6.7313, 48.2369]
      },
      "population": 411,
      "surface": 745.34,
      "radius": 1.54
    },
    {
      "nom": "Brû",
      "code": "88077",
      "codesPostaux": ["88700"],
      "centre": {
        "type": "Point",
        "coordinates": [6.6854, 48.3554]
      },
      "mairie": {
        "type": "Point",
        "coordinates": [6.6818, 48.3489]
      },
      "population": 566,
      "surface": 896.46,
      "radius": 1.69
    },
    {
      "nom": "Bruyères",
      "code": "88078",
      "codesPostaux": ["88600"],
      "centre": {
        "type": "Point",
        "coordinates": [6.7139, 48.2155]
      },
      "mairie": {
        "type": "Point",
        "coordinates": [6.7195, 48.2112]
      },
      "population": 2935,
      "surface": 1599.93,
      "radius": 2.26
    },
    {
      "nom": "Bulgnéville",
      "code": "88079",
      "codesPostaux": ["88140"],
      "centre": {
        "type": "Point",
        "coordinates": [5.8412, 48.212]
      },
      "mairie": {
        "type": "Point",
        "coordinates": [5.8358, 48.2095]
      },
      "population": 1523,
      "surface": 1334.67,
      "radius": 2.06
    },
    {
      "nom": "Bult",
      "code": "88080",
      "codesPostaux": ["88700"],
      "centre": {
        "type": "Point",
        "coordinates": [6.5938, 48.2982]
      },
      "mairie": {
        "type": "Point",
        "coordinates": [6.6055, 48.2949]
      },
      "population": 303,
      "surface": 991.31,
      "radius": 1.78
    },
    {
      "nom": "Bussang",
      "code": "88081",
      "codesPostaux": ["88540"],
      "centre": {
        "type": "Point",
        "coordinates": [6.875, 47.8922]
      },
      "mairie": {
        "type": "Point",
        "coordinates": [6.8535, 47.8854]
      },
      "population": 1289,
      "surface": 2760.88,
      "radius": 2.96
    },
    {
      "nom": "Celles-sur-Plaine",
      "code": "88082",
      "codesPostaux": ["88110"],
      "centre": {
        "type": "Point",
        "coordinates": [6.9656, 48.4513]
      },
      "mairie": {
        "type": "Point",
        "coordinates": [6.9501, 48.4562]
      },
      "population": 751,
      "surface": 2018.89,
      "radius": 2.54
    },
    {
      "nom": "Certilleux",
      "code": "88083",
      "codesPostaux": ["88300"],
      "centre": {
        "type": "Point",
        "coordinates": [5.733, 48.3198]
      },
      "mairie": {
        "type": "Point",
        "coordinates": [5.7284, 48.3111]
      },
      "population": 214,
      "surface": 592.8,
      "radius": 1.37
    },
    {
      "nom": "Chamagne",
      "code": "88084",
      "codesPostaux": ["88130"],
      "centre": {
        "type": "Point",
        "coordinates": [6.3074, 48.4117]
      },
      "mairie": {
        "type": "Point",
        "coordinates": [6.2804, 48.4084]
      },
      "population": 442,
      "surface": 1528.91,
      "radius": 2.21
    },
    {
      "nom": "Champ-le-Duc",
      "code": "88086",
      "codesPostaux": ["88600"],
      "centre": {
        "type": "Point",
        "coordinates": [6.7274, 48.1924]
      },
      "mairie": {
        "type": "Point",
        "coordinates": [6.7195, 48.194]
      },
      "population": 481,
      "surface": 395.19,
      "radius": 1.12
    },
    {
      "nom": "Champdray",
      "code": "88085",
      "codesPostaux": ["88640"],
      "centre": {
        "type": "Point",
        "coordinates": [6.7577, 48.1257]
      },
      "mairie": {
        "type": "Point",
        "coordinates": [6.7519, 48.1352]
      },
      "population": 192,
      "surface": 958.28,
      "radius": 1.75
    },
    {
      "nom": "Chantraine",
      "code": "88087",
      "codesPostaux": ["88000"],
      "centre": {
        "type": "Point",
        "coordinates": [6.4244, 48.167]
      },
      "mairie": {
        "type": "Point",
        "coordinates": [6.4416, 48.1696]
      },
      "population": 3201,
      "surface": 613.65,
      "radius": 1.4
    },
    {
      "nom": "Charmes",
      "code": "88090",
      "codesPostaux": ["88130"],
      "centre": {
        "type": "Point",
        "coordinates": [6.3225, 48.383]
      },
      "mairie": {
        "type": "Point",
        "coordinates": [6.2934, 48.3722]
      },
      "population": 4489,
      "surface": 2375.18,
      "radius": 2.75
    },
    {
      "nom": "Charmois-devant-Bruyères",
      "code": "88091",
      "codesPostaux": ["88460"],
      "centre": {
        "type": "Point",
        "coordinates": [6.5898, 48.1712]
      },
      "mairie": {
        "type": "Point",
        "coordinates": [6.5927, 48.1697]
      },
      "population": 379,
      "surface": 666.71,
      "radius": 1.46
    },
    {
      "nom": "Charmois-l'Orgueilleux",
      "code": "88092",
      "codesPostaux": ["88270"],
      "centre": {
        "type": "Point",
        "coordinates": [6.2618, 48.0904]
      },
      "mairie": {
        "type": "Point",
        "coordinates": [6.2713, 48.1027]
      },
      "population": 584,
      "surface": 3643.97,
      "radius": 3.41
    },
    {
      "nom": "Châtas",
      "code": "88093",
      "codesPostaux": ["88210"],
      "centre": {
        "type": "Point",
        "coordinates": [7.0383, 48.3667]
      },
      "mairie": {
        "type": "Point",
        "coordinates": [7.0361, 48.362]
      },
      "population": 36,
      "surface": 558.75,
      "radius": 1.33
    },
    {
      "nom": "Châtel-sur-Moselle",
      "code": "88094",
      "codesPostaux": ["88330"],
      "centre": {
        "type": "Point",
        "coordinates": [6.399, 48.3164]
      },
      "mairie": {
        "type": "Point",
        "coordinates": [6.3933, 48.3128]
      },
      "population": 1726,
      "surface": 1212.2,
      "radius": 1.96
    },
    {
      "nom": "Châtenois",
      "code": "88095",
      "codesPostaux": ["88170"],
      "centre": {
        "type": "Point",
        "coordinates": [5.8251, 48.3119]
      },
      "mairie": {
        "type": "Point",
        "coordinates": [5.8336, 48.3028]
      },
      "population": 1721,
      "surface": 1761.35,
      "radius": 2.37
    },
    {
      "nom": "Châtillon-sur-Saône",
      "code": "88096",
      "codesPostaux": ["88410"],
      "centre": {
        "type": "Point",
        "coordinates": [5.8785, 47.9462]
      },
      "mairie": {
        "type": "Point",
        "coordinates": [5.8833, 47.9479]
      },
      "population": 106,
      "surface": 926.14,
      "radius": 1.72
    },
    {
      "nom": "Chauffecourt",
      "code": "88097",
      "codesPostaux": ["88500"],
      "centre": {
        "type": "Point",
        "coordinates": [6.1557, 48.3335]
      },
      "mairie": {
        "type": "Point",
        "coordinates": [6.1507, 48.3326]
      },
      "population": 41,
      "surface": 188.21,
      "radius": 0.77
    },
    {
      "nom": "Chaumousey",
      "code": "88098",
      "codesPostaux": ["88390"],
      "centre": {
        "type": "Point",
        "coordinates": [6.3251, 48.172]
      },
      "mairie": {
        "type": "Point",
        "coordinates": [6.3344, 48.1738]
      },
      "population": 913,
      "surface": 1014.74,
      "radius": 1.8
    },
    {
      "nom": "Chavelot",
      "code": "88099",
      "codesPostaux": ["88150"],
      "centre": {
        "type": "Point",
        "coordinates": [6.4281, 48.229]
      },
      "mairie": {
        "type": "Point",
        "coordinates": [6.4383, 48.2341]
      },
      "population": 1372,
      "surface": 623.38,
      "radius": 1.41
    },
    {
      "nom": "Chef-Haut",
      "code": "88100",
      "codesPostaux": ["88500"],
      "centre": {
        "type": "Point",
        "coordinates": [6.0093, 48.354]
      },
      "mairie": {
        "type": "Point",
        "coordinates": [6.0142, 48.3556]
      },
      "population": 48,
      "surface": 318.4,
      "radius": 1.01
    },
    {
      "nom": "Cheniménil",
      "code": "88101",
      "codesPostaux": ["88460"],
      "centre": {
        "type": "Point",
        "coordinates": [6.5959, 48.1367]
      },
      "mairie": {
        "type": "Point",
        "coordinates": [6.6037, 48.1389]
      },
      "population": 1227,
      "surface": 938.68,
      "radius": 1.73
    },
    {
      "nom": "Chermisey",
      "code": "88102",
      "codesPostaux": ["88630"],
      "centre": {
        "type": "Point",
        "coordinates": [5.5717, 48.4125]
      },
      "mairie": {
        "type": "Point",
        "coordinates": [5.5703, 48.4167]
      },
      "population": 86,
      "surface": 1077.79,
      "radius": 1.85
    },
    {
      "nom": "Circourt",
      "code": "88103",
      "codesPostaux": ["88270"],
      "centre": {
        "type": "Point",
        "coordinates": [6.2833, 48.2491]
      },
      "mairie": {
        "type": "Point",
        "coordinates": [6.2846, 48.2534]
      },
      "population": 80,
      "surface": 590.54,
      "radius": 1.37
    },
    {
      "nom": "Circourt-sur-Mouzon",
      "code": "88104",
      "codesPostaux": ["88300"],
      "centre": {
        "type": "Point",
        "coordinates": [5.6997, 48.3033]
      },
      "mairie": {
        "type": "Point",
        "coordinates": [5.7093, 48.2973]
      },
      "population": 184,
      "surface": 1017.58,
      "radius": 1.8
    },
    {
      "nom": "Claudon",
      "code": "88105",
      "codesPostaux": ["88410"],
      "centre": {
        "type": "Point",
        "coordinates": [6.0454, 48.0332]
      },
      "mairie": {
        "type": "Point",
        "coordinates": [6.0351, 48.0317]
      },
      "population": 216,
      "surface": 2176.79,
      "radius": 2.63
    },
    {
      "nom": "Clérey-la-Côte",
      "code": "88107",
      "codesPostaux": ["88630"],
      "centre": {
        "type": "Point",
        "coordinates": [5.7624, 48.4852]
      },
      "mairie": {
        "type": "Point",
        "coordinates": [5.757, 48.4827]
      },
      "population": 27,
      "surface": 322.22,
      "radius": 1.01
    },
    {
      "nom": "Cleurie",
      "code": "88109",
      "codesPostaux": ["88120"],
      "centre": {
        "type": "Point",
        "coordinates": [6.674, 48.0552]
      },
      "mairie": {
        "type": "Point",
        "coordinates": [6.6761, 48.0511]
      },
      "population": 648,
      "surface": 1103.65,
      "radius": 1.87
    },
    {
      "nom": "Clézentaine",
      "code": "88110",
      "codesPostaux": ["88700"],
      "centre": {
        "type": "Point",
        "coordinates": [6.5242, 48.4063]
      },
      "mairie": {
        "type": "Point",
        "coordinates": [6.5401, 48.4085]
      },
      "population": 219,
      "surface": 1304.32,
      "radius": 2.04
    },
    {
      "nom": "Coinches",
      "code": "88111",
      "codesPostaux": ["88100"],
      "centre": {
        "type": "Point",
        "coordinates": [7.023, 48.2423]
      },
      "mairie": {
        "type": "Point",
        "coordinates": [7.0219, 48.2508]
      },
      "population": 349,
      "surface": 564.01,
      "radius": 1.34
    },
    {
      "nom": "Combrimont",
      "code": "88113",
      "codesPostaux": ["88490"],
      "centre": {
        "type": "Point",
        "coordinates": [7.0752, 48.2742]
      },
      "mairie": {
        "type": "Point",
        "coordinates": [7.0647, 48.276]
      },
      "population": 137,
      "surface": 476.15,
      "radius": 1.23
    },
    {
      "nom": "Contrexéville",
      "code": "88114",
      "codesPostaux": ["88140"],
      "centre": {
        "type": "Point",
        "coordinates": [5.8906, 48.186]
      },
      "mairie": {
        "type": "Point",
        "coordinates": [5.8952, 48.18]
      },
      "population": 2932,
      "surface": 1504.04,
      "radius": 2.19
    },
    {
      "nom": "Corcieux",
      "code": "88115",
      "codesPostaux": ["88430"],
      "centre": {
        "type": "Point",
        "coordinates": [6.879, 48.165]
      },
      "mairie": {
        "type": "Point",
        "coordinates": [6.8785, 48.1728]
      },
      "population": 1490,
      "surface": 1759.2,
      "radius": 2.37
    },
    {
      "nom": "Cornimont",
      "code": "88116",
      "codesPostaux": ["88310"],
      "centre": {
        "type": "Point",
        "coordinates": [6.8768, 47.9613]
      },
      "mairie": {
        "type": "Point",
        "coordinates": [6.838, 47.9633]
      },
      "population": 3037,
      "surface": 4024.81,
      "radius": 3.58
    },
    {
      "nom": "Courcelles-sous-Châtenois",
      "code": "88117",
      "codesPostaux": ["88170"],
      "centre": {
        "type": "Point",
        "coordinates": [5.8147, 48.3269]
      },
      "mairie": {
        "type": "Point",
        "coordinates": [5.8152, 48.3281]
      },
      "population": 76,
      "surface": 237.96,
      "radius": 0.87
    },
    {
      "nom": "Coussey",
      "code": "88118",
      "codesPostaux": ["88630"],
      "centre": {
        "type": "Point",
        "coordinates": [5.6671, 48.4136]
      },
      "mairie": {
        "type": "Point",
        "coordinates": [5.6827, 48.4091]
      },
      "population": 719,
      "surface": 1623.91,
      "radius": 2.27
    },
    {
      "nom": "Crainvilliers",
      "code": "88119",
      "codesPostaux": ["88140"],
      "centre": {
        "type": "Point",
        "coordinates": [5.8382, 48.1497]
      },
      "mairie": {
        "type": "Point",
        "coordinates": [5.8332, 48.1474]
      },
      "population": 180,
      "surface": 1041.21,
      "radius": 1.82
    },
    {
      "nom": "Damas-aux-Bois",
      "code": "88121",
      "codesPostaux": ["88330"],
      "centre": {
        "type": "Point",
        "coordinates": [6.4031, 48.3843]
      },
      "mairie": {
        "type": "Point",
        "coordinates": [6.4532, 48.3974]
      },
      "population": 273,
      "surface": 2990.72,
      "radius": 3.09
    },
    {
      "nom": "Damas-et-Bettegney",
      "code": "88122",
      "codesPostaux": ["88270"],
      "centre": {
        "type": "Point",
        "coordinates": [6.2642, 48.212]
      },
      "mairie": {
        "type": "Point",
        "coordinates": [6.2619, 48.2105]
      },
      "population": 384,
      "surface": 1505.67,
      "radius": 2.19
    },
    {
      "nom": "Damblain",
      "code": "88123",
      "codesPostaux": ["88320"],
      "centre": {
        "type": "Point",
        "coordinates": [5.6685, 48.0892]
      },
      "mairie": {
        "type": "Point",
        "coordinates": [5.6533, 48.0976]
      },
      "population": 258,
      "surface": 1329.33,
      "radius": 2.06
    },
    {
      "nom": "Darney",
      "code": "88124",
      "codesPostaux": ["88260"],
      "centre": {
        "type": "Point",
        "coordinates": [6.0556, 48.0799]
      },
      "mairie": {
        "type": "Point",
        "coordinates": [6.0453, 48.0891]
      },
      "population": 1078,
      "surface": 786.76,
      "radius": 1.58
    },
    {
      "nom": "Darney-aux-Chênes",
      "code": "88125",
      "codesPostaux": ["88170"],
      "centre": {
        "type": "Point",
        "coordinates": [5.8101, 48.2832]
      },
      "mairie": {
        "type": "Point",
        "coordinates": [5.8195, 48.2818]
      },
      "population": 62,
      "surface": 247.58,
      "radius": 0.89
    },
    {
      "nom": "Darnieulles",
      "code": "88126",
      "codesPostaux": ["88390"],
      "centre": {
        "type": "Point",
        "coordinates": [6.3356, 48.198]
      },
      "mairie": {
        "type": "Point",
        "coordinates": [6.3492, 48.1992]
      },
      "population": 1367,
      "surface": 1010.9,
      "radius": 1.79
    },
    {
      "nom": "Deinvillers",
      "code": "88127",
      "codesPostaux": ["88700"],
      "centre": {
        "type": "Point",
        "coordinates": [6.5628, 48.4137]
      },
      "mairie": {
        "type": "Point",
        "coordinates": [6.5573, 48.4129]
      },
      "population": 55,
      "surface": 556.9,
      "radius": 1.33
    },
    {
      "nom": "Denipaire",
      "code": "88128",
      "codesPostaux": ["88210"],
      "centre": {
        "type": "Point",
        "coordinates": [6.9594, 48.3402]
      },
      "mairie": {
        "type": "Point",
        "coordinates": [6.9653, 48.3434]
      },
      "population": 250,
      "surface": 697.87,
      "radius": 1.49
    },
    {
      "nom": "Derbamont",
      "code": "88129",
      "codesPostaux": ["88270"],
      "centre": {
        "type": "Point",
        "coordinates": [6.2735, 48.2655]
      },
      "mairie": {
        "type": "Point",
        "coordinates": [6.2676, 48.2679]
      },
      "population": 99,
      "surface": 682.78,
      "radius": 1.47
    },
    {
      "nom": "Destord",
      "code": "88130",
      "codesPostaux": ["88600"],
      "centre": {
        "type": "Point",
        "coordinates": [6.6209, 48.2735]
      },
      "mairie": {
        "type": "Point",
        "coordinates": [6.6203, 48.272]
      },
      "population": 238,
      "surface": 510.91,
      "radius": 1.28
    },
    {
      "nom": "Deycimont",
      "code": "88131",
      "codesPostaux": ["88600"],
      "centre": {
        "type": "Point",
        "coordinates": [6.6422, 48.1745]
      },
      "mairie": {
        "type": "Point",
        "coordinates": [6.6524, 48.168]
      },
      "population": 298,
      "surface": 637.9,
      "radius": 1.42
    },
    {
      "nom": "Deyvillers",
      "code": "88132",
      "codesPostaux": ["88000"],
      "centre": {
        "type": "Point",
        "coordinates": [6.5283, 48.1975]
      },
      "mairie": {
        "type": "Point",
        "coordinates": [6.515, 48.2]
      },
      "population": 1350,
      "surface": 869.58,
      "radius": 1.66
    },
    {
      "nom": "Dignonville",
      "code": "88133",
      "codesPostaux": ["88000"],
      "centre": {
        "type": "Point",
        "coordinates": [6.5002, 48.2414]
      },
      "mairie": {
        "type": "Point",
        "coordinates": [6.5063, 48.2443]
      },
      "population": 207,
      "surface": 594.46,
      "radius": 1.38
    },
    {
      "nom": "Dinozé",
      "code": "88134",
      "codesPostaux": ["88000"],
      "centre": {
        "type": "Point",
        "coordinates": [6.4852, 48.1383]
      },
      "mairie": {
        "type": "Point",
        "coordinates": [6.4762, 48.1406]
      },
      "population": 652,
      "surface": 293.43,
      "radius": 0.97
    },
    {
      "nom": "Docelles",
      "code": "88135",
      "codesPostaux": ["88460"],
      "centre": {
        "type": "Point",
        "coordinates": [6.6254, 48.1388]
      },
      "mairie": {
        "type": "Point",
        "coordinates": [6.6175, 48.145]
      },
      "population": 864,
      "surface": 867.69,
      "radius": 1.66
    },
    {
      "nom": "Dogneville",
      "code": "88136",
      "codesPostaux": ["88000"],
      "centre": {
        "type": "Point",
        "coordinates": [6.4667, 48.2198]
      },
      "mairie": {
        "type": "Point",
        "coordinates": [6.4593, 48.2232]
      },
      "population": 1511,
      "surface": 1143.33,
      "radius": 1.91
    },
    {
      "nom": "Dolaincourt",
      "code": "88137",
      "codesPostaux": ["88170"],
      "centre": {
        "type": "Point",
        "coordinates": [5.8085, 48.3405]
      },
      "mairie": {
        "type": "Point",
        "coordinates": [5.8143, 48.3387]
      },
      "population": 90,
      "surface": 262.1,
      "radius": 0.91
    },
    {
      "nom": "Dombasle-devant-Darney",
      "code": "88138",
      "codesPostaux": ["88260"],
      "centre": {
        "type": "Point",
        "coordinates": [6.0752, 48.1279]
      },
      "mairie": {
        "type": "Point",
        "coordinates": [6.0767, 48.128]
      },
      "population": 77,
      "surface": 882.64,
      "radius": 1.68
    },
    {
      "nom": "Dombasle-en-Xaintois",
      "code": "88139",
      "codesPostaux": ["88500"],
      "centre": {
        "type": "Point",
        "coordinates": [5.9952, 48.3036]
      },
      "mairie": {
        "type": "Point",
        "coordinates": [5.9906, 48.3079]
      },
      "population": 124,
      "surface": 473.65,
      "radius": 1.23
    },
    {
      "nom": "Dombrot-le-Sec",
      "code": "88140",
      "codesPostaux": ["88140"],
      "centre": {
        "type": "Point",
        "coordinates": [5.8978, 48.1452]
      },
      "mairie": {
        "type": "Point",
        "coordinates": [5.9112, 48.1457]
      },
      "population": 358,
      "surface": 1898.22,
      "radius": 2.46
    },
    {
      "nom": "Dombrot-sur-Vair",
      "code": "88141",
      "codesPostaux": ["88170"],
      "centre": {
        "type": "Point",
        "coordinates": [5.9007, 48.2659]
      },
      "mairie": {
        "type": "Point",
        "coordinates": [5.8885, 48.2653]
      },
      "population": 241,
      "surface": 913.98,
      "radius": 1.71
    },
    {
      "nom": "Domèvre-sous-Montfort",
      "code": "88144",
      "codesPostaux": ["88500"],
      "centre": {
        "type": "Point",
        "coordinates": [6.0721, 48.2581]
      },
      "mairie": {
        "type": "Point",
        "coordinates": [6.068, 48.2505]
      },
      "population": 61,
      "surface": 326.16,
      "radius": 1.02
    },
    {
      "nom": "Domèvre-sur-Avière",
      "code": "88142",
      "codesPostaux": ["88390"],
      "centre": {
        "type": "Point",
        "coordinates": [6.39, 48.2242]
      },
      "mairie": {
        "type": "Point",
        "coordinates": [6.382, 48.2135]
      },
      "population": 433,
      "surface": 920.2,
      "radius": 1.71
    },
    {
      "nom": "Domèvre-sur-Durbion",
      "code": "88143",
      "codesPostaux": ["88330"],
      "centre": {
        "type": "Point",
        "coordinates": [6.4886, 48.2871]
      },
      "mairie": {
        "type": "Point",
        "coordinates": [6.4708, 48.2832]
      },
      "population": 266,
      "surface": 1276.7,
      "radius": 2.02
    },
    {
      "nom": "Domfaing",
      "code": "88145",
      "codesPostaux": ["88600"],
      "centre": {
        "type": "Point",
        "coordinates": [6.7534, 48.244]
      },
      "mairie": {
        "type": "Point",
        "coordinates": [6.7524, 48.2349]
      },
      "population": 212,
      "surface": 391.66,
      "radius": 1.12
    },
    {
      "nom": "Domjulien",
      "code": "88146",
      "codesPostaux": ["88800"],
      "centre": {
        "type": "Point",
        "coordinates": [5.9993, 48.2569]
      },
      "mairie": {
        "type": "Point",
        "coordinates": [5.9971, 48.2529]
      },
      "population": 177,
      "surface": 1190.16,
      "radius": 1.95
    },
    {
      "nom": "Dommartin-aux-Bois",
      "code": "88147",
      "codesPostaux": ["88390"],
      "centre": {
        "type": "Point",
        "coordinates": [6.2917, 48.1485]
      },
      "mairie": {
        "type": "Point",
        "coordinates": [6.275, 48.1597]
      },
      "population": 399,
      "surface": 1583.87,
      "radius": 2.25
    },
    {
      "nom": "Dommartin-lès-Remiremont",
      "code": "88148",
      "codesPostaux": ["88200"],
      "centre": {
        "type": "Point",
        "coordinates": [6.6521, 47.9888]
      },
      "mairie": {
        "type": "Point",
        "coordinates": [6.6434, 47.9997]
      },
      "population": 1900,
      "surface": 2105.2,
      "radius": 2.59
    },
    {
      "nom": "Dommartin-lès-Vallois",
      "code": "88149",
      "codesPostaux": ["88260"],
      "centre": {
        "type": "Point",
        "coordinates": [6.0853, 48.1558]
      },
      "mairie": {
        "type": "Point",
        "coordinates": [6.0862, 48.1552]
      },
      "population": 52,
      "surface": 499.86,
      "radius": 1.26
    },
    {
      "nom": "Dommartin-sur-Vraine",
      "code": "88150",
      "codesPostaux": ["88170"],
      "centre": {
        "type": "Point",
        "coordinates": [5.9118, 48.343]
      },
      "mairie": {
        "type": "Point",
        "coordinates": [5.9054, 48.3373]
      },
      "population": 292,
      "surface": 705.22,
      "radius": 1.5
    },
    {
      "nom": "Dompaire",
      "code": "88151",
      "codesPostaux": ["88270"],
      "centre": {
        "type": "Point",
        "coordinates": [6.2093, 48.226]
      },
      "mairie": {
        "type": "Point",
        "coordinates": [6.2264, 48.2214]
      },
      "population": 1079,
      "surface": 1675.14,
      "radius": 2.31
    },
    {
      "nom": "Dompierre",
      "code": "88152",
      "codesPostaux": ["88600"],
      "centre": {
        "type": "Point",
        "coordinates": [6.5663, 48.2485]
      },
      "mairie": {
        "type": "Point",
        "coordinates": [6.564, 48.2541]
      },
      "population": 240,
      "surface": 880.53,
      "radius": 1.67
    },
    {
      "nom": "Domptail",
      "code": "88153",
      "codesPostaux": ["88700"],
      "centre": {
        "type": "Point",
        "coordinates": [6.6174, 48.4452]
      },
      "mairie": {
        "type": "Point",
        "coordinates": [6.6156, 48.4478]
      },
      "population": 338,
      "surface": 1875.8,
      "radius": 2.44
    },
    {
      "nom": "Domrémy-la-Pucelle",
      "code": "88154",
      "codesPostaux": ["88630"],
      "centre": {
        "type": "Point",
        "coordinates": [5.6566, 48.4409]
      },
      "mairie": {
        "type": "Point",
        "coordinates": [5.6751, 48.4431]
      },
      "population": 94,
      "surface": 897.83,
      "radius": 1.69
    },
    {
      "nom": "Domvallier",
      "code": "88155",
      "codesPostaux": ["88500"],
      "centre": {
        "type": "Point",
        "coordinates": [6.0803, 48.303]
      },
      "mairie": {
        "type": "Point",
        "coordinates": [6.0827, 48.3094]
      },
      "population": 95,
      "surface": 325.02,
      "radius": 1.02
    },
    {
      "nom": "Doncières",
      "code": "88156",
      "codesPostaux": ["88700"],
      "centre": {
        "type": "Point",
        "coordinates": [6.6344, 48.3901]
      },
      "mairie": {
        "type": "Point",
        "coordinates": [6.6353, 48.3948]
      },
      "population": 156,
      "surface": 770.24,
      "radius": 1.57
    },
    {
      "nom": "Dounoux",
      "code": "88157",
      "codesPostaux": ["88220"],
      "centre": {
        "type": "Point",
        "coordinates": [6.4423, 48.1068]
      },
      "mairie": {
        "type": "Point",
        "coordinates": [6.4432, 48.1071]
      },
      "population": 871,
      "surface": 931.51,
      "radius": 1.72
    },
    {
      "nom": "Éloyes",
      "code": "88158",
      "codesPostaux": ["88510"],
      "centre": {
        "type": "Point",
        "coordinates": [6.6238, 48.0915]
      },
      "mairie": {
        "type": "Point",
        "coordinates": [6.6116, 48.0927]
      },
      "population": 3117,
      "surface": 1251.26,
      "radius": 2
    },
    {
      "nom": "Entre-deux-Eaux",
      "code": "88159",
      "codesPostaux": ["88650"],
      "centre": {
        "type": "Point",
        "coordinates": [7.0005, 48.2392]
      },
      "mairie": {
        "type": "Point",
        "coordinates": [6.9919, 48.2308]
      },
      "population": 509,
      "surface": 856.26,
      "radius": 1.65
    },
    {
      "nom": "Épinal",
      "code": "88160",
      "codesPostaux": ["88000"],
      "centre": {
        "type": "Point",
        "coordinates": [6.4867, 48.1637]
      },
      "mairie": {
        "type": "Point",
        "coordinates": [6.4502, 48.1754]
      },
      "population": 32296,
      "surface": 5933.63,
      "radius": 4.35
    },
    {
      "nom": "Escles",
      "code": "88161",
      "codesPostaux": ["88260"],
      "centre": {
        "type": "Point",
        "coordinates": [6.1649, 48.1189]
      },
      "mairie": {
        "type": "Point",
        "coordinates": [6.1776, 48.13]
      },
      "population": 385,
      "surface": 2244.14,
      "radius": 2.67
    },
    {
      "nom": "Esley",
      "code": "88162",
      "codesPostaux": ["88260"],
      "centre": {
        "type": "Point",
        "coordinates": [6.0604, 48.1753]
      },
      "mairie": {
        "type": "Point",
        "coordinates": [6.0588, 48.1681]
      },
      "population": 170,
      "surface": 1112.08,
      "radius": 1.88
    },
    {
      "nom": "Essegney",
      "code": "88163",
      "codesPostaux": ["88130"],
      "centre": {
        "type": "Point",
        "coordinates": [6.3449, 48.3793]
      },
      "mairie": {
        "type": "Point",
        "coordinates": [6.3156, 48.3678]
      },
      "population": 745,
      "surface": 851.36,
      "radius": 1.65
    },
    {
      "nom": "Estrennes",
      "code": "88164",
      "codesPostaux": ["88500"],
      "centre": {
        "type": "Point",
        "coordinates": [6.0565, 48.2603]
      },
      "mairie": {
        "type": "Point",
        "coordinates": [6.0495, 48.2581]
      },
      "population": 106,
      "surface": 602.37,
      "radius": 1.38
    },
    {
      "nom": "Étival-Clairefontaine",
      "code": "88165",
      "codesPostaux": ["88480"],
      "centre": {
        "type": "Point",
        "coordinates": [6.8351, 48.3666]
      },
      "mairie": {
        "type": "Point",
        "coordinates": [6.8649, 48.3637]
      },
      "population": 2454,
      "surface": 2723.75,
      "radius": 2.94
    },
    {
      "nom": "Évaux-et-Ménil",
      "code": "88166",
      "codesPostaux": ["88450"],
      "centre": {
        "type": "Point",
        "coordinates": [6.3023, 48.3253]
      },
      "mairie": {
        "type": "Point",
        "coordinates": [6.298, 48.3251]
      },
      "population": 355,
      "surface": 499.55,
      "radius": 1.26
    },
    {
      "nom": "Faucompierre",
      "code": "88167",
      "codesPostaux": ["88460"],
      "centre": {
        "type": "Point",
        "coordinates": [6.6639, 48.1398]
      },
      "mairie": {
        "type": "Point",
        "coordinates": [6.6707, 48.1388]
      },
      "population": 227,
      "surface": 247.86,
      "radius": 0.89
    },
    {
      "nom": "Fauconcourt",
      "code": "88168",
      "codesPostaux": ["88700"],
      "centre": {
        "type": "Point",
        "coordinates": [6.5388, 48.372]
      },
      "mairie": {
        "type": "Point",
        "coordinates": [6.5399, 48.3727]
      },
      "population": 131,
      "surface": 490.43,
      "radius": 1.25
    },
    {
      "nom": "Fays",
      "code": "88169",
      "codesPostaux": ["88600"],
      "centre": {
        "type": "Point",
        "coordinates": [6.669, 48.1971]
      },
      "mairie": {
        "type": "Point",
        "coordinates": [6.6749, 48.1928]
      },
      "population": 219,
      "surface": 486.75,
      "radius": 1.24
    },
    {
      "nom": "Ferdrupt",
      "code": "88170",
      "codesPostaux": ["88360"],
      "centre": {
        "type": "Point",
        "coordinates": [6.7224, 47.9099]
      },
      "mairie": {
        "type": "Point",
        "coordinates": [6.7069, 47.9083]
      },
      "population": 731,
      "surface": 1482.06,
      "radius": 2.17
    },
    {
      "nom": "Fignévelle",
      "code": "88171",
      "codesPostaux": ["88410"],
      "centre": {
        "type": "Point",
        "coordinates": [5.9105, 47.9846]
      },
      "mairie": {
        "type": "Point",
        "coordinates": [5.9117, 47.9907]
      },
      "population": 50,
      "surface": 445.12,
      "radius": 1.19
    },
    {
      "nom": "Fiménil",
      "code": "88172",
      "codesPostaux": ["88600"],
      "centre": {
        "type": "Point",
        "coordinates": [6.7111, 48.172]
      },
      "mairie": {
        "type": "Point",
        "coordinates": [6.7107, 48.1807]
      },
      "population": 232,
      "surface": 519.99,
      "radius": 1.29
    },
    {
      "nom": "Florémont",
      "code": "88173",
      "codesPostaux": ["88130"],
      "centre": {
        "type": "Point",
        "coordinates": [6.2534, 48.3712]
      },
      "mairie": {
        "type": "Point",
        "coordinates": [6.2571, 48.3652]
      },
      "population": 473,
      "surface": 803.53,
      "radius": 1.6
    },
    {
      "nom": "Fomerey",
      "code": "88174",
      "codesPostaux": ["88390"],
      "centre": {
        "type": "Point",
        "coordinates": [6.343, 48.218]
      },
      "mairie": {
        "type": "Point",
        "coordinates": [6.3392, 48.2204]
      },
      "population": 141,
      "surface": 511.83,
      "radius": 1.28
    },
    {
      "nom": "Fontenay",
      "code": "88175",
      "codesPostaux": ["88600"],
      "centre": {
        "type": "Point",
        "coordinates": [6.588, 48.2145]
      },
      "mairie": {
        "type": "Point",
        "coordinates": [6.5895, 48.2184]
      },
      "population": 471,
      "surface": 653.1,
      "radius": 1.44
    },
    {
      "nom": "Fontenoy-le-Château",
      "code": "88176",
      "codesPostaux": ["88240"],
      "centre": {
        "type": "Point",
        "coordinates": [6.2062, 47.9779]
      },
      "mairie": {
        "type": "Point",
        "coordinates": [6.1994, 47.9739]
      },
      "population": 499,
      "surface": 3820.38,
      "radius": 3.49
    },
    {
      "nom": "Fouchécourt",
      "code": "88179",
      "codesPostaux": ["88320"],
      "centre": {
        "type": "Point",
        "coordinates": [5.8647, 48.0046]
      },
      "mairie": {
        "type": "Point",
        "coordinates": [5.8594, 48.0086]
      },
      "population": 41,
      "surface": 468.13,
      "radius": 1.22
    },
    {
      "nom": "Frain",
      "code": "88180",
      "codesPostaux": ["88320"],
      "centre": {
        "type": "Point",
        "coordinates": [5.8801, 48.0835]
      },
      "mairie": {
        "type": "Point",
        "coordinates": [5.8785, 48.0864]
      },
      "population": 125,
      "surface": 763.63,
      "radius": 1.56
    },
    {
      "nom": "Fraize",
      "code": "88181",
      "codesPostaux": ["88230"],
      "centre": {
        "type": "Point",
        "coordinates": [7.0268, 48.1876]
      },
      "mairie": {
        "type": "Point",
        "coordinates": [7.0023, 48.1851]
      },
      "population": 2849,
      "surface": 1551.03,
      "radius": 2.22
    },
    {
      "nom": "Frapelle",
      "code": "88182",
      "codesPostaux": ["88490"],
      "centre": {
        "type": "Point",
        "coordinates": [7.0531, 48.2945]
      },
      "mairie": {
        "type": "Point",
        "coordinates": [7.0633, 48.2935]
      },
      "population": 199,
      "surface": 454.65,
      "radius": 1.2
    },
    {
      "nom": "Frebécourt",
      "code": "88183",
      "codesPostaux": ["88630"],
      "centre": {
        "type": "Point",
        "coordinates": [5.6756, 48.3821]
      },
      "mairie": {
        "type": "Point",
        "coordinates": [5.6734, 48.393]
      },
      "population": 352,
      "surface": 1056.1,
      "radius": 1.83
    },
    {
      "nom": "Fremifontaine",
      "code": "88184",
      "codesPostaux": ["88600"],
      "centre": {
        "type": "Point",
        "coordinates": [6.7007, 48.2625]
      },
      "mairie": {
        "type": "Point",
        "coordinates": [6.6856, 48.2709]
      },
      "population": 421,
      "surface": 964.91,
      "radius": 1.75
    },
    {
      "nom": "Frenelle-la-Grande",
      "code": "88185",
      "codesPostaux": ["88500"],
      "centre": {
        "type": "Point",
        "coordinates": [6.093, 48.3531]
      },
      "mairie": {
        "type": "Point",
        "coordinates": [6.0836, 48.3562]
      },
      "population": 101,
      "surface": 551.15,
      "radius": 1.32
    },
    {
      "nom": "Frenelle-la-Petite",
      "code": "88186",
      "codesPostaux": ["88500"],
      "centre": {
        "type": "Point",
        "coordinates": [6.0631, 48.3496]
      },
      "mairie": {
        "type": "Point",
        "coordinates": [6.0645, 48.3508]
      },
      "population": 47,
      "surface": 349.91,
      "radius": 1.06
    },
    {
      "nom": "Frénois",
      "code": "88187",
      "codesPostaux": ["88270"],
      "centre": {
        "type": "Point",
        "coordinates": [6.1229, 48.1853]
      },
      "mairie": {
        "type": "Point",
        "coordinates": [6.1219, 48.1883]
      },
      "population": 49,
      "surface": 491.35,
      "radius": 1.25
    },
    {
      "nom": "Fresse-sur-Moselle",
      "code": "88188",
      "codesPostaux": ["88160"],
      "centre": {
        "type": "Point",
        "coordinates": [6.8086, 47.8653]
      },
      "mairie": {
        "type": "Point",
        "coordinates": [6.7874, 47.8757]
      },
      "population": 1662,
      "surface": 1850.99,
      "radius": 2.43
    },
    {
      "nom": "Fréville",
      "code": "88189",
      "codesPostaux": ["88350"],
      "centre": {
        "type": "Point",
        "coordinates": [5.6235, 48.3247]
      },
      "mairie": {
        "type": "Point",
        "coordinates": [5.6078, 48.3254]
      },
      "population": 132,
      "surface": 637.89,
      "radius": 1.42
    },
    {
      "nom": "Frizon",
      "code": "88190",
      "codesPostaux": ["88440"],
      "centre": {
        "type": "Point",
        "coordinates": [6.3517, 48.2856]
      },
      "mairie": {
        "type": "Point",
        "coordinates": [6.3633, 48.2855]
      },
      "population": 484,
      "surface": 1179.56,
      "radius": 1.94
    },
    {
      "nom": "Gelvécourt-et-Adompt",
      "code": "88192",
      "codesPostaux": ["88270"],
      "centre": {
        "type": "Point",
        "coordinates": [6.1794, 48.2001]
      },
      "mairie": {
        "type": "Point",
        "coordinates": [6.164, 48.1998]
      },
      "population": 107,
      "surface": 380.78,
      "radius": 1.1
    },
    {
      "nom": "Gemaingoutte",
      "code": "88193",
      "codesPostaux": ["88520"],
      "centre": {
        "type": "Point",
        "coordinates": [7.1046, 48.2448]
      },
      "mairie": {
        "type": "Point",
        "coordinates": [7.0862, 48.2537]
      },
      "population": 152,
      "surface": 389.49,
      "radius": 1.11
    },
    {
      "nom": "Gemmelaincourt",
      "code": "88194",
      "codesPostaux": ["88170"],
      "centre": {
        "type": "Point",
        "coordinates": [5.9683, 48.2756]
      },
      "mairie": {
        "type": "Point",
        "coordinates": [5.9665, 48.2764]
      },
      "population": 126,
      "surface": 742.7,
      "radius": 1.54
    },
    {
      "nom": "Gendreville",
      "code": "88195",
      "codesPostaux": ["88140"],
      "centre": {
        "type": "Point",
        "coordinates": [5.716, 48.2349]
      },
      "mairie": {
        "type": "Point",
        "coordinates": [5.717, 48.2359]
      },
      "population": 104,
      "surface": 814.86,
      "radius": 1.61
    },
    {
      "nom": "Gérardmer",
      "code": "88196",
      "codesPostaux": ["88400"],
      "centre": {
        "type": "Point",
        "coordinates": [6.8531, 48.0658]
      },
      "mairie": {
        "type": "Point",
        "coordinates": [6.8773, 48.0701]
      },
      "population": 7685,
      "surface": 5561.24,
      "radius": 4.21
    },
    {
      "nom": "Gerbamont",
      "code": "88197",
      "codesPostaux": ["88120"],
      "centre": {
        "type": "Point",
        "coordinates": [6.7693, 48.0039]
      },
      "mairie": {
        "type": "Point",
        "coordinates": [6.7522, 48.0038]
      },
      "population": 353,
      "surface": 976.15,
      "radius": 1.76
    },
    {
      "nom": "Gerbépal",
      "code": "88198",
      "codesPostaux": ["88430"],
      "centre": {
        "type": "Point",
        "coordinates": [6.9255, 48.1299]
      },
      "mairie": {
        "type": "Point",
        "coordinates": [6.9207, 48.1492]
      },
      "population": 537,
      "surface": 1930.47,
      "radius": 2.48
    },
    {
      "nom": "Gignéville",
      "code": "88199",
      "codesPostaux": ["88320"],
      "centre": {
        "type": "Point",
        "coordinates": [5.9189, 48.1127]
      },
      "mairie": {
        "type": "Point",
        "coordinates": [5.913, 48.1068]
      },
      "population": 76,
      "surface": 560.09,
      "radius": 1.34
    },
    {
      "nom": "Gigney",
      "code": "88200",
      "codesPostaux": ["88390"],
      "centre": {
        "type": "Point",
        "coordinates": [6.3371, 48.2301]
      },
      "mairie": {
        "type": "Point",
        "coordinates": [6.3378, 48.2304]
      },
      "population": 58,
      "surface": 516.13,
      "radius": 1.28
    },
    {
      "nom": "Girancourt",
      "code": "88201",
      "codesPostaux": ["88390"],
      "centre": {
        "type": "Point",
        "coordinates": [6.3242, 48.1456]
      },
      "mairie": {
        "type": "Point",
        "coordinates": [6.3112, 48.1619]
      },
      "population": 873,
      "surface": 1771.02,
      "radius": 2.37
    },
    {
      "nom": "Gircourt-lès-Viéville",
      "code": "88202",
      "codesPostaux": ["88500"],
      "centre": {
        "type": "Point",
        "coordinates": [6.1956, 48.3415]
      },
      "mairie": {
        "type": "Point",
        "coordinates": [6.1929, 48.3415]
      },
      "population": 195,
      "surface": 871.13,
      "radius": 1.67
    },
    {
      "nom": "Girecourt-sur-Durbion",
      "code": "88203",
      "codesPostaux": ["88600"],
      "centre": {
        "type": "Point",
        "coordinates": [6.5978, 48.2484]
      },
      "mairie": {
        "type": "Point",
        "coordinates": [6.6008, 48.2465]
      },
      "population": 353,
      "surface": 691.1,
      "radius": 1.48
    },
    {
      "nom": "Girmont-Val-d'Ajol",
      "code": "88205",
      "codesPostaux": ["88340"],
      "centre": {
        "type": "Point",
        "coordinates": [6.5656, 47.9501]
      },
      "mairie": {
        "type": "Point",
        "coordinates": [6.5583, 47.9546]
      },
      "population": 256,
      "surface": 1670.27,
      "radius": 2.31
    },
    {
      "nom": "Gironcourt-sur-Vraine",
      "code": "88206",
      "codesPostaux": ["88170"],
      "centre": {
        "type": "Point",
        "coordinates": [5.9316, 48.2998]
      },
      "mairie": {
        "type": "Point",
        "coordinates": [5.9308, 48.3113]
      },
      "population": 858,
      "surface": 748.93,
      "radius": 1.54
    },
    {
      "nom": "Godoncourt",
      "code": "88208",
      "codesPostaux": ["88410"],
      "centre": {
        "type": "Point",
        "coordinates": [5.9306, 47.9968]
      },
      "mairie": {
        "type": "Point",
        "coordinates": [5.9226, 47.9987]
      },
      "population": 116,
      "surface": 1164.21,
      "radius": 1.93
    },
    {
      "nom": "Golbey",
      "code": "88209",
      "codesPostaux": ["88190"],
      "centre": {
        "type": "Point",
        "coordinates": [6.4258, 48.1987]
      },
      "mairie": {
        "type": "Point",
        "coordinates": [6.4404, 48.1973]
      },
      "population": 8827,
      "surface": 947.47,
      "radius": 1.74
    },
    {
      "nom": "Gorhey",
      "code": "88210",
      "codesPostaux": ["88270"],
      "centre": {
        "type": "Point",
        "coordinates": [6.2941, 48.1899]
      },
      "mairie": {
        "type": "Point",
        "coordinates": [6.2834, 48.1943]
      },
      "population": 169,
      "surface": 634.68,
      "radius": 1.42
    },
    {
      "nom": "Grand",
      "code": "88212",
      "codesPostaux": ["88350"],
      "centre": {
        "type": "Point",
        "coordinates": [5.4732, 48.3946]
      },
      "mairie": {
        "type": "Point",
        "coordinates": [5.4863, 48.3852]
      },
      "population": 364,
      "surface": 3664.43,
      "radius": 3.42
    },
    {
      "nom": "Grandrupt",
      "code": "88215",
      "codesPostaux": ["88210"],
      "centre": {
        "type": "Point",
        "coordinates": [7.0608, 48.3666]
      },
      "mairie": {
        "type": "Point",
        "coordinates": [7.0666, 48.3741]
      },
      "population": 75,
      "surface": 634.77,
      "radius": 1.42
    },
    {
      "nom": "Grandrupt-de-Bains",
      "code": "88214",
      "codesPostaux": ["88240"],
      "centre": {
        "type": "Point",
        "coordinates": [6.179, 48.0644]
      },
      "mairie": {
        "type": "Point",
        "coordinates": [6.1864, 48.0656]
      },
      "population": 70,
      "surface": 357.62,
      "radius": 1.07
    },
    {
      "nom": "Grandvillers",
      "code": "88216",
      "codesPostaux": ["88600"],
      "centre": {
        "type": "Point",
        "coordinates": [6.6794, 48.2359]
      },
      "mairie": {
        "type": "Point",
        "coordinates": [6.667, 48.2389]
      },
      "population": 724,
      "surface": 1749.6,
      "radius": 2.36
    },
    {
      "nom": "Granges-Aumontzey",
      "code": "88218",
      "codesPostaux": ["88640"],
      "centre": {
        "type": "Point",
        "coordinates": [6.8151, 48.1342]
      },
      "mairie": {
        "type": "Point",
        "coordinates": [6.7893, 48.1447]
      },
      "population": 2560,
      "surface": 3324.86,
      "radius": 3.25
    },
    {
      "nom": "Greux",
      "code": "88219",
      "codesPostaux": ["88630"],
      "centre": {
        "type": "Point",
        "coordinates": [5.6665, 48.4581]
      },
      "mairie": {
        "type": "Point",
        "coordinates": [5.6772, 48.4505]
      },
      "population": 132,
      "surface": 811.84,
      "radius": 1.61
    },
    {
      "nom": "Grignoncourt",
      "code": "88220",
      "codesPostaux": ["88410"],
      "centre": {
        "type": "Point",
        "coordinates": [5.904, 47.9602]
      },
      "mairie": {
        "type": "Point",
        "coordinates": [5.9069, 47.9581]
      },
      "population": 47,
      "surface": 536.99,
      "radius": 1.31
    },
    {
      "nom": "Gruey-lès-Surance",
      "code": "88221",
      "codesPostaux": ["88240"],
      "centre": {
        "type": "Point",
        "coordinates": [6.1777, 48.0346]
      },
      "mairie": {
        "type": "Point",
        "coordinates": [6.1843, 48.0386]
      },
      "population": 210,
      "surface": 2705.5,
      "radius": 2.93
    },
    {
      "nom": "Gugnécourt",
      "code": "88222",
      "codesPostaux": ["88600"],
      "centre": {
        "type": "Point",
        "coordinates": [6.6244, 48.2465]
      },
      "mairie": {
        "type": "Point",
        "coordinates": [6.6239, 48.2435]
      },
      "population": 228,
      "surface": 512.4,
      "radius": 1.28
    },
    {
      "nom": "Gugney-aux-Aulx",
      "code": "88223",
      "codesPostaux": ["88450"],
      "centre": {
        "type": "Point",
        "coordinates": [6.2738, 48.2982]
      },
      "mairie": {
        "type": "Point",
        "coordinates": [6.2689, 48.3045]
      },
      "population": 171,
      "surface": 868.87,
      "radius": 1.66
    },
    {
      "nom": "Hadigny-les-Verrières",
      "code": "88224",
      "codesPostaux": ["88330"],
      "centre": {
        "type": "Point",
        "coordinates": [6.4754, 48.3207]
      },
      "mairie": {
        "type": "Point",
        "coordinates": [6.4624, 48.3233]
      },
      "population": 378,
      "surface": 1403.95,
      "radius": 2.11
    },
    {
      "nom": "Hadol",
      "code": "88225",
      "codesPostaux": ["88220"],
      "centre": {
        "type": "Point",
        "coordinates": [6.4475, 48.0845]
      },
      "mairie": {
        "type": "Point",
        "coordinates": [6.4786, 48.0914]
      },
      "population": 2331,
      "surface": 4916.68,
      "radius": 3.96
    },
    {
      "nom": "Hagécourt",
      "code": "88226",
      "codesPostaux": ["88270"],
      "centre": {
        "type": "Point",
        "coordinates": [6.1555, 48.2311]
      },
      "mairie": {
        "type": "Point",
        "coordinates": [6.1539, 48.2351]
      },
      "population": 128,
      "surface": 762.42,
      "radius": 1.56
    },
    {
      "nom": "Hagnéville-et-Roncourt",
      "code": "88227",
      "codesPostaux": ["88300"],
      "centre": {
        "type": "Point",
        "coordinates": [5.7871, 48.2459]
      },
      "mairie": {
        "type": "Point",
        "coordinates": [5.7985, 48.254]
      },
      "population": 81,
      "surface": 855.51,
      "radius": 1.65
    },
    {
      "nom": "Haillainville",
      "code": "88228",
      "codesPostaux": ["88330"],
      "centre": {
        "type": "Point",
        "coordinates": [6.4964, 48.3968]
      },
      "mairie": {
        "type": "Point",
        "coordinates": [6.481, 48.3937]
      },
      "population": 181,
      "surface": 1253.18,
      "radius": 2
    },
    {
      "nom": "Harchéchamp",
      "code": "88229",
      "codesPostaux": ["88300"],
      "centre": {
        "type": "Point",
        "coordinates": [5.8015, 48.4074]
      },
      "mairie": {
        "type": "Point",
        "coordinates": [5.779, 48.3876]
      },
      "population": 87,
      "surface": 744.82,
      "radius": 1.54
    },
    {
      "nom": "Hardancourt",
      "code": "88230",
      "codesPostaux": ["88700"],
      "centre": {
        "type": "Point",
        "coordinates": [6.5601, 48.3794]
      },
      "mairie": {
        "type": "Point",
        "coordinates": [6.569, 48.3784]
      },
      "population": 35,
      "surface": 333.92,
      "radius": 1.03
    },
    {
      "nom": "Haréville",
      "code": "88231",
      "codesPostaux": ["88800"],
      "centre": {
        "type": "Point",
        "coordinates": [6.0188, 48.2025]
      },
      "mairie": {
        "type": "Point",
        "coordinates": [5.9991, 48.2064]
      },
      "population": 470,
      "surface": 656.94,
      "radius": 1.45
    },
    {
      "nom": "Harmonville",
      "code": "88232",
      "codesPostaux": ["88300"],
      "centre": {
        "type": "Point",
        "coordinates": [5.8698, 48.4618]
      },
      "mairie": {
        "type": "Point",
        "coordinates": [5.8594, 48.4774]
      },
      "population": 210,
      "surface": 1520.14,
      "radius": 2.2
    },
    {
      "nom": "Harol",
      "code": "88233",
      "codesPostaux": ["88270"],
      "centre": {
        "type": "Point",
        "coordinates": [6.2492, 48.1465]
      },
      "mairie": {
        "type": "Point",
        "coordinates": [6.2471, 48.1544]
      },
      "population": 627,
      "surface": 2734.88,
      "radius": 2.95
    },
    {
      "nom": "Hennecourt",
      "code": "88237",
      "codesPostaux": ["88270"],
      "centre": {
        "type": "Point",
        "coordinates": [6.2902, 48.218]
      },
      "mairie": {
        "type": "Point",
        "coordinates": [6.2856, 48.2072]
      },
      "population": 342,
      "surface": 717.43,
      "radius": 1.51
    },
    {
      "nom": "Hennezel",
      "code": "88238",
      "codesPostaux": ["88260"],
      "centre": {
        "type": "Point",
        "coordinates": [6.1137, 48.0488]
      },
      "mairie": {
        "type": "Point",
        "coordinates": [6.1199, 48.0547]
      },
      "population": 387,
      "surface": 3211.65,
      "radius": 3.2
    },
    {
      "nom": "Hergugney",
      "code": "88239",
      "codesPostaux": ["88130"],
      "centre": {
        "type": "Point",
        "coordinates": [6.2104, 48.3897]
      },
      "mairie": {
        "type": "Point",
        "coordinates": [6.1986, 48.3858]
      },
      "population": 130,
      "surface": 545.62,
      "radius": 1.32
    },
    {
      "nom": "Herpelmont",
      "code": "88240",
      "codesPostaux": ["88600"],
      "centre": {
        "type": "Point",
        "coordinates": [6.7312, 48.1663]
      },
      "mairie": {
        "type": "Point",
        "coordinates": [6.7415, 48.1683]
      },
      "population": 268,
      "surface": 566.56,
      "radius": 1.34
    },
    {
      "nom": "Houécourt",
      "code": "88241",
      "codesPostaux": ["88170"],
      "centre": {
        "type": "Point",
        "coordinates": [5.8977, 48.2915]
      },
      "mairie": {
        "type": "Point",
        "coordinates": [5.8922, 48.3]
      },
      "population": 424,
      "surface": 987.97,
      "radius": 1.77
    },
    {
      "nom": "Houéville",
      "code": "88242",
      "codesPostaux": ["88300"],
      "centre": {
        "type": "Point",
        "coordinates": [5.8074, 48.3703]
      },
      "mairie": {
        "type": "Point",
        "coordinates": [5.8102, 48.3745]
      },
      "population": 43,
      "surface": 322.25,
      "radius": 1.01
    },
    {
      "nom": "Housseras",
      "code": "88243",
      "codesPostaux": ["88700"],
      "centre": {
        "type": "Point",
        "coordinates": [6.7322, 48.307]
      },
      "mairie": {
        "type": "Point",
        "coordinates": [6.7129, 48.3104]
      },
      "population": 489,
      "surface": 1959.03,
      "radius": 2.5
    },
    {
      "nom": "Hurbache",
      "code": "88245",
      "codesPostaux": ["88210"],
      "centre": {
        "type": "Point",
        "coordinates": [6.9295, 48.3439]
      },
      "mairie": {
        "type": "Point",
        "coordinates": [6.9347, 48.35]
      },
      "population": 291,
      "surface": 995.98,
      "radius": 1.78
    },
    {
      "nom": "Hymont",
      "code": "88246",
      "codesPostaux": ["88500"],
      "centre": {
        "type": "Point",
        "coordinates": [6.136, 48.2635]
      },
      "mairie": {
        "type": "Point",
        "coordinates": [6.1413, 48.2655]
      },
      "population": 488,
      "surface": 420.97,
      "radius": 1.16
    },
    {
      "nom": "Igney",
      "code": "88247",
      "codesPostaux": ["88150"],
      "centre": {
        "type": "Point",
        "coordinates": [6.3934, 48.2767]
      },
      "mairie": {
        "type": "Point",
        "coordinates": [6.3972, 48.2732]
      },
      "population": 1143,
      "surface": 782.35,
      "radius": 1.58
    },
    {
      "nom": "Isches",
      "code": "88248",
      "codesPostaux": ["88320"],
      "centre": {
        "type": "Point",
        "coordinates": [5.8203, 48.0178]
      },
      "mairie": {
        "type": "Point",
        "coordinates": [5.8299, 48.0186]
      },
      "population": 172,
      "surface": 1353.98,
      "radius": 2.08
    },
    {
      "nom": "Jainvillotte",
      "code": "88249",
      "codesPostaux": ["88300"],
      "centre": {
        "type": "Point",
        "coordinates": [5.704, 48.2573]
      },
      "mairie": {
        "type": "Point",
        "coordinates": [5.697, 48.2576]
      },
      "population": 72,
      "surface": 741.54,
      "radius": 1.54
    },
    {
      "nom": "Jarménil",
      "code": "88250",
      "codesPostaux": ["88550"],
      "centre": {
        "type": "Point",
        "coordinates": [6.593, 48.1154]
      },
      "mairie": {
        "type": "Point",
        "coordinates": [6.5727, 48.1132]
      },
      "population": 437,
      "surface": 523.09,
      "radius": 1.29
    },
    {
      "nom": "Jeanménil",
      "code": "88251",
      "codesPostaux": ["88700"],
      "centre": {
        "type": "Point",
        "coordinates": [6.7228, 48.3295]
      },
      "mairie": {
        "type": "Point",
        "coordinates": [6.6896, 48.3354]
      },
      "population": 1108,
      "surface": 1828.9,
      "radius": 2.41
    },
    {
      "nom": "Jésonville",
      "code": "88252",
      "codesPostaux": ["88260"],
      "centre": {
        "type": "Point",
        "coordinates": [6.1149, 48.124]
      },
      "mairie": {
        "type": "Point",
        "coordinates": [6.1102, 48.1288]
      },
      "population": 151,
      "surface": 701.04,
      "radius": 1.49
    },
    {
      "nom": "Jeuxey",
      "code": "88253",
      "codesPostaux": ["88000"],
      "centre": {
        "type": "Point",
        "coordinates": [6.4918, 48.2033]
      },
      "mairie": {
        "type": "Point",
        "coordinates": [6.4882, 48.2007]
      },
      "population": 663,
      "surface": 854.84,
      "radius": 1.65
    },
    {
      "nom": "Jorxey",
      "code": "88254",
      "codesPostaux": ["88500"],
      "centre": {
        "type": "Point",
        "coordinates": [6.2363, 48.3064]
      },
      "mairie": {
        "type": "Point",
        "coordinates": [6.2383, 48.3035]
      },
      "population": 81,
      "surface": 541.64,
      "radius": 1.31
    },
    {
      "nom": "Jubainville",
      "code": "88255",
      "codesPostaux": ["88630"],
      "centre": {
        "type": "Point",
        "coordinates": [5.7508, 48.4572]
      },
      "mairie": {
        "type": "Point",
        "coordinates": [5.7426, 48.46]
      },
      "population": 89,
      "surface": 434.56,
      "radius": 1.18
    },
    {
      "nom": "Jussarupt",
      "code": "88256",
      "codesPostaux": ["88640"],
      "centre": {
        "type": "Point",
        "coordinates": [6.747, 48.1576]
      },
      "mairie": {
        "type": "Point",
        "coordinates": [6.7542, 48.1639]
      },
      "population": 260,
      "surface": 659.04,
      "radius": 1.45
    },
    {
      "nom": "Juvaincourt",
      "code": "88257",
      "codesPostaux": ["88500"],
      "centre": {
        "type": "Point",
        "coordinates": [6.0631, 48.3328]
      },
      "mairie": {
        "type": "Point",
        "coordinates": [6.0581, 48.3311]
      },
      "population": 183,
      "surface": 892.58,
      "radius": 1.69
    },
    {
      "nom": "La Baffe",
      "code": "88028",
      "codesPostaux": ["88460"],
      "centre": {
        "type": "Point",
        "coordinates": [6.5584, 48.165]
      },
      "mairie": {
        "type": "Point",
        "coordinates": [6.5752, 48.1611]
      },
      "population": 621,
      "surface": 902.2,
      "radius": 1.69
    },
    {
      "nom": "La Bourgonce",
      "code": "88068",
      "codesPostaux": ["88470"],
      "centre": {
        "type": "Point",
        "coordinates": [6.8129, 48.3013]
      },
      "mairie": {
        "type": "Point",
        "coordinates": [6.8273, 48.3112]
      },
      "population": 862,
      "surface": 1664.05,
      "radius": 2.3
    },
    {
      "nom": "La Bresse",
      "code": "88075",
      "codesPostaux": ["88250"],
      "centre": {
        "type": "Point",
        "coordinates": [6.9202, 48.0211]
      },
      "mairie": {
        "type": "Point",
        "coordinates": [6.8738, 48.0039]
      },
      "population": 3947,
      "surface": 5801.26,
      "radius": 4.3
    },
    {
      "nom": "La Chapelle-aux-Bois",
      "code": "88088",
      "codesPostaux": ["88240"],
      "centre": {
        "type": "Point",
        "coordinates": [6.3231, 48.03]
      },
      "mairie": {
        "type": "Point",
        "coordinates": [6.3312, 48.0371]
      },
      "population": 672,
      "surface": 3098.45,
      "radius": 3.14
    },
    {
      "nom": "La Chapelle-devant-Bruyères",
      "code": "88089",
      "codesPostaux": ["88600"],
      "centre": {
        "type": "Point",
        "coordinates": [6.8037, 48.1778]
      },
      "mairie": {
        "type": "Point",
        "coordinates": [6.7851, 48.1847]
      },
      "population": 549,
      "surface": 2045.32,
      "radius": 2.55
    },
    {
      "nom": "La Croix-aux-Mines",
      "code": "88120",
      "codesPostaux": ["88520"],
      "centre": {
        "type": "Point",
        "coordinates": [7.0675, 48.2037]
      },
      "mairie": {
        "type": "Point",
        "coordinates": [7.0522, 48.22]
      },
      "population": 456,
      "surface": 1670.23,
      "radius": 2.31
    },
    {
      "nom": "La Forge",
      "code": "88177",
      "codesPostaux": ["88530"],
      "centre": {
        "type": "Point",
        "coordinates": [6.7201, 48.0696]
      },
      "mairie": {
        "type": "Point",
        "coordinates": [6.7242, 48.0655]
      },
      "population": 515,
      "surface": 468.39,
      "radius": 1.22
    },
    {
      "nom": "La Grande-Fosse",
      "code": "88213",
      "codesPostaux": ["88490"],
      "centre": {
        "type": "Point",
        "coordinates": [7.0794, 48.3415]
      },
      "mairie": {
        "type": "Point",
        "coordinates": [7.0693, 48.3389]
      },
      "population": 130,
      "surface": 672.43,
      "radius": 1.46
    },
    {
      "nom": "La Haye",
      "code": "88236",
      "codesPostaux": ["88240"],
      "centre": {
        "type": "Point",
        "coordinates": [6.1983, 48.061]
      },
      "mairie": {
        "type": "Point",
        "coordinates": [6.2257, 48.0634]
      },
      "population": 134,
      "surface": 742,
      "radius": 1.54
    },
    {
      "nom": "La Houssière",
      "code": "88244",
      "codesPostaux": ["88430"],
      "centre": {
        "type": "Point",
        "coordinates": [6.8642, 48.2092]
      },
      "mairie": {
        "type": "Point",
        "coordinates": [6.8543, 48.1952]
      },
      "population": 509,
      "surface": 1972.72,
      "radius": 2.51
    },
    {
      "nom": "La Neuveville-devant-Lépanges",
      "code": "88322",
      "codesPostaux": ["88600"],
      "centre": {
        "type": "Point",
        "coordinates": [6.6618, 48.1545]
      },
      "mairie": {
        "type": "Point",
        "coordinates": [6.6632, 48.1599]
      },
      "population": 502,
      "surface": 881.73,
      "radius": 1.68
    },
    {
      "nom": "La Neuveville-sous-Châtenois",
      "code": "88324",
      "codesPostaux": ["88170"],
      "centre": {
        "type": "Point",
        "coordinates": [5.874, 48.2862]
      },
      "mairie": {
        "type": "Point",
        "coordinates": [5.8763, 48.2929]
      },
      "population": 368,
      "surface": 744.57,
      "radius": 1.54
    },
    {
      "nom": "La Neuveville-sous-Montfort",
      "code": "88325",
      "codesPostaux": ["88800"],
      "centre": {
        "type": "Point",
        "coordinates": [6.0196, 48.23]
      },
      "mairie": {
        "type": "Point",
        "coordinates": [6.0191, 48.2254]
      },
      "population": 182,
      "surface": 1034.12,
      "radius": 1.81
    },
    {
      "nom": "La Petite-Fosse",
      "code": "88345",
      "codesPostaux": ["88490"],
      "centre": {
        "type": "Point",
        "coordinates": [7.0526, 48.3184]
      },
      "mairie": {
        "type": "Point",
        "coordinates": [7.0542, 48.3214]
      },
      "population": 84,
      "surface": 503.15,
      "radius": 1.27
    },
    {
      "nom": "La Petite-Raon",
      "code": "88346",
      "codesPostaux": ["88210"],
      "centre": {
        "type": "Point",
        "coordinates": [6.994, 48.4205]
      },
      "mairie": {
        "type": "Point",
        "coordinates": [6.994, 48.4058]
      },
      "population": 737,
      "surface": 890.79,
      "radius": 1.68
    },
    {
      "nom": "La Salle",
      "code": "88438",
      "codesPostaux": ["88470"],
      "centre": {
        "type": "Point",
        "coordinates": [6.8099, 48.3241]
      },
      "mairie": {
        "type": "Point",
        "coordinates": [6.8267, 48.3231]
      },
      "population": 398,
      "surface": 461.26,
      "radius": 1.21
    },
    {
      "nom": "La Vacheresse-et-la-Rouillie",
      "code": "88485",
      "codesPostaux": ["88140"],
      "centre": {
        "type": "Point",
        "coordinates": [5.7952, 48.1469]
      },
      "mairie": {
        "type": "Point",
        "coordinates": [5.7868, 48.1498]
      },
      "population": 128,
      "surface": 940.02,
      "radius": 1.73
    },
    {
      "nom": "La Vôge-les-Bains",
      "code": "88029",
      "codesPostaux": ["88240"],
      "centre": {
        "type": "Point",
        "coordinates": [6.2543, 48.017]
      },
      "mairie": {
        "type": "Point",
        "coordinates": [6.2645, 48.0014]
      },
      "population": 1556,
      "surface": 4454.16,
      "radius": 3.77
    },
    {
      "nom": "La Voivre",
      "code": "88519",
      "codesPostaux": ["88470"],
      "centre": {
        "type": "Point",
        "coordinates": [6.9006, 48.3436]
      },
      "mairie": {
        "type": "Point",
        "coordinates": [6.8998, 48.3347]
      },
      "population": 656,
      "surface": 584.36,
      "radius": 1.36
    },
    {
      "nom": "Lamarche",
      "code": "88258",
      "codesPostaux": ["88320"],
      "centre": {
        "type": "Point",
        "coordinates": [5.7727, 48.0617]
      },
      "mairie": {
        "type": "Point",
        "coordinates": [5.7815, 48.0691]
      },
      "population": 814,
      "surface": 3366.32,
      "radius": 3.27
    },
    {
      "nom": "Landaville",
      "code": "88259",
      "codesPostaux": ["88300"],
      "centre": {
        "type": "Point",
        "coordinates": [5.7467, 48.2841]
      },
      "mairie": {
        "type": "Point",
        "coordinates": [5.7439, 48.2888]
      },
      "population": 291,
      "surface": 1320.77,
      "radius": 2.05
    },
    {
      "nom": "Langley",
      "code": "88260",
      "codesPostaux": ["88130"],
      "centre": {
        "type": "Point",
        "coordinates": [6.3319, 48.3605]
      },
      "mairie": {
        "type": "Point",
        "coordinates": [6.3251, 48.3593]
      },
      "population": 144,
      "surface": 270.42,
      "radius": 0.93
    },
    {
      "nom": "Laval-sur-Vologne",
      "code": "88261",
      "codesPostaux": ["88600"],
      "centre": {
        "type": "Point",
        "coordinates": [6.6883, 48.1953]
      },
      "mairie": {
        "type": "Point",
        "coordinates": [6.7024, 48.194]
      },
      "population": 630,
      "surface": 368.54,
      "radius": 1.08
    },
    {
      "nom": "Laveline-devant-Bruyères",
      "code": "88262",
      "codesPostaux": ["88600"],
      "centre": {
        "type": "Point",
        "coordinates": [6.7574, 48.1866]
      },
      "mairie": {
        "type": "Point",
        "coordinates": [6.7575, 48.184]
      },
      "population": 578,
      "surface": 311.1,
      "radius": 1
    },
    {
      "nom": "Laveline-du-Houx",
      "code": "88263",
      "codesPostaux": ["88640"],
      "centre": {
        "type": "Point",
        "coordinates": [6.7091, 48.1397]
      },
      "mairie": {
        "type": "Point",
        "coordinates": [6.6999, 48.1373]
      },
      "population": 207,
      "surface": 832.72,
      "radius": 1.63
    },
    {
      "nom": "Le Beulay",
      "code": "88057",
      "codesPostaux": ["88490"],
      "centre": {
        "type": "Point",
        "coordinates": [7.0651, 48.3048]
      },
      "mairie": {
        "type": "Point",
        "coordinates": [7.0718, 48.3006]
      },
      "population": 90,
      "surface": 240.5,
      "radius": 0.87
    },
    {
      "nom": "Le Clerjus",
      "code": "88108",
      "codesPostaux": ["88240"],
      "centre": {
        "type": "Point",
        "coordinates": [6.3306, 47.979]
      },
      "mairie": {
        "type": "Point",
        "coordinates": [6.3225, 47.9598]
      },
      "population": 463,
      "surface": 3270.96,
      "radius": 3.23
    },
    {
      "nom": "Le Ménil",
      "code": "88302",
      "codesPostaux": ["88160"],
      "centre": {
        "type": "Point",
        "coordinates": [6.8206, 47.9165]
      },
      "mairie": {
        "type": "Point",
        "coordinates": [6.7833, 47.9076]
      },
      "population": 984,
      "surface": 2031.36,
      "radius": 2.54
    },
    {
      "nom": "Le Mont",
      "code": "88306",
      "codesPostaux": ["88210"],
      "centre": {
        "type": "Point",
        "coordinates": [7.0243, 48.4114]
      },
      "mairie": {
        "type": "Point",
        "coordinates": [7.0277, 48.4097]
      },
      "population": 52,
      "surface": 393.98,
      "radius": 1.12
    },
    {
      "nom": "Le Puid",
      "code": "88362",
      "codesPostaux": ["88210"],
      "centre": {
        "type": "Point",
        "coordinates": [7.0441, 48.3907]
      },
      "mairie": {
        "type": "Point",
        "coordinates": [7.0439, 48.392]
      },
      "population": 118,
      "surface": 540.16,
      "radius": 1.31
    },
    {
      "nom": "Le Roulier",
      "code": "88399",
      "codesPostaux": ["88460"],
      "centre": {
        "type": "Point",
        "coordinates": [6.6159, 48.1747]
      },
      "mairie": {
        "type": "Point",
        "coordinates": [6.6188, 48.1686]
      },
      "population": 210,
      "surface": 568.81,
      "radius": 1.35
    },
    {
      "nom": "Le Saulcy",
      "code": "88444",
      "codesPostaux": ["88210"],
      "centre": {
        "type": "Point",
        "coordinates": [7.07, 48.423]
      },
      "mairie": {
        "type": "Point",
        "coordinates": [7.0375, 48.4124]
      },
      "population": 297,
      "surface": 988.64,
      "radius": 1.77
    },
    {
      "nom": "Le Syndicat",
      "code": "88462",
      "codesPostaux": ["88120"],
      "centre": {
        "type": "Point",
        "coordinates": [6.6948, 48.0275]
      },
      "mairie": {
        "type": "Point",
        "coordinates": [6.6841, 48.0253]
      },
      "population": 1859,
      "surface": 1827.75,
      "radius": 2.41
    },
    {
      "nom": "Le Thillot",
      "code": "88468",
      "codesPostaux": ["88160"],
      "centre": {
        "type": "Point",
        "coordinates": [6.7775, 47.8827]
      },
      "mairie": {
        "type": "Point",
        "coordinates": [6.7631, 47.8802]
      },
      "population": 3198,
      "surface": 1519.95,
      "radius": 2.2
    },
    {
      "nom": "Le Tholy",
      "code": "88470",
      "codesPostaux": ["88530"],
      "centre": {
        "type": "Point",
        "coordinates": [6.7373, 48.0862]
      },
      "mairie": {
        "type": "Point",
        "coordinates": [6.7439, 48.0829]
      },
      "population": 1495,
      "surface": 3070.1,
      "radius": 3.13
    },
    {
      "nom": "Le Val-d'Ajol",
      "code": "88487",
      "codesPostaux": ["88340"],
      "centre": {
        "type": "Point",
        "coordinates": [6.5128, 47.9387]
      },
      "mairie": {
        "type": "Point",
        "coordinates": [6.4839, 47.9262]
      },
      "population": 3873,
      "surface": 7324.7,
      "radius": 4.83
    },
    {
      "nom": "Le Valtin",
      "code": "88492",
      "codesPostaux": ["88230"],
      "centre": {
        "type": "Point",
        "coordinates": [7.0347, 48.0848]
      },
      "mairie": {
        "type": "Point",
        "coordinates": [7.0205, 48.0967]
      },
      "population": 74,
      "surface": 1964.54,
      "radius": 2.5
    },
    {
      "nom": "Le Vermont",
      "code": "88501",
      "codesPostaux": ["88210"],
      "centre": {
        "type": "Point",
        "coordinates": [7.0672, 48.3884]
      },
      "mairie": {
        "type": "Point",
        "coordinates": [7.0556, 48.3871]
      },
      "population": 73,
      "surface": 436.76,
      "radius": 1.18
    },
    {
      "nom": "Légéville-et-Bonfays",
      "code": "88264",
      "codesPostaux": ["88270"],
      "centre": {
        "type": "Point",
        "coordinates": [6.1546, 48.1857]
      },
      "mairie": {
        "type": "Point",
        "coordinates": [6.1515, 48.1867]
      },
      "population": 63,
      "surface": 519.8,
      "radius": 1.29
    },
    {
      "nom": "Lemmecourt",
      "code": "88265",
      "codesPostaux": ["88300"],
      "centre": {
        "type": "Point",
        "coordinates": [5.7328, 48.2635]
      },
      "mairie": {
        "type": "Point",
        "coordinates": [5.7377, 48.2617]
      },
      "population": 24,
      "surface": 184.47,
      "radius": 0.77
    },
    {
      "nom": "Lépanges-sur-Vologne",
      "code": "88266",
      "codesPostaux": ["88600"],
      "centre": {
        "type": "Point",
        "coordinates": [6.6691, 48.18]
      },
      "mairie": {
        "type": "Point",
        "coordinates": [6.6684, 48.1734]
      },
      "population": 838,
      "surface": 767.4,
      "radius": 1.56
    },
    {
      "nom": "Lerrain",
      "code": "88267",
      "codesPostaux": ["88260"],
      "centre": {
        "type": "Point",
        "coordinates": [6.1457, 48.1325]
      },
      "mairie": {
        "type": "Point",
        "coordinates": [6.1504, 48.1464]
      },
      "population": 456,
      "surface": 1267.33,
      "radius": 2.01
    },
    {
      "nom": "Les Ableuvenettes",
      "code": "88001",
      "codesPostaux": ["88270"],
      "centre": {
        "type": "Point",
        "coordinates": [6.1937, 48.191]
      },
      "mairie": {
        "type": "Point",
        "coordinates": [6.1861, 48.1902]
      },
      "population": 67,
      "surface": 451.73,
      "radius": 1.2
    },
    {
      "nom": "Les Forges",
      "code": "88178",
      "codesPostaux": ["88390"],
      "centre": {
        "type": "Point",
        "coordinates": [6.394, 48.1739]
      },
      "mairie": {
        "type": "Point",
        "coordinates": [6.388, 48.1783]
      },
      "population": 1779,
      "surface": 709.85,
      "radius": 1.5
    },
    {
      "nom": "Les Poulières",
      "code": "88356",
      "codesPostaux": ["88600"],
      "centre": {
        "type": "Point",
        "coordinates": [6.786, 48.2036]
      },
      "mairie": {
        "type": "Point",
        "coordinates": [6.7938, 48.1987]
      },
      "population": 302,
      "surface": 301.45,
      "radius": 0.98
    },
    {
      "nom": "Les Rouges-Eaux",
      "code": "88398",
      "codesPostaux": ["88600"],
      "centre": {
        "type": "Point",
        "coordinates": [6.8139, 48.2637]
      },
      "mairie": {
        "type": "Point",
        "coordinates": [6.8017, 48.2626]
      },
      "population": 79,
      "surface": 597.81,
      "radius": 1.38
    },
    {
      "nom": "Les Thons",
      "code": "88471",
      "codesPostaux": ["88410"],
      "centre": {
        "type": "Point",
        "coordinates": [5.8749, 47.9867]
      },
      "mairie": {
        "type": "Point",
        "coordinates": [5.886, 47.9895]
      },
      "population": 97,
      "surface": 1013.91,
      "radius": 1.8
    },
    {
      "nom": "Les Vallois",
      "code": "88491",
      "codesPostaux": ["88260"],
      "centre": {
        "type": "Point",
        "coordinates": [6.1228, 48.1585]
      },
      "mairie": {
        "type": "Point",
        "coordinates": [6.1222, 48.1573]
      },
      "population": 124,
      "surface": 528.85,
      "radius": 1.3
    },
    {
      "nom": "Les Voivres",
      "code": "88520",
      "codesPostaux": ["88240"],
      "centre": {
        "type": "Point",
        "coordinates": [6.2931, 48.0312]
      },
      "mairie": {
        "type": "Point",
        "coordinates": [6.2956, 48.0314]
      },
      "population": 285,
      "surface": 1285.39,
      "radius": 2.02
    },
    {
      "nom": "Lesseux",
      "code": "88268",
      "codesPostaux": ["88490"],
      "centre": {
        "type": "Point",
        "coordinates": [7.0855, 48.2807]
      },
      "mairie": {
        "type": "Point",
        "coordinates": [7.0824, 48.2853]
      },
      "population": 138,
      "surface": 293.75,
      "radius": 0.97
    },
    {
      "nom": "Liézey",
      "code": "88269",
      "codesPostaux": ["88400"],
      "centre": {
        "type": "Point",
        "coordinates": [6.804, 48.0971]
      },
      "mairie": {
        "type": "Point",
        "coordinates": [6.8045, 48.0946]
      },
      "population": 301,
      "surface": 1324.44,
      "radius": 2.05
    },
    {
      "nom": "Liffol-le-Grand",
      "code": "88270",
      "codesPostaux": ["88350"],
      "centre": {
        "type": "Point",
        "coordinates": [5.5728, 48.3161]
      },
      "mairie": {
        "type": "Point",
        "coordinates": [5.5817, 48.3168]
      },