{
  "departmentCode": "18",
  "departmentName": "Cher",
  "stats": {
    "communeCount": 286,
    "totalPopulation": 299496,
    "totalSurface": 730283
  },
  "communes": [
    {
      "nom": "Achères",
      "code": "18001",
      "codesPostaux": ["18250"],
      "centre": {
        "type": "Point",
        "coordinates": [2.4601, 47.2828]
      },
      "mairie": {
        "type": "Point",
        "coordinates": [2.4483, 47.2775]
      },
      "population": 332,
      "surface": 1300.6,
      "radius": 2.03
    },
    {
      "nom": "Ainay-le-Vieil",
      "code": "18002",
      "codesPostaux": ["18200"],
      "centre": {
        "type": "Point",
        "coordinates": [2.5413, 46.6573]
      },
      "mairie": {
        "type": "Point",
        "coordinates": [2.5528, 46.6637]
      },
      "population": 191,
      "surface": 1382.79,
      "radius": 2.1
    },
    {
      "nom": "Allogny",
      "code": "18004",
      "codesPostaux": ["18110"],
      "centre": {
        "type": "Point",
        "coordinates": [2.3111, 47.2378]
      },
      "mairie": {
        "type": "Point",
        "coordinates": [2.3199, 47.2254]
      },
      "population": 1130,
      "surface": 5057.59,
      "radius": 4.01
    },
    {
      "nom": "Allouis",
      "code": "18005",
      "codesPostaux": ["18500"],
      "centre": {
        "type": "Point",
        "coordinates": [2.2379, 47.1792]
      },
      "mairie": {
        "type": "Point",
        "coordinates": [2.2278, 47.1659]
      },
      "population": 1052,
      "surface": 3634.34,
      "radius": 3.4
    },
    {
      "nom": "Annoix",
      "code": "18006",
      "codesPostaux": ["18340"],
      "centre": {
        "type": "Point",
        "coordinates": [2.545, 46.9712]
      },
      "mairie": {
        "type": "Point",
        "coordinates": [2.5329, 46.9602]
      },
      "population": 251,
      "surface": 1218.53,
      "radius": 1.97
    },
    {
      "nom": "Apremont-sur-Allier",
      "code": "18007",
      "codesPostaux": ["18150"],
      "centre": {
        "type": "Point",
        "coordinates": [3.0189, 46.9092]
      },
      "mairie": {
        "type": "Point",
        "coordinates": [3.0475, 46.9065]
      },
      "population": 67,
      "surface": 3082.17,
      "radius": 3.13
    },
    {
      "nom": "Arçay",
      "code": "18008",
      "codesPostaux": ["18340"],
      "centre": {
        "type": "Point",
        "coordinates": [2.3365, 46.9638]
      },
      "mairie": {
        "type": "Point",
        "coordinates": [2.3415, 46.9493]
      },
      "population": 488,
      "surface": 1843.22,
      "radius": 2.42
    },
    {
      "nom": "Arcomps",
      "code": "18009",
      "codesPostaux": ["18200"],
      "centre": {
        "type": "Point",
        "coordinates": [2.4197, 46.6743]
      },
      "mairie": {
        "type": "Point",
        "coordinates": [2.4325, 46.6755]
      },
      "population": 269,
      "surface": 2059.63,
      "radius": 2.56
    },
    {
      "nom": "Ardenais",
      "code": "18010",
      "codesPostaux": ["18170"],
      "centre": {
        "type": "Point",
        "coordinates": [2.3487, 46.6471]
      },
      "mairie": {
        "type": "Point",
        "coordinates": [2.3577, 46.6474]
      },
      "population": 203,
      "surface": 1758.26,
      "radius": 2.37
    },
    {
      "nom": "Argent-sur-Sauldre",
      "code": "18011",
      "codesPostaux": ["18410"],
      "centre": {
        "type": "Point",
        "coordinates": [2.4223, 47.5625]
      },
      "mairie": {
        "type": "Point",
        "coordinates": [2.4446, 47.5592]
      },
      "population": 2040,
      "surface": 6754.68,
      "radius": 4.64
    },
    {
      "nom": "Argenvières",
      "code": "18012",
      "codesPostaux": ["18140"],
      "centre": {
        "type": "Point",
        "coordinates": [2.9929, 47.1406]
      },
      "mairie": {
        "type": "Point",
        "coordinates": [3.0053, 47.1376]
      },
      "population": 439,
      "surface": 1486.5,
      "radius": 2.18
    },
    {
      "nom": "Arpheuilles",
      "code": "18013",
      "codesPostaux": ["18200"],
      "centre": {
        "type": "Point",
        "coordinates": [2.5726, 46.7887]
      },
      "mairie": {
        "type": "Point",
        "coordinates": [2.5592, 46.7825]
      },
      "population": 301,
      "surface": 4800.05,
      "radius": 3.91
    },
    {
      "nom": "Assigny",
      "code": "18014",
      "codesPostaux": ["18260"],
      "centre": {
        "type": "Point",
        "coordinates": [2.7495, 47.4327]
      },
      "mairie": {
        "type": "Point",
        "coordinates": [2.7566, 47.4287]
      },
      "population": 152,
      "surface": 1730.19,
      "radius": 2.35
    },
    {
      "nom": "Aubigny-sur-Nère",
      "code": "18015",
      "codesPostaux": ["18700"],
      "centre": {
        "type": "Point",
        "coordinates": [2.4209, 47.4857]
      },
      "mairie": {
        "type": "Point",
        "coordinates": [2.4409, 47.4887]
      },
      "population": 5464,
      "surface": 6175.8,
      "radius": 4.43
    },
    {
      "nom": "Aubinges",
      "code": "18016",
      "codesPostaux": ["18220"],
      "centre": {
        "type": "Point",
        "coordinates": [2.5893, 47.2202]
      },
      "mairie": {
        "type": "Point",
        "coordinates": [2.5818, 47.222]
      },
      "population": 402,
      "surface": 1090.91,
      "radius": 1.86
    },
    {
      "nom": "Augy-sur-Aubois",
      "code": "18017",
      "codesPostaux": ["18600"],
      "centre": {
        "type": "Point",
        "coordinates": [2.8591, 46.7788]
      },
      "mairie": {
        "type": "Point",
        "coordinates": [2.8447, 46.7839]
      },
      "population": 284,
      "surface": 3088.56,
      "radius": 3.14
    },
    {
      "nom": "Avord",
      "code": "18018",
      "codesPostaux": ["18520"],
      "centre": {
        "type": "Point",
        "coordinates": [2.6635, 47.0313]
      },
      "mairie": {
        "type": "Point",
        "coordinates": [2.6522, 47.033]
      },
      "population": 2908,
      "surface": 2824.45,
      "radius": 3
    },
    {
      "nom": "Azy",
      "code": "18019",
      "codesPostaux": ["18220"],
      "centre": {
        "type": "Point",
        "coordinates": [2.7099, 47.1937]
      },
      "mairie": {
        "type": "Point",
        "coordinates": [2.7077, 47.1831]
      },
      "population": 453,
      "surface": 2799.72,
      "radius": 2.99
    },
    {
      "nom": "Bannay",
      "code": "18020",
      "codesPostaux": ["18300"],
      "centre": {
        "type": "Point",
        "coordinates": [2.8769, 47.3816]
      },
      "mairie": {
        "type": "Point",
        "coordinates": [2.8833, 47.3845]
      },
      "population": 841,
      "surface": 2551.17,
      "radius": 2.85
    },
    {
      "nom": "Bannegon",
      "code": "18021",
      "codesPostaux": ["18210"],
      "centre": {
        "type": "Point",
        "coordinates": [2.7229, 46.806]
      },
      "mairie": {
        "type": "Point",
        "coordinates": [2.7144, 46.7994]
      },
      "population": 246,
      "surface": 2150.03,
      "radius": 2.62
    },
    {
      "nom": "Barlieu",
      "code": "18022",
      "codesPostaux": ["18260"],
      "centre": {
        "type": "Point",
        "coordinates": [2.6236, 47.4937]
      },
      "mairie": {
        "type": "Point",
        "coordinates": [2.6301, 47.4888]
      },
      "population": 336,
      "surface": 2855.21,
      "radius": 3.01
    },
    {
      "nom": "Baugy",
      "code": "18023",
      "codesPostaux": ["18800"],
      "centre": {
        "type": "Point",
        "coordinates": [2.7461, 47.0574]
      },
      "mairie": {
        "type": "Point",
        "coordinates": [2.7281, 47.0809]
      },
      "population": 1610,
      "surface": 4837.31,
      "radius": 3.92
    },
    {
      "nom": "Beddes",
      "code": "18024",
      "codesPostaux": ["18370"],
      "centre": {
        "type": "Point",
        "coordinates": [2.2168, 46.6078]
      },
      "mairie": {
        "type": "Point",
        "coordinates": [2.2135, 46.6047]
      },
      "population": 105,
      "surface": 1309.53,
      "radius": 2.04
    },
    {
      "nom": "Beffes",
      "code": "18025",
      "codesPostaux": ["18320"],
      "centre": {
        "type": "Point",
        "coordinates": [2.9991, 47.0931]
      },
      "mairie": {
        "type": "Point",
        "coordinates": [3.0071, 47.0923]
      },
      "population": 598,
      "surface": 1181.85,
      "radius": 1.94
    },
    {
      "nom": "Belleville-sur-Loire",
      "code": "18026",
      "codesPostaux": ["18240"],
      "centre": {
        "type": "Point",
        "coordinates": [2.8387, 47.4992]
      },
      "mairie": {
        "type": "Point",
        "coordinates": [2.8516, 47.5074]
      },
      "population": 990,
      "surface": 1106.16,
      "radius": 1.88
    },
    {
      "nom": "Bengy-sur-Craon",
      "code": "18027",
      "codesPostaux": ["18520"],
      "centre": {
        "type": "Point",
        "coordinates": [2.725, 46.9987]
      },
      "mairie": {
        "type": "Point",
        "coordinates": [2.7487, 46.9987]
      },
      "population": 636,
      "surface": 3589.7,
      "radius": 3.38
    },
    {
      "nom": "Berry-Bouy",
      "code": "18028",
      "codesPostaux": ["18500"],
      "centre": {
        "type": "Point",
        "coordinates": [2.2903, 47.1321]
      },
      "mairie": {
        "type": "Point",
        "coordinates": [2.2904, 47.1108]
      },
      "population": 1171,
      "surface": 3199.64,
      "radius": 3.19
    },
    {
      "nom": "Bessais-le-Fromental",
      "code": "18029",
      "codesPostaux": ["18210"],
      "centre": {
        "type": "Point",
        "coordinates": [2.781, 46.7508]
      },
      "mairie": {
        "type": "Point",
        "coordinates": [2.7596, 46.7452]
      },
      "population": 293,
      "surface": 2635.95,
      "radius": 2.9
    },
    {
      "nom": "Blancafort",
      "code": "18030",
      "codesPostaux": ["18410"],
      "centre": {
        "type": "Point",
        "coordinates": [2.5423, 47.5362]
      },
      "mairie": {
        "type": "Point",
        "coordinates": [2.5287, 47.5317]
      },
      "population": 1002,
      "surface": 6553.36,
      "radius": 4.57
    },
    {
      "nom": "Blet",
      "code": "18031",
      "codesPostaux": ["18350"],
      "centre": {
        "type": "Point",
        "coordinates": [2.7292, 46.8839]
      },
      "mairie": {
        "type": "Point",
        "coordinates": [2.7289, 46.8967]
      },
      "population": 565,
      "surface": 3089.56,
      "radius": 3.14
    },
    {
      "nom": "Boulleret",
      "code": "18032",
      "codesPostaux": ["18240"],
      "centre": {
        "type": "Point",
        "coordinates": [2.8825, 47.4309]
      },
      "mairie": {
        "type": "Point",
        "coordinates": [2.8751, 47.4236]
      },
      "population": 1389,
      "surface": 3279.91,
      "radius": 3.23
    },
    {
      "nom": "Bourges",
      "code": "18033",
      "codesPostaux": ["18000"],
      "centre": {
        "type": "Point",
        "coordinates": [2.3983, 47.078]
      },
      "mairie": {
        "type": "Point",
        "coordinates": [2.3989, 47.0806]
      },
      "population": 64238,
      "surface": 6865.41,
      "radius": 4.67
    },
    {
      "nom": "Bouzais",
      "code": "18034",
      "codesPostaux": ["18200"],
      "centre": {
        "type": "Point",
        "coordinates": [2.4684, 46.7045]
      },
      "mairie": {
        "type": "Point",
        "coordinates": [2.4778, 46.7045]
      },
      "population": 285,
      "surface": 334.16,
      "radius": 1.03
    },
    {
      "nom": "Brécy",
      "code": "18035",
      "codesPostaux": ["18220"],
      "centre": {
        "type": "Point",
        "coordinates": [2.6316, 47.1292]
      },
      "mairie": {
        "type": "Point",
        "coordinates": [2.6213, 47.1235]
      },
      "population": 969,
      "surface": 4013.43,
      "radius": 3.57
    },
    {
      "nom": "Brinay",
      "code": "18036",
      "codesPostaux": ["18120"],
      "centre": {
        "type": "Point",
        "coordinates": [2.1149, 47.1668]
      },
      "mairie": {
        "type": "Point",
        "coordinates": [2.1291, 47.1755]
      },
      "population": 507,
      "surface": 2969.03,
      "radius": 3.07
    },
    {
      "nom": "Brinon-sur-Sauldre",
      "code": "18037",
      "codesPostaux": ["18410"],
      "centre": {
        "type": "Point",
        "coordinates": [2.2135, 47.5581]
      },
      "mairie": {
        "type": "Point",
        "coordinates": [2.2533, 47.5677]
      },
      "population": 972,
      "surface": 11808.3,
      "radius": 6.13
    },
    {
      "nom": "Bruère-Allichamps",
      "code": "18038",
      "codesPostaux": ["18200"],
      "centre": {
        "type": "Point",
        "coordinates": [2.4274, 46.7737]
      },
      "mairie": {
        "type": "Point",
        "coordinates": [2.4328, 46.7684]
      },
      "population": 569,
      "surface": 1410.34,
      "radius": 2.12
    },
    {
      "nom": "Bué",
      "code": "18039",
      "codesPostaux": ["18300"],
      "centre": {
        "type": "Point",
        "coordinates": [2.7938, 47.3082]
      },
      "mairie": {
        "type": "Point",
        "coordinates": [2.7922, 47.3108]
      },
      "population": 305,
      "surface": 630.7,
      "radius": 1.42
    },
    {
      "nom": "Bussy",
      "code": "18040",
      "codesPostaux": ["18130"],
      "centre": {
        "type": "Point",
        "coordinates": [2.6223, 46.9001]
      },
      "mairie": {
        "type": "Point",
        "coordinates": [2.6206, 46.9033]
      },
      "population": 357,
      "surface": 2695.54,
      "radius": 2.93
    },
    {
      "nom": "Cerbois",
      "code": "18044",
      "codesPostaux": ["18120"],
      "centre": {
        "type": "Point",
        "coordinates": [2.1085, 47.1147]
      },
      "mairie": {
        "type": "Point",
        "coordinates": [2.1023, 47.106]
      },
      "population": 398,
      "surface": 1855.08,
      "radius": 2.43
    },
    {
      "nom": "Chalivoy-Milon",
      "code": "18045",
      "codesPostaux": ["18130"],
      "centre": {
        "type": "Point",
        "coordinates": [2.6925, 46.858]
      },
      "mairie": {
        "type": "Point",
        "coordinates": [2.7072, 46.8588]
      },
      "population": 380,
      "surface": 1987.13,
      "radius": 2.52
    },
    {
      "nom": "Chambon",
      "code": "18046",
      "codesPostaux": ["18190"],
      "centre": {
        "type": "Point",
        "coordinates": [2.3377, 46.7794]
      },
      "mairie": {
        "type": "Point",
        "coordinates": [2.3246, 46.7865]
      },
      "population": 154,
      "surface": 1408.41,
      "radius": 2.12
    },
    {
      "nom": "Charenton-du-Cher",
      "code": "18052",
      "codesPostaux": ["18210"],
      "centre": {
        "type": "Point",
        "coordinates": [2.6582, 46.741]
      },
      "mairie": {
        "type": "Point",
        "coordinates": [2.6441, 46.7295]
      },
      "population": 999,
      "surface": 4888.19,
      "radius": 3.94
    },
    {
      "nom": "Charentonnay",
      "code": "18053",
      "codesPostaux": ["18140"],
      "centre": {
        "type": "Point",
        "coordinates": [2.8702, 47.1455]
      },
      "mairie": {
        "type": "Point",
        "coordinates": [2.8732, 47.1449]
      },
      "population": 287,
      "surface": 2191.74,
      "radius": 2.64
    },
    {
      "nom": "Charly",
      "code": "18054",
      "codesPostaux": ["18350"],
      "centre": {
        "type": "Point",
        "coordinates": [2.7581, 46.9049]
      },
      "mairie": {
        "type": "Point",
        "coordinates": [2.7504, 46.8988]
      },
      "population": 235,
      "surface": 2607.14,
      "radius": 2.88
    },
    {
      "nom": "Chârost",
      "code": "18055",
      "codesPostaux": ["18290"],
      "centre": {
        "type": "Point",
        "coordinates": [2.1248, 46.9949]
      },
      "mairie": {
        "type": "Point",
        "coordinates": [2.1169, 46.9945]
      },
      "population": 899,
      "surface": 1094.99,
      "radius": 1.87
    },
    {
      "nom": "Chassy",
      "code": "18056",
      "codesPostaux": ["18800"],
      "centre": {
        "type": "Point",
        "coordinates": [2.8343, 47.0447]
      },
      "mairie": {
        "type": "Point",
        "coordinates": [2.837, 47.0406]
      },
      "population": 234,
      "surface": 1785.87,
      "radius": 2.38
    },
    {
      "nom": "Châteaumeillant",
      "code": "18057",
      "codesPostaux": ["18370"],
      "centre": {
        "type": "Point",
        "coordinates": [2.2122, 46.5537]
      },
      "mairie": {
        "type": "Point",
        "coordinates": [2.1953, 46.56]
      },
      "population": 1666,
      "surface": 4253.23,
      "radius": 3.68
    },
    {
      "nom": "Châteauneuf-sur-Cher",
      "code": "18058",
      "codesPostaux": ["18190"],
      "centre": {
        "type": "Point",
        "coordinates": [2.3394, 46.8681]
      },
      "mairie": {
        "type": "Point",
        "coordinates": [2.3172, 46.8575]
      },
      "population": 1362,
      "surface": 2189.34,
      "radius": 2.64
    },
    {
      "nom": "Chaumont",
      "code": "18060",
      "codesPostaux": ["18350"],
      "centre": {
        "type": "Point",
        "coordinates": [2.7529, 46.8431]
      },
      "mairie": {
        "type": "Point",
        "coordinates": [2.753, 46.8452]
      },
      "population": 46,
      "surface": 215.22,
      "radius": 0.83
    },
    {
      "nom": "Chaumoux-Marcilly",
      "code": "18061",
      "codesPostaux": ["18140"],
      "centre": {
        "type": "Point",
        "coordinates": [2.7817, 47.1437]
      },
      "mairie": {
        "type": "Point",
        "coordinates": [2.7791, 47.1277]
      },
      "population": 84,
      "surface": 1695.63,
      "radius": 2.32
    },
    {
      "nom": "Chavannes",
      "code": "18063",
      "codesPostaux": ["18190"],
      "centre": {
        "type": "Point",
        "coordinates": [2.3995, 46.865]
      },
      "mairie": {
        "type": "Point",
        "coordinates": [2.3759, 46.8529]
      },
      "population": 153,
      "surface": 2409.9,
      "radius": 2.77
    },
    {
      "nom": "Chéry",
      "code": "18064",
      "codesPostaux": ["18120"],
      "centre": {
        "type": "Point",
        "coordinates": [2.0268, 47.1159]
      },
      "mairie": {
        "type": "Point",
        "coordinates": [2.042, 47.1214]
      },
      "population": 225,
      "surface": 1360.17,
      "radius": 2.08
    },
    {
      "nom": "Chezal-Benoît",
      "code": "18065",
      "codesPostaux": ["18160"],
      "centre": {
        "type": "Point",
        "coordinates": [2.1008, 46.8357]
      },
      "mairie": {
        "type": "Point",
        "coordinates": [2.1124, 46.8272]
      },
      "population": 762,
      "surface": 4651.77,
      "radius": 3.85
    },
    {
      "nom": "Civray",
      "code": "18066",
      "codesPostaux": ["18290"],
      "centre": {
        "type": "Point",
        "coordinates": [2.1837, 46.9792]
      },
      "mairie": {
        "type": "Point",
        "coordinates": [2.174, 46.9673]
      },
      "population": 918,
      "surface": 4158.53,
      "radius": 3.64
    },
    {
      "nom": "Clémont",
      "code": "18067",
      "codesPostaux": ["18410"],
      "centre": {
        "type": "Point",
        "coordinates": [2.3415, 47.5693]
      },
      "mairie": {
        "type": "Point",
        "coordinates": [2.3058, 47.5671]
      },
      "population": 709,
      "surface": 5002.75,
      "radius": 3.99
    },
    {
      "nom": "Cogny",
      "code": "18068",
      "codesPostaux": ["18130"],
      "centre": {
        "type": "Point",
        "coordinates": [2.6501, 46.8498]
      },
      "mairie": {
        "type": "Point",
        "coordinates": [2.6557, 46.8499]
      },
      "population": 32,
      "surface": 1696.7,
      "radius": 2.32
    },
    {
      "nom": "Colombiers",
      "code": "18069",
      "codesPostaux": ["18200"],
      "centre": {
        "type": "Point",
        "coordinates": [2.5584, 46.6983]
      },
      "mairie": {
        "type": "Point",
        "coordinates": [2.5411, 46.7005]
      },
      "population": 410,
      "surface": 966.78,
      "radius": 1.75
    },
    {
      "nom": "Concressault",
      "code": "18070",
      "codesPostaux": ["18260"],
      "centre": {
        "type": "Point",
        "coordinates": [2.5697, 47.4926]
      },
      "mairie": {
        "type": "Point",
        "coordinates": [2.5757, 47.4894]
      },
      "population": 196,
      "surface": 756.94,
      "radius": 1.55
    },
    {
      "nom": "Contres",
      "code": "18071",
      "codesPostaux": ["18130"],
      "centre": {
        "type": "Point",
        "coordinates": [2.4956, 46.8603]
      },
      "mairie": {
        "type": "Point",
        "coordinates": [2.4884, 46.8673]
      },
      "population": 34,
      "surface": 1599.33,
      "radius": 2.26
    },
    {
      "nom": "Cornusse",
      "code": "18072",
      "codesPostaux": ["18350"],
      "centre": {
        "type": "Point",
        "coordinates": [2.7303, 46.9555]
      },
      "mairie": {
        "type": "Point",
        "coordinates": [2.7291, 46.9548]
      },
      "population": 227,
      "surface": 1986.87,
      "radius": 2.51
    },
    {
      "nom": "Corquoy",
      "code": "18073",
      "codesPostaux": ["18190", "18340"],
      "centre": {
        "type": "Point",
        "coordinates": [2.3189, 46.9]
      },
      "mairie": {
        "type": "Point",
        "coordinates": [2.2926, 46.8986]
      },
      "population": 199,
      "surface": 3681.44,
      "radius": 3.42
    },
    {
      "nom": "Couargues",
      "code": "18074",
      "codesPostaux": ["18300"],
      "centre": {
        "type": "Point",
        "coordinates": [2.9321, 47.2864]
      },
      "mairie": {
        "type": "Point",
        "coordinates": [2.9273, 47.2777]
      },
      "population": 197,
      "surface": 1173.73,
      "radius": 1.93
    },
    {
      "nom": "Cours-les-Barres",
      "code": "18075",
      "codesPostaux": ["18320"],
      "centre": {
        "type": "Point",
        "coordinates": [3.0325, 47.0227]
      },
      "mairie": {
        "type": "Point",
        "coordinates": [3.0322, 47.0256]
      },
      "population": 1030,
      "surface": 2157.75,
      "radius": 2.62
    },
    {
      "nom": "Coust",
      "code": "18076",
      "codesPostaux": ["18210"],
      "centre": {
        "type": "Point",
        "coordinates": [2.5956, 46.685]
      },
      "mairie": {
        "type": "Point",
        "coordinates": [2.5936, 46.691]
      },
      "population": 430,
      "surface": 2218.54,
      "radius": 2.66
    },
    {
      "nom": "Couy",
      "code": "18077",
      "codesPostaux": ["18140"],
      "centre": {
        "type": "Point",
        "coordinates": [2.8286, 47.1087]
      },
      "mairie": {
        "type": "Point",
        "coordinates": [2.8238, 47.1167]
      },
      "population": 376,
      "surface": 1850.38,
      "radius": 2.43
    },
    {
      "nom": "Crézançay-sur-Cher",
      "code": "18078",
      "codesPostaux": ["18190"],
      "centre": {
        "type": "Point",
        "coordinates": [2.3413, 46.814]
      },
      "mairie": {
        "type": "Point",
        "coordinates": [2.3577, 46.8126]
      },
      "population": 62,
      "surface": 786.35,
      "radius": 1.58
    },
    {
      "nom": "Crézancy-en-Sancerre",
      "code": "18079",
      "codesPostaux": ["18300"],
      "centre": {
        "type": "Point",
        "coordinates": [2.7462, 47.3043]
      },
      "mairie": {
        "type": "Point",
        "coordinates": [2.7433, 47.3053]
      },
      "population": 425,
      "surface": 1885.72,
      "radius": 2.45
    },
    {
      "nom": "Croisy",
      "code": "18080",
      "codesPostaux": ["18350"],
      "centre": {
        "type": "Point",
        "coordinates": [2.8287, 46.9293]
      },
      "mairie": {
        "type": "Point",
        "coordinates": [2.8076, 46.9389]
      },
      "population": 144,
      "surface": 1337.98,
      "radius": 2.06
    },
    {
      "nom": "Crosses",
      "code": "18081",
      "codesPostaux": ["18340"],
      "centre": {
        "type": "Point",
        "coordinates": [2.5669, 47.0071]
      },
      "mairie": {
        "type": "Point",
        "coordinates": [2.5809, 47.0114]
      },
      "population": 385,
      "surface": 2685.39,
      "radius": 2.92
    },
    {
      "nom": "Cuffy",
      "code": "18082",
      "codesPostaux": ["18150"],
      "centre": {
        "type": "Point",
        "coordinates": [3.0372, 46.974]
      },
      "mairie": {
        "type": "Point",
        "coordinates": [3.0524, 46.9616]
      },
      "population": 1018,
      "surface": 3568.08,
      "radius": 3.37
    },
    {
      "nom": "Culan",
      "code": "18083",
      "codesPostaux": ["18270"],
      "centre": {
        "type": "Point",
        "coordinates": [2.3534, 46.5419]
      },
      "mairie": {
        "type": "Point",
        "coordinates": [2.3497, 46.5473]
      },
      "population": 777,
      "surface": 2016.95,
      "radius": 2.53
    },
    {
      "nom": "Dampierre-en-Crot",
      "code": "18084",
      "codesPostaux": ["18260"],
      "centre": {
        "type": "Point",
        "coordinates": [2.5797, 47.4523]
      },
      "mairie": {
        "type": "Point",
        "coordinates": [2.5836, 47.4612]
      },
      "population": 203,
      "surface": 2220.4,
      "radius": 2.66
    },
    {
      "nom": "Dampierre-en-Graçay",
      "code": "18085",
      "codesPostaux": ["18310"],
      "centre": {
        "type": "Point",
        "coordinates": [1.9429, 47.182]
      },
      "mairie": {
        "type": "Point",
        "coordinates": [1.943, 47.1804]
      },
      "population": 248,
      "surface": 953.93,
      "radius": 1.74
    },
    {
      "nom": "Drevant",
      "code": "18086",
      "codesPostaux": ["18200"],
      "centre": {
        "type": "Point",
        "coordinates": [2.5242, 46.6977]
      },
      "mairie": {
        "type": "Point",
        "coordinates": [2.5249, 46.6935]
      },
      "population": 551,
      "surface": 482.9,
      "radius": 1.24
    },
    {
      "nom": "Dun-sur-Auron",
      "code": "18087",
      "codesPostaux": ["18130"],
      "centre": {
        "type": "Point",
        "coordinates": [2.5538, 46.8918]
      },
      "mairie": {
        "type": "Point",
        "coordinates": [2.572, 46.8876]
      },
      "population": 3566,
      "surface": 4997.8,
      "radius": 3.99
    },
    {
      "nom": "Ennordres",
      "code": "18088",
      "codesPostaux": ["18380"],
      "centre": {
        "type": "Point",
        "coordinates": [2.4211, 47.4204]
      },
      "mairie": {
        "type": "Point",
        "coordinates": [2.384, 47.4302]
      },
      "population": 206,
      "surface": 6438.36,
      "radius": 4.53
    },
    {
      "nom": "Épineuil-le-Fleuriel",
      "code": "18089",
      "codesPostaux": ["18360"],
      "centre": {
        "type": "Point",
        "coordinates": [2.5514, 46.5738]
      },
      "mairie": {
        "type": "Point",
        "coordinates": [2.5834, 46.5585]
      },
      "population": 447,
      "surface": 4258.86,
      "radius": 3.68
    },
    {
      "nom": "Étréchy",
      "code": "18090",
      "codesPostaux": ["18800"],
      "centre": {
        "type": "Point",
        "coordinates": [2.7098, 47.1621]
      },
      "mairie": {
        "type": "Point",
        "coordinates": [2.7283, 47.1617]
      },
      "population": 410,
      "surface": 3247.38,
      "radius": 3.22
    },
    {
      "nom": "Farges-Allichamps",
      "code": "18091",
      "codesPostaux": ["18200"],
      "centre": {
        "type": "Point",
        "coordinates": [2.4089, 46.7601]
      },
      "mairie": {
        "type": "Point",
        "coordinates": [2.4021, 46.7592]
      },
      "population": 255,
      "surface": 831.1,
      "radius": 1.63
    },
    {
      "nom": "Farges-en-Septaine",
      "code": "18092",
      "codesPostaux": ["18800"],
      "centre": {
        "type": "Point",
        "coordinates": [2.639, 47.0682]
      },
      "mairie": {
        "type": "Point",
        "coordinates": [2.6505, 47.0731]
      },
      "population": 1014,
      "surface": 2498.8,
      "radius": 2.82
    },
    {
      "nom": "Faverdines",
      "code": "18093",
      "codesPostaux": ["18360"],
      "centre": {
        "type": "Point",
        "coordinates": [2.4627, 46.6337]
      },
      "mairie": {
        "type": "Point",
        "coordinates": [2.4762, 46.6389]
      },
      "population": 134,
      "surface": 1884.96,
      "radius": 2.45
    },
    {
      "nom": "Feux",
      "code": "18094",
      "codesPostaux": ["18300"],
      "centre": {
        "type": "Point",
        "coordinates": [2.8621, 47.2271]
      },
      "mairie": {
        "type": "Point",
        "coordinates": [2.8597, 47.2299]
      },
      "population": 323,
      "surface": 2761.73,
      "radius": 2.96
    },
    {
      "nom": "Flavigny",
      "code": "18095",
      "codesPostaux": ["18350"],
      "centre": {
        "type": "Point",
        "coordinates": [2.8026, 46.9637]
      },
      "mairie": {
        "type": "Point",
        "coordinates": [2.8001, 46.9661]
      },
      "population": 156,
      "surface": 1338.37,
      "radius": 2.06
    },
    {
      "nom": "Foëcy",
      "code": "18096",
      "codesPostaux": ["18500"],
      "centre": {
        "type": "Point",
        "coordinates": [2.153, 47.1804]
      },
      "mairie": {
        "type": "Point",
        "coordinates": [2.1593, 47.1782]
      },
      "population": 2052,
      "surface": 1628.31,
      "radius": 2.28
    },
    {
      "nom": "Fussy",
      "code": "18097",
      "codesPostaux": ["18110"],
      "centre": {
        "type": "Point",
        "coordinates": [2.427, 47.1436]
      },
      "mairie": {
        "type": "Point",
        "coordinates": [2.4269, 47.1443]
      },
      "population": 1914,
      "surface": 1122.68,
      "radius": 1.89
    },
    {
      "nom": "Gardefort",
      "code": "18098",
      "codesPostaux": ["18300"],
      "centre": {
        "type": "Point",
        "coordinates": [2.8205, 47.2585]
      },
      "mairie": {
        "type": "Point",
        "coordinates": [2.8296, 47.2666]
      },
      "population": 126,
      "surface": 844.36,
      "radius": 1.64
    },
    {
      "nom": "Garigny",
      "code": "18099",
      "codesPostaux": ["18140"],
      "centre": {
        "type": "Point",
        "coordinates": [2.8826, 47.0896]
      },
      "mairie": {
        "type": "Point",
        "coordinates": [2.8865, 47.0864]
      },
      "population": 220,
      "surface": 1988.94,
      "radius": 2.52
    },
    {
      "nom": "Genouilly",
      "code": "18100",
      "codesPostaux": ["18310"],
      "centre": {
        "type": "Point",
        "coordinates": [1.8857, 47.1911]
      },
      "mairie": {
        "type": "Point",
        "coordinates": [1.888, 47.1911]
      },
      "population": 666,
      "surface": 3460.74,
      "radius": 3.32
    },
    {
      "nom": "Germigny-l'Exempt",
      "code": "18101",
      "codesPostaux": ["18150"],
      "centre": {
        "type": "Point",
        "coordinates": [2.8782, 46.9128]
      },
      "mairie": {
        "type": "Point",
        "coordinates": [2.8982, 46.9167]
      },
      "population": 292,
      "surface": 2853.57,
      "radius": 3.01
    },
    {
      "nom": "Givardon",
      "code": "18102",
      "codesPostaux": ["18600"],
      "centre": {
        "type": "Point",
        "coordinates": [2.8031, 46.8341]
      },
      "mairie": {
        "type": "Point",
        "coordinates": [2.8183, 46.8412]
      },
      "population": 302,
      "surface": 2219.42,
      "radius": 2.66
    },
    {
      "nom": "Graçay",
      "code": "18103",
      "codesPostaux": ["18310"],
      "centre": {
        "type": "Point",
        "coordinates": [1.8517, 47.1392]
      },
      "mairie": {
        "type": "Point",
        "coordinates": [1.846, 47.1422]
      },
      "population": 1245,
      "surface": 3172.14,
      "radius": 3.18
    },
    {
      "nom": "Groises",
      "code": "18104",
      "codesPostaux": ["18140"],
      "centre": {
        "type": "Point",
        "coordinates": [2.8078, 47.2088]
      },
      "mairie": {
        "type": "Point",
        "coordinates": [2.8116, 47.2092]
      },
      "population": 131,
      "surface": 1784.18,
      "radius": 2.38
    },
    {
      "nom": "Gron",
      "code": "18105",
      "codesPostaux": ["18800"],
      "centre": {
        "type": "Point",
        "coordinates": [2.7375, 47.1178]
      },
      "mairie": {
        "type": "Point",
        "coordinates": [2.7409, 47.1207]
      },
      "population": 469,
      "surface": 2678.65,
      "radius": 2.92
    },
    {
      "nom": "Grossouvre",
      "code": "18106",
      "codesPostaux": ["18600"],
      "centre": {
        "type": "Point",
        "coordinates": [2.9399, 46.8741]
      },
      "mairie": {
        "type": "Point",
        "coordinates": [2.9384, 46.8787]
      },
      "population": 264,
      "surface": 1590.8,
      "radius": 2.25
    },
    {
      "nom": "Henrichemont",
      "code": "18109",
      "codesPostaux": ["18250"],
      "centre": {
        "type": "Point",
        "coordinates": [2.5376, 47.3]
      },
      "mairie": {
        "type": "Point",
        "coordinates": [2.5244, 47.3037]
      },
      "population": 1713,
      "surface": 2592.78,
      "radius": 2.87
    },
    {
      "nom": "Herry",
      "code": "18110",
      "codesPostaux": ["18140"],
      "centre": {
        "type": "Point",
        "coordinates": [2.9409, 47.2285]
      },
      "mairie": {
        "type": "Point",
        "coordinates": [2.9521, 47.2157]
      },
      "population": 959,
      "surface": 4997.82,
      "radius": 3.99
    },
    {
      "nom": "Humbligny",
      "code": "18111",
      "codesPostaux": ["18250"],
      "centre": {
        "type": "Point",
        "coordinates": [2.6457, 47.2637]
      },
      "mairie": {
        "type": "Point",
        "coordinates": [2.6589, 47.2546]
      },
      "population": 182,
      "surface": 2108.19,
      "radius": 2.59
    },
    {
      "nom": "Ids-Saint-Roch",
      "code": "18112",
      "codesPostaux": ["18170"],
      "centre": {
        "type": "Point",
        "coordinates": [2.2558, 46.7153]
      },
      "mairie": {
        "type": "Point",
        "coordinates": [2.2409, 46.707]
      },
      "population": 287,
      "surface": 2783.43,
      "radius": 2.98
    },
    {
      "nom": "Ignol",
      "code": "18113",
      "codesPostaux": ["18350"],
      "centre": {
        "type": "Point",
        "coordinates": [2.8605, 46.9609]
      },
      "mairie": {
        "type": "Point",
        "coordinates": [2.8466, 46.9666]
      },
      "population": 174,
      "surface": 1798.59,
      "radius": 2.39
    },
    {
      "nom": "Ineuil",
      "code": "18114",
      "codesPostaux": ["18160"],
      "centre": {
        "type": "Point",
        "coordinates": [2.2737, 46.7712]
      },
      "mairie": {
        "type": "Point",
        "coordinates": [2.2887, 46.7784]
      },
      "population": 216,
      "surface": 2748.67,
      "radius": 2.96
    },
    {
      "nom": "Ivoy-le-Pré",
      "code": "18115",
      "codesPostaux": ["18380"],
      "centre": {
        "type": "Point",
        "coordinates": [2.5187, 47.3576]
      },
      "mairie": {
        "type": "Point",
        "coordinates": [2.4849, 47.3437]
      },
      "population": 775,
      "surface": 9940.64,
      "radius": 5.63
    },
    {
      "nom": "Jalognes",
      "code": "18116",
      "codesPostaux": ["18300"],
      "centre": {
        "type": "Point",
        "coordinates": [2.7795, 47.228]
      },
      "mairie": {
        "type": "Point",
        "coordinates": [2.7845, 47.2361]
      },
      "population": 269,
      "surface": 2834.75,
      "radius": 3
    },
    {
      "nom": "Jars",
      "code": "18117",
      "codesPostaux": ["18260"],
      "centre": {
        "type": "Point",
        "coordinates": [2.6647, 47.3947]
      },
      "mairie": {
        "type": "Point",
        "coordinates": [2.6844, 47.3967]
      },
      "population": 491,
      "surface": 3808.27,
      "radius": 3.48
    },
    {
      "nom": "Jouet-sur-l'Aubois",
      "code": "18118",
      "codesPostaux": ["18320"],
      "centre": {
        "type": "Point",
        "coordinates": [3.0061, 47.0454]
      },
      "mairie": {
        "type": "Point",
        "coordinates": [2.9878, 47.0454]
      },
      "population": 1306,
      "surface": 1735.68,
      "radius": 2.35
    },
    {
      "nom": "Jussy-Champagne",
      "code": "18119",
      "codesPostaux": ["18130"],
      "centre": {
        "type": "Point",
        "coordinates": [2.6484, 46.9886]
      },
      "mairie": {
        "type": "Point",
        "coordinates": [2.644, 46.9856]
      },
      "population": 206,
      "surface": 2775.54,
      "radius": 2.97
    },
    {
      "nom": "Jussy-le-Chaudrier",
      "code": "18120",
      "codesPostaux": ["18140"],
      "centre": {
        "type": "Point",
        "coordinates": [2.934, 47.1181]
      },
      "mairie": {
        "type": "Point",
        "coordinates": [2.9353, 47.1277]
      },
      "population": 578,
      "surface": 2561.19,
      "radius": 2.86
    },
    {
      "nom": "La Celette",
      "code": "18041",
      "codesPostaux": ["18360"],
      "centre": {
        "type": "Point",
        "coordinates": [2.5272, 46.6363]
      },
      "mairie": {
        "type": "Point",
        "coordinates": [2.5205, 46.6512]
      },
      "population": 204,
      "surface": 2530.3,
      "radius": 2.84
    },
    {
      "nom": "La Celle",
      "code": "18042",
      "codesPostaux": ["18200"],
      "centre": {
        "type": "Point",
        "coordinates": [2.4577, 46.7676]
      },
      "mairie": {
        "type": "Point",
        "coordinates": [2.4445, 46.7679]
      },
      "population": 329,
      "surface": 1278.26,
      "radius": 2.02
    },
    {
      "nom": "La Celle-Condé",
      "code": "18043",
      "codesPostaux": ["18160"],
      "centre": {
        "type": "Point",
        "coordinates": [2.181, 46.7873]
      },
      "mairie": {
        "type": "Point",
        "coordinates": [2.1851, 46.7933]
      },
      "population": 191,
      "surface": 2881.54,
      "radius": 3.03
    },
    {
      "nom": "La Chapelle-d'Angillon",
      "code": "18047",
      "codesPostaux": ["18380"],
      "centre": {
        "type": "Point",
        "coordinates": [2.4416, 47.3705]
      },
      "mairie": {
        "type": "Point",
        "coordinates": [2.4335, 47.3636]
      },
      "population": 610,
      "surface": 1031.14,
      "radius": 1.81
    },
    {
      "nom": "La Chapelle-Hugon",
      "code": "18048",
      "codesPostaux": ["18150"],
      "centre": {
        "type": "Point",
        "coordinates": [2.9502, 46.8921]
      },
      "mairie": {
        "type": "Point",
        "coordinates": [2.9487, 46.9066]
      },
      "population": 385,
      "surface": 1644.77,
      "radius": 2.29
    },
    {
      "nom": "La Chapelle-Montlinard",
      "code": "18049",
      "codesPostaux": ["18140"],
      "centre": {
        "type": "Point",
        "coordinates": [2.9855, 47.1807]
      },
      "mairie": {
        "type": "Point",
        "coordinates": [2.9885, 47.1726]
      },
      "population": 490,
      "surface": 1701.6,
      "radius": 2.33
    },
    {
      "nom": "La Chapelle-Saint-Ursin",
      "code": "18050",
      "codesPostaux": ["18570"],
      "centre": {
        "type": "Point",
        "coordinates": [2.3211, 47.0546]
      },
      "mairie": {
        "type": "Point",
        "coordinates": [2.3213, 47.0628]
      },
      "population": 3687,
      "surface": 786.44,
      "radius": 1.58
    },
    {
      "nom": "La Chapelotte",
      "code": "18051",
      "codesPostaux": ["18250"],
      "centre": {
        "type": "Point",
        "coordinates": [2.6029, 47.331]
      },
      "mairie": {
        "type": "Point",
        "coordinates": [2.5903, 47.3532]
      },
      "population": 130,
      "surface": 2888.24,
      "radius": 3.03
    },
    {
      "nom": "La Groutte",
      "code": "18107",
      "codesPostaux": ["18200"],
      "centre": {
        "type": "Point",
        "coordinates": [2.5117, 46.6891]
      },
      "mairie": {
        "type": "Point",
        "coordinates": [2.5098, 46.6877]
      },
      "population": 119,
      "surface": 293.03,
      "radius": 0.97
    },
    {
      "nom": "La Guerche-sur-l'Aubois",
      "code": "18108",
      "codesPostaux": ["18150"],
      "centre": {
        "type": "Point",
        "coordinates": [2.945, 46.9528]
      },
      "mairie": {
        "type": "Point",
        "coordinates": [2.9448, 46.9513]
      },
      "population": 3187,
      "surface": 5357.83,
      "radius": 4.13
    },
    {
      "nom": "La Perche",
      "code": "18178",
      "codesPostaux": ["18200"],
      "centre": {
        "type": "Point",
        "coordinates": [2.5751, 46.6309]
      },
      "mairie": {
        "type": "Point",
        "coordinates": [2.5764, 46.6425]
      },
      "population": 192,
      "surface": 1043.14,
      "radius": 1.82
    },
    {
      "nom": "Lantan",
      "code": "18121",
      "codesPostaux": ["18130"],
      "centre": {
        "type": "Point",
        "coordinates": [2.6589, 46.9035]
      },
      "mairie": {
        "type": "Point",
        "coordinates": [2.6619, 46.9073]
      },
      "population": 95,
      "surface": 1365.4,
      "radius": 2.08
    },
    {
      "nom": "Lapan",
      "code": "18122",
      "codesPostaux": ["18340"],
      "centre": {
        "type": "Point",
        "coordinates": [2.288, 46.921]
      },
      "mairie": {
        "type": "Point",
        "coordinates": [2.2991, 46.9235]
      },
      "population": 226,
      "surface": 1064.04,
      "radius": 1.84
    },
    {
      "nom": "Lazenay",
      "code": "18124",
      "codesPostaux": ["18120"],
      "centre": {
        "type": "Point",
        "coordinates": [2.0805, 47.0771]
      },
      "mairie": {
        "type": "Point",
        "coordinates": [2.0608, 47.071]
      },
      "population": 282,
      "surface": 3115.14,
      "radius": 3.15
    },
    {
      "nom": "Le Châtelet",
      "code": "18059",
      "codesPostaux": ["18170"],
      "centre": {
        "type": "Point",
        "coordinates": [2.2942, 46.6265]
      },
      "mairie": {
        "type": "Point",
        "coordinates": [2.2833, 46.6424]
      },
      "population": 920,
      "surface": 3267.48,
      "radius": 3.23
    },
    {
      "nom": "Le Chautay",
      "code": "18062",
      "codesPostaux": ["18150"],
      "centre": {
        "type": "Point",
        "coordinates": [2.9639, 46.9855]
      },
      "mairie": {
        "type": "Point",
        "coordinates": [2.9656, 46.9771]
      },
      "population": 264,
      "surface": 1459.2,
      "radius": 2.16
    },
    {
      "nom": "Le Noyer",
      "code": "18168",
      "codesPostaux": ["18260"],
      "centre": {
        "type": "Point",
        "coordinates": [2.6642, 47.3688]
      },
      "mairie": {
        "type": "Point",
        "coordinates": [2.6795, 47.3834]
      },
      "population": 236,
      "surface": 2027.2,
      "radius": 2.54
    },
    {
      "nom": "Le Pondy",
      "code": "18183",
      "codesPostaux": ["18210"],
      "centre": {
        "type": "Point",
        "coordinates": [2.6422, 46.8009]
      },
      "mairie": {
        "type": "Point",
        "coordinates": [2.6487, 46.8049]
      },
      "population": 154,
      "surface": 661.49,
      "radius": 1.45
    },
    {
      "nom": "Le Subdray",
      "code": "18255",
      "codesPostaux": ["18570"],
      "centre": {
        "type": "Point",
        "coordinates": [2.3039, 47.0187]
      },
      "mairie": {
        "type": "Point",
        "coordinates": [2.2948, 47.0097]
      },
      "population": 968,
      "surface": 2052.41,
      "radius": 2.56
    },
    {
      "nom": "Léré",
      "code": "18125",
      "codesPostaux": ["18240"],
      "centre": {
        "type": "Point",
        "coordinates": [2.8716, 47.4646]
      },
      "mairie": {
        "type": "Point",
        "coordinates": [2.8726, 47.4711]
      },
      "population": 1095,
      "surface": 1612.25,
      "radius": 2.27
    },
    {
      "nom": "Les Aix-d'Angillon",
      "code": "18003",
      "codesPostaux": ["18220"],
      "centre": {
        "type": "Point",
        "coordinates": [2.5625, 47.193]
      },
      "mairie": {
        "type": "Point",
        "coordinates": [2.5713, 47.1978]
      },
      "population": 1871,
      "surface": 1470.67,
      "radius": 2.16
    },
    {
      "nom": "Levet",
      "code": "18126",
      "codesPostaux": ["18340"],
      "centre": {
        "type": "Point",
        "coordinates": [2.3913, 46.9278]
      },
      "mairie": {
        "type": "Point",
        "coordinates": [2.4067, 46.9254]
      },
      "population": 1367,
      "surface": 2599.52,
      "radius": 2.88
    },
    {
      "nom": "Lignières",
      "code": "18127",
      "codesPostaux": ["18160"],
      "centre": {
        "type": "Point",
        "coordinates": [2.2035, 46.7606]
      },
      "mairie": {
        "type": "Point",
        "coordinates": [2.1761, 46.7506]
      },
      "population": 1325,
      "surface": 2197.14,
      "radius": 2.64
    },
    {
      "nom": "Limeux",
      "code": "18128",
      "codesPostaux": ["18120"],
      "centre": {
        "type": "Point",
        "coordinates": [2.1188, 47.0745]
      },
      "mairie": {
        "type": "Point",
        "coordinates": [2.1087, 47.0745]
      },
      "population": 171,
      "surface": 1335.33,
      "radius": 2.06
    },
    {
      "nom": "Lissay-Lochy",
      "code": "18129",
      "codesPostaux": ["18340"],
      "centre": {
        "type": "Point",
        "coordinates": [2.3915, 46.975]
      },
      "mairie": {
        "type": "Point",
        "coordinates": [2.4053, 46.972]
      },
      "population": 226,
      "surface": 2253.93,
      "radius": 2.68
    },
    {
      "nom": "Loye-sur-Arnon",
      "code": "18130",
      "codesPostaux": ["18170"],
      "centre": {
        "type": "Point",
        "coordinates": [2.402, 46.6338]
      },
      "mairie": {
        "type": "Point",
        "coordinates": [2.3874, 46.6532]
      },
      "population": 301,
      "surface": 3463.68,
      "radius": 3.32
    },
    {
      "nom": "Lugny-Champagne",
      "code": "18132",
      "codesPostaux": ["18140"],
      "centre": {
        "type": "Point",
        "coordinates": [2.8298, 47.1764]
      },
      "mairie": {
        "type": "Point",
        "coordinates": [2.8241, 47.1873]
      },
      "population": 140,
      "surface": 2950.65,
      "radius": 3.06
    },
    {
      "nom": "Lunery",
      "code": "18133",
      "codesPostaux": ["18400"],
      "centre": {
        "type": "Point",
        "coordinates": [2.2587, 46.9352]
      },
      "mairie": {
        "type": "Point",
        "coordinates": [2.2695, 46.9362]
      },
      "population": 1522,
      "surface": 3287.33,
      "radius": 3.23
    },
    {
      "nom": "Lury-sur-Arnon",
      "code": "18134",
      "codesPostaux": ["18120"],
      "centre": {
        "type": "Point",
        "coordinates": [2.0652, 47.1321]
      },
      "mairie": {
        "type": "Point",
        "coordinates": [2.0581, 47.129]
      },
      "population": 662,
      "surface": 1386.52,
      "radius": 2.1
    },
    {
      "nom": "Maisonnais",
      "code": "18135",
      "codesPostaux": ["18170"],
      "centre": {
        "type": "Point",
        "coordinates": [2.2251, 46.6484]
      },
      "mairie": {
        "type": "Point",
        "coordinates": [2.2162, 46.6405]
      },
      "population": 228,
      "surface": 2693.34,
      "radius": 2.93
    },
    {
      "nom": "Marçais",
      "code": "18136",
      "codesPostaux": ["18170"],
      "centre": {
        "type": "Point",
        "coordinates": [2.3519, 46.7024]
      },
      "mairie": {
        "type": "Point",
        "coordinates": [2.3674, 46.698]
      },
      "population": 305,
      "surface": 2928.75,
      "radius": 3.05
    },
    {
      "nom": "Mareuil-sur-Arnon",
      "code": "18137",
      "codesPostaux": ["18290"],
      "centre": {
        "type": "Point",
        "coordinates": [2.1606, 46.8766]
      },
      "mairie": {
        "type": "Point",
        "coordinates": [2.1635, 46.8809]
      },
      "population": 476,
      "surface": 2635.56,
      "radius": 2.9
    },
    {
      "nom": "Marmagne",
      "code": "18138",
      "codesPostaux": ["18500"],
      "centre": {
        "type": "Point",
        "coordinates": [2.2759, 47.0933]
      },
      "mairie": {
        "type": "Point",
        "coordinates": [2.2842, 47.1016]
      },
      "population": 1934,
      "surface": 3769,
      "radius": 3.46
    },
    {
      "nom": "Marseilles-lès-Aubigny",
      "code": "18139",
      "codesPostaux": ["18320"],
      "centre": {
        "type": "Point",
        "coordinates": [2.9895, 47.07]
      },
      "mairie": {
        "type": "Point",
        "coordinates": [3.0137, 47.0675]
      },
      "population": 647,
      "surface": 987.84,
      "radius": 1.77
    },
    {
      "nom": "Massay",
      "code": "18140",
      "codesPostaux": ["18120"],
      "centre": {
        "type": "Point",
        "coordinates": [1.9866, 47.1564]
      },
      "mairie": {
        "type": "Point",
        "coordinates": [1.9944, 47.1521]
      },
      "population": 1347,
      "surface": 4802.96,
      "radius": 3.91
    },
    {
      "nom": "Mehun-sur-Yèvre",
      "code": "18141",
      "codesPostaux": ["18500"],
      "centre": {
        "type": "Point",
        "coordinates": [2.225, 47.1316]
      },
      "mairie": {
        "type": "Point",
        "coordinates": [2.2172, 47.1456]
      },
      "population": 6394,
      "surface": 2442.87,
      "radius": 2.79
    },
    {
      "nom": "Meillant",
      "code": "18142",
      "codesPostaux": ["18200"],
      "centre": {
        "type": "Point",
        "coordinates": [2.506, 46.7897]
      },
      "mairie": {
        "type": "Point",
        "coordinates": [2.5061, 46.7808]
      },
      "population": 648,
      "surface": 4156.17,
      "radius": 3.64
    },
    {
      "nom": "Menetou-Couture",
      "code": "18143",
      "codesPostaux": ["18320"],
      "centre": {
        "type": "Point",
        "coordinates": [2.9368, 47.0361]
      },
      "mairie": {
        "type": "Point",
        "coordinates": [2.9147, 47.0439]
      },
      "population": 357,
      "surface": 2988.95,
      "radius": 3.08
    },
    {
      "nom": "Menetou-Râtel",
      "code": "18144",
      "codesPostaux": ["18300"],
      "centre": {
        "type": "Point",
        "coordinates": [2.7518, 47.3491]
      },
      "mairie": {
        "type": "Point",
        "coordinates": [2.7553, 47.3514]
      },
      "population": 463,
      "surface": 2800.92,
      "radius": 2.99
    },
    {
      "nom": "Menetou-Salon",
      "code": "18145",
      "codesPostaux": ["18510"],
      "centre": {
        "type": "Point",
        "coordinates": [2.4874, 47.2436]
      },
      "mairie": {
        "type": "Point",
        "coordinates": [2.4887, 47.232]
      },
      "population": 1618,
      "surface": 3817.22,
      "radius": 3.49
    },
    {
      "nom": "Ménétréol-sous-Sancerre",
      "code": "18146",
      "codesPostaux": ["18300"],
      "centre": {
        "type": "Point",
        "coordinates": [2.8702, 47.3194]
      },
      "mairie": {
        "type": "Point",
        "coordinates": [2.857, 47.3182]
      },
      "population": 296,
      "surface": 542.63,
      "radius": 1.31
    },
    {
      "nom": "Ménétréol-sur-Sauldre",
      "code": "18147",
      "codesPostaux": ["18700"],
      "centre": {
        "type": "Point",
        "coordinates": [2.2965, 47.4532]
      },
      "mairie": {
        "type": "Point",
        "coordinates": [2.3072, 47.4477]
      },
      "population": 196,
      "surface": 5009.05,
      "radius": 3.99
    },
    {
      "nom": "Méreau",
      "code": "18148",
      "codesPostaux": ["18120"],
      "centre": {
        "type": "Point",
        "coordinates": [2.0548, 47.1804]
      },
      "mairie": {
        "type": "Point",
        "coordinates": [2.0503, 47.1631]
      },
      "population": 2649,
      "surface": 1878.24,
      "radius": 2.45
    },
    {
      "nom": "Méry-ès-Bois",
      "code": "18149",
      "codesPostaux": ["18380"],
      "centre": {
        "type": "Point",
        "coordinates": [2.3817, 47.3047]
      },
      "mairie": {
        "type": "Point",
        "coordinates": [2.3626, 47.3136]
      },
      "population": 538,
      "surface": 9146.01,
      "radius": 5.4
    },
    {
      "nom": "Méry-sur-Cher",
      "code": "18150",
      "codesPostaux": ["18100"],
      "centre": {
        "type": "Point",
        "coordinates": [1.9924, 47.2483]
      },
      "mairie": {
        "type": "Point",
        "coordinates": [1.989, 47.2458]
      },
      "population": 710,
      "surface": 2122.61,
      "radius": 2.6
    },
    {
      "nom": "Montigny",
      "code": "18151",
      "codesPostaux": ["18250"],
      "centre": {
        "type": "Point",
        "coordinates": [2.6871, 47.231]
      },
      "mairie": {
        "type": "Point",
        "coordinates": [2.6809, 47.2389]
      },
      "population": 323,
      "surface": 2912.93,
      "radius": 3.05
    },
    {
      "nom": "Montlouis",
      "code": "18152",
      "codesPostaux": ["18160"],
      "centre": {
        "type": "Point",
        "coordinates": [2.2455, 46.8078]
      },
      "mairie": {
        "type": "Point",
        "coordinates": [2.2395, 46.8143]
      },
      "population": 110,
      "surface": 1924.49,
      "radius": 2.48
    },
    {
      "nom": "Morlac",
      "code": "18153",
      "codesPostaux": ["18170"],
      "centre": {
        "type": "Point",
        "coordinates": [2.3218, 46.7228]
      },
      "mairie": {
        "type": "Point",
        "coordinates": [2.3084, 46.7187]
      },
      "population": 274,
      "surface": 3326.06,
      "radius": 3.25
    },
    {
      "nom": "Mornay-Berry",
      "code": "18154",
      "codesPostaux": ["18350"],
      "centre": {
        "type": "Point",
        "coordinates": [2.8636, 47.0552]
      },
      "mairie": {
        "type": "Point",
        "coordinates": [2.8713, 47.0491]
      },
      "population": 168,
      "surface": 942.29,
      "radius": 1.73
    },
    {
      "nom": "Mornay-sur-Allier",
      "code": "18155",
      "codesPostaux": ["18600"],
      "centre": {
        "type": "Point",
        "coordinates": [3.0084, 46.816]
      },
      "mairie": {
        "type": "Point",
        "coordinates": [3.0296, 46.8196]
      },
      "population": 417,
      "surface": 2215.13,
      "radius": 2.66
    },
    {
      "nom": "Morogues",
      "code": "18156",
      "codesPostaux": ["18220"],
      "centre": {
        "type": "Point",
        "coordinates": [2.5953, 47.255]
      },
      "mairie": {
        "type": "Point",
        "coordinates": [2.5963, 47.2412]
      },
      "population": 423,
      "surface": 3099.88,
      "radius": 3.14
    },
    {
      "nom": "Morthomiers",
      "code": "18157",
      "codesPostaux": ["18570"],
      "centre": {
        "type": "Point",
        "coordinates": [2.2705, 47.0407]
      },
      "mairie": {
        "type": "Point",
        "coordinates": [2.2776, 47.0365]
      },
      "population": 815,
      "surface": 1473.89,
      "radius": 2.17
    },
    {
      "nom": "Moulins-sur-Yèvre",
      "code": "18158",
      "codesPostaux": ["18390"],
      "centre": {
        "type": "Point",
        "coordinates": [2.5259, 47.0958]
      },
      "mairie": {
        "type": "Point",
        "coordinates": [2.5167, 47.0837]
      },
      "population": 851,
      "surface": 1536.24,
      "radius": 2.21
    },
    {
      "nom": "Nançay",
      "code": "18159",
      "codesPostaux": ["18330"],
      "centre": {
        "type": "Point",
        "coordinates": [2.1768, 47.369]
      },
      "mairie": {
        "type": "Point",
        "coordinates": [2.1959, 47.3506]
      },
      "population": 768,
      "surface": 10614.11,
      "radius": 5.81
    },
    {
      "nom": "Nérondes",
      "code": "18160",
      "codesPostaux": ["18350"],
      "centre": {
        "type": "Point",
        "coordinates": [2.8363, 47.0066]
      },
      "mairie": {
        "type": "Point",
        "coordinates": [2.8187, 46.9979]
      },
      "population": 1412,
      "surface": 3418.9,
      "radius": 3.3
    },
    {
      "nom": "Neuilly-en-Dun",
      "code": "18161",
      "codesPostaux": ["18600"],
      "centre": {
        "type": "Point",
        "coordinates": [2.7837, 46.8021]
      },
      "mairie": {
        "type": "Point",
        "coordinates": [2.7811, 46.7993]
      },
      "population": 225,
      "surface": 3020.29,
      "radius": 3.1
    },
    {
      "nom": "Neuilly-en-Sancerre",
      "code": "18162",
      "codesPostaux": ["18250"],
      "centre": {
        "type": "Point",
        "coordinates": [2.6571, 47.3086]
      },
      "mairie": {
        "type": "Point",
        "coordinates": [2.6866, 47.3037]
      },
      "population": 246,
      "surface": 2623.24,
      "radius": 2.89
    },
    {
      "nom": "Neuvy-Deux-Clochers",
      "code": "18163",
      "codesPostaux": ["18250"],
      "centre": {
        "type": "Point",
        "coordinates": [2.6721, 47.2813]
      },
      "mairie": {
        "type": "Point",
        "coordinates": [2.6988, 47.278]
      },
      "population": 257,
      "surface": 1674.88,
      "radius": 2.31
    },
    {
      "nom": "Neuvy-le-Barrois",
      "code": "18164",
      "codesPostaux": ["18600"],
      "centre": {
        "type": "Point",
        "coordinates": [3.0154, 46.8627]
      },
      "mairie": {
        "type": "Point",
        "coordinates": [3.0385, 46.8655]
      },
      "population": 147,
      "surface": 4230.47,
      "radius": 3.67
    },
    {
      "nom": "Neuvy-sur-Barangeon",
      "code": "18165",
      "codesPostaux": ["18330"],
      "centre": {
        "type": "Point",
        "coordinates": [2.2558, 47.3259]
      },
      "mairie": {
        "type": "Point",
        "coordinates": [2.2552, 47.3149]
      },
      "population": 1114,
      "surface": 6719.92,
      "radius": 4.62
    },
    {
      "nom": "Nohant-en-Goût",
      "code": "18166",
      "codesPostaux": ["18390"],
      "centre": {
        "type": "Point",
        "coordinates": [2.5838, 47.0902]
      },
      "mairie": {
        "type": "Point",
        "coordinates": [2.5708, 47.0988]
      },
      "population": 551,
      "surface": 2500.9,
      "radius": 2.82
    },
    {
      "nom": "Nohant-en-Graçay",
      "code": "18167",
      "codesPostaux": ["18310"],
      "centre": {
        "type": "Point",
        "coordinates": [1.9135, 47.1338]
      },
      "mairie": {
        "type": "Point",
        "coordinates": [1.8928, 47.1372]
      },
      "population": 292,
      "surface": 2377.11,
      "radius": 2.75
    },
    {
      "nom": "Nozières",
      "code": "18169",
      "codesPostaux": ["18200"],
      "centre": {
        "type": "Point",
        "coordinates": [2.425, 46.7366]
      },
      "mairie": {
        "type": "Point",
        "coordinates": [2.4344, 46.731]
      },
      "population": 234,
      "surface": 1039.45,
      "radius": 1.82
    },
    {
      "nom": "Oizon",
      "code": "18170",
      "codesPostaux": ["18700"],
      "centre": {
        "type": "Point",
        "coordinates": [2.5084, 47.448]
      },
      "mairie": {
        "type": "Point",
        "coordinates": [2.513, 47.475]
      },
      "population": 667,
      "surface": 6245.29,
      "radius": 4.46
    },
    {
      "nom": "Orcenais",
      "code": "18171",
      "codesPostaux": ["18200"],
      "centre": {
        "type": "Point",
        "coordinates": [2.4155, 46.7093]
      },
      "mairie": {
        "type": "Point",
        "coordinates": [2.4222, 46.7158]
      },
      "population": 242,
      "surface": 1886.35,
      "radius": 2.45
    },
    {
      "nom": "Orval",
      "code": "18172",
      "codesPostaux": ["18200"],
      "centre": {
        "type": "Point",
        "coordinates": [2.4676, 46.723]
      },
      "mairie": {
        "type": "Point",
        "coordinates": [2.4817, 46.7265]
      },
      "population": 1637,
      "surface": 765.38,
      "radius": 1.56
    },
    {
      "nom": "Osmery",
      "code": "18173",
      "codesPostaux": ["18130", "18350"],
      "centre": {
        "type": "Point",
        "coordinates": [2.6698, 46.9385]
      },
      "mairie": {
        "type": "Point",
        "coordinates": [2.6536, 46.9344]
      },
      "population": 273,
      "surface": 2700.22,
      "radius": 2.93
    },
    {
      "nom": "Osmoy",
      "code": "18174",
      "codesPostaux": ["18390"],
      "centre": {
        "type": "Point",
        "coordinates": [2.5094, 47.063]
      },
      "mairie": {
        "type": "Point",
        "coordinates": [2.5228, 47.073]
      },
      "population": 271,
      "surface": 2299.81,
      "radius": 2.71
    },
    {
      "nom": "Ourouer-les-Bourdelins",
      "code": "18175",
      "codesPostaux": ["18350"],
      "centre": {
        "type": "Point",
        "coordinates": [2.7915, 46.9175]
      },
      "mairie": {
        "type": "Point",
        "coordinates": [2.7838, 46.9317]
      },
      "population": 605,
      "surface": 2510.83,
      "radius": 2.83
    },
    {
      "nom": "Parassy",
      "code": "18176",
      "codesPostaux": ["18220"],
      "centre": {
        "type": "Point",
        "coordinates": [2.539, 47.2399]
      },
      "mairie": {
        "type": "Point",
        "coordinates": [2.5488, 47.2329]
      },
      "population": 406,
      "surface": 2666.31,
      "radius": 2.91
    },
    {
      "nom": "Parnay",
      "code": "18177",
      "codesPostaux": ["18130"],
      "centre": {
        "type": "Point",
        "coordinates": [2.5559, 46.8537]
      },
      "mairie": {
        "type": "Point",
        "coordinates": [2.569, 46.8517]
      },
      "population": 50,
      "surface": 1742.52,
      "radius": 2.36
    },
    {
      "nom": "Pigny",
      "code": "18179",
      "codesPostaux": ["18110"],
      "centre": {
        "type": "Point",
        "coordinates": [2.4446, 47.1633]
      },
      "mairie": {
        "type": "Point",
        "coordinates": [2.445, 47.1705]
      },
      "population": 968,
      "surface": 825.26,
      "radius": 1.62
    },
    {
      "nom": "Plaimpied-Givaudins",
      "code": "18180",
      "codesPostaux": ["18340"],
      "centre": {
        "type": "Point",
        "coordinates": [2.445, 47.0116]
      },
      "mairie": {
        "type": "Point",
        "coordinates": [2.4551, 46.998]
      },
      "population": 2104,
      "surface": 4107.63,
      "radius": 3.62
    },
    {
      "nom": "Plou",
      "code": "18181",
      "codesPostaux": ["18290"],
      "centre": {
        "type": "Point",
        "coordinates": [2.144, 47.0357]
      },
      "mairie": {
        "type": "Point",
        "coordinates": [2.155, 47.0152]
      },
      "population": 533,
      "surface": 3382.76,
      "radius": 3.28
    },
    {
      "nom": "Poisieux",
      "code": "18182",
      "codesPostaux": ["18290"],
      "centre": {
        "type": "Point",
        "coordinates": [2.0854, 47.0289]
      },
      "mairie": {
        "type": "Point",
        "coordinates": [2.0974, 47.0282]
      },
      "population": 217,
      "surface": 1047.43,
      "radius": 1.83
    },
    {
      "nom": "Précy",
      "code": "18184",
      "codesPostaux": ["18140"],
      "centre": {
        "type": "Point",
        "coordinates": [2.9353, 47.0927]
      },
      "mairie": {
        "type": "Point",
        "coordinates": [2.9284, 47.0999]
      },
      "population": 354,
      "surface": 1469.77,
      "radius": 2.16
    },
    {
      "nom": "Presly",
      "code": "18185",
      "codesPostaux": ["18380"],
      "centre": {
        "type": "Point",
        "coordinates": [2.3242, 47.3882]
      },
      "mairie": {
        "type": "Point",
        "coordinates": [2.3578, 47.3892]
      },
      "population": 221,
      "surface": 7450.11,
      "radius": 4.87
    },
    {
      "nom": "Preuilly",
      "code": "18186",
      "codesPostaux": ["18120"],
      "centre": {
        "type": "Point",
        "coordinates": [2.1637, 47.0965]
      },
      "mairie": {
        "type": "Point",
        "coordinates": [2.1767, 47.0959]
      },
      "population": 473,
      "surface": 1518.59,
      "radius": 2.2
    },
    {
      "nom": "Préveranges",
      "code": "18187",
      "codesPostaux": ["18370"],
      "centre": {
        "type": "Point",
        "coordinates": [2.2512, 46.456]
      },
      "mairie": {
        "type": "Point",
        "coordinates": [2.254, 46.4337]
      },
      "population": 522,
      "surface": 3806.61,
      "radius": 3.48
    },
    {
      "nom": "Primelles",
      "code": "18188",
      "codesPostaux": ["18400"],
      "centre": {
        "type": "Point",
        "coordinates": [2.2076, 46.9077]
      },
      "mairie": {
        "type": "Point",
        "coordinates": [2.212, 46.9284]
      },
      "population": 193,
      "surface": 2691.45,
      "radius": 2.93
    },
    {
      "nom": "Quantilly",
      "code": "18189",
      "codesPostaux": ["18110"],
      "centre": {
        "type": "Point",
        "coordinates": [2.4462, 47.2309]
      },
      "mairie": {
        "type": "Point",
        "coordinates": [2.4447, 47.2247]
      },
      "population": 481,
      "surface": 1280.95,
      "radius": 2.02
    },
    {
      "nom": "Quincy",
      "code": "18190",
      "codesPostaux": ["18120"],
      "centre": {
        "type": "Point",
        "coordinates": [2.1581, 47.1289]
      },
      "mairie": {
        "type": "Point",
        "coordinates": [2.1576, 47.132]
      },
      "population": 821,
      "surface": 1830.81,
      "radius": 2.41
    },
    {
      "nom": "Raymond",
      "code": "18191",
      "codesPostaux": ["18130"],
      "centre": {
        "type": "Point",
        "coordinates": [2.6898, 46.9704]
      },
      "mairie": {
        "type": "Point",
        "coordinates": [2.6858, 46.9706]
      },
      "population": 175,
      "surface": 933.65,
      "radius": 1.72
    },
    {
      "nom": "Reigny",
      "code": "18192",
      "codesPostaux": ["18270"],
      "centre": {
        "type": "Point",
        "coordinates": [2.3388, 46.5875]
      },
      "mairie": {
        "type": "Point",
        "coordinates": [2.3512, 46.5762]
      },
      "population": 228,
      "surface": 2451.64,
      "radius": 2.79
    },
    {
      "nom": "Rezay",
      "code": "18193",
      "codesPostaux": ["18170"],
      "centre": {
        "type": "Point",
        "coordinates": [2.1716, 46.6713]
      },
      "mairie": {
        "type": "Point",
        "coordinates": [2.1783, 46.6728]
      },
      "population": 203,
      "surface": 2159.84,
      "radius": 2.62
    },
    {
      "nom": "Rians",
      "code": "18194",
      "codesPostaux": ["18220"],
      "centre": {
        "type": "Point",
        "coordinates": [2.6203, 47.1864]
      },
      "mairie": {
        "type": "Point",
        "coordinates": [2.6135, 47.1848]
      },
      "population": 962,
      "surface": 3282.43,
      "radius": 3.23
    },
    {
      "nom": "Sagonne",
      "code": "18195",
      "codesPostaux": ["18600"],
      "centre": {
        "type": "Point",
        "coordinates": [2.8253, 46.8599]
      },
      "mairie": {
        "type": "Point",
        "coordinates": [2.8258, 46.8493]
      },
      "population": 188,
      "surface": 1896.37,
      "radius": 2.46
    },
    {
      "nom": "Saint-Aignan-des-Noyers",
      "code": "18196",
      "codesPostaux": ["18600"],
      "centre": {
        "type": "Point",
        "coordinates": [2.8187, 46.7544]
      },
      "mairie": {
        "type": "Point",
        "coordinates": [2.816, 46.7651]
      },
      "population": 74,
      "surface": 1111.43,
      "radius": 1.88
    },
    {
      "nom": "Saint-Amand-Montrond",
      "code": "18197",
      "codesPostaux": ["18200"],
      "centre": {
        "type": "Point",
        "coordinates": [2.5167, 46.7236]
      },
      "mairie": {
        "type": "Point",
        "coordinates": [2.5068, 46.7212]
      },
      "population": 9690,
      "surface": 2021.2,
      "radius": 2.54
    },
    {
      "nom": "Saint-Ambroix",
      "code": "18198",
      "codesPostaux": ["18290"],
      "centre": {
        "type": "Point",
        "coordinates": [2.1274, 46.9323]
      },
      "mairie": {
        "type": "Point",
        "coordinates": [2.1194, 46.931]
      },
      "population": 375,
      "surface": 3183.4,
      "radius": 3.18
    },
    {
      "nom": "Saint-Baudel",
      "code": "18199",
      "codesPostaux": ["18160"],
      "centre": {
        "type": "Point",
        "coordinates": [2.202, 46.8529]
      },
      "mairie": {
        "type": "Point",
        "coordinates": [2.2069, 46.8381]
      },
      "population": 251,
      "surface": 3029.4,
      "radius": 3.11
    },
    {
      "nom": "Saint-Bouize",
      "code": "18200",
      "codesPostaux": ["18300"],
      "centre": {
        "type": "Point",
        "coordinates": [2.8959, 47.2708]
      },
      "mairie": {
        "type": "Point",
        "coordinates": [2.8852, 47.2842]
      },
      "population": 258,
      "surface": 1501.2,
      "radius": 2.19
    },
    {
      "nom": "Saint-Caprais",
      "code": "18201",
      "codesPostaux": ["18400"],
      "centre": {
        "type": "Point",
        "coordinates": [2.2917, 46.9671]
      },
      "mairie": {
        "type": "Point",
        "coordinates": [2.2939, 46.969]
      },
      "population": 757,
      "surface": 1457.24,
      "radius": 2.15
    },
    {
      "nom": "Saint-Céols",
      "code": "18202",
      "codesPostaux": ["18220"],
      "centre": {
        "type": "Point",
        "coordinates": [2.6373, 47.2185]
      },
      "mairie": {
        "type": "Point",
        "coordinates": [2.6301, 47.2217]
      },
      "population": 13,
      "surface": 336.04,
      "radius": 1.03
    },
    {
      "nom": "Saint-Christophe-le-Chaudry",
      "code": "18203",
      "codesPostaux": ["18270"],
      "centre": {
        "type": "Point",
        "coordinates": [2.3934, 46.5878]
      },
      "mairie": {
        "type": "Point",
        "coordinates": [2.3688, 46.5807]
      },
      "population": 94,
      "surface": 1755.84,
      "radius": 2.36
    },
    {
      "nom": "Saint-Denis-de-Palin",
      "code": "18204",
      "codesPostaux": ["18130"],
      "centre": {
        "type": "Point",
        "coordinates": [2.5214, 46.9394]
      },
      "mairie": {
        "type": "Point",
        "coordinates": [2.5396, 46.9403]
      },
      "population": 278,
      "surface": 3095.56,
      "radius": 3.14
    },
    {
      "nom": "Saint-Doulchard",
      "code": "18205",
      "codesPostaux": ["18230"],
      "centre": {
        "type": "Point",
        "coordinates": [2.3554, 47.1116]
      },
      "mairie": {
        "type": "Point",
        "coordinates": [2.3726, 47.0998]
      },
      "population": 9650,
      "surface": 2396.72,
      "radius": 2.76
    },
    {
      "nom": "Saint-Éloy-de-Gy",
      "code": "18206",
      "codesPostaux": ["18110"],
      "centre": {
        "type": "Point",
        "coordinates": [2.3273, 47.1671]
      },
      "mairie": {
        "type": "Point",
        "coordinates": [2.3412, 47.1554]
      },
      "population": 1569,
      "surface": 3150.39,
      "radius": 3.17
    },
    {
      "nom": "Saint-Florent-sur-Cher",
      "code": "18207",
      "codesPostaux": ["18400"],
      "centre": {
        "type": "Point",
        "coordinates": [2.2537, 46.9921]
      },
      "mairie": {
        "type": "Point",
        "coordinates": [2.2438, 46.9938]
      },
      "population": 6416,
      "surface": 2248.09,
      "radius": 2.68
    },
    {
      "nom": "Saint-Georges-de-Poisieux",
      "code": "18209",
      "codesPostaux": ["18200"],
      "centre": {
        "type": "Point",
        "coordinates": [2.4808, 46.6838]
      },
      "mairie": {
        "type": "Point",
        "coordinates": [2.4791, 46.6871]
      },
      "population": 435,
      "surface": 1594.16,
      "radius": 2.25
    },
    {
      "nom": "Saint-Georges-sur-la-Prée",
      "code": "18210",
      "codesPostaux": ["18100"],
      "centre": {
        "type": "Point",
        "coordinates": [1.9492, 47.2181]
      },
      "mairie": {
        "type": "Point",
        "coordinates": [1.9373, 47.2256]
      },
      "population": 595,
      "surface": 2279.54,
      "radius": 2.69
    },
    {
      "nom": "Saint-Georges-sur-Moulon",
      "code": "18211",
      "codesPostaux": ["18110"],
      "centre": {
        "type": "Point",
        "coordinates": [2.4162, 47.1837]
      },
      "mairie": {
        "type": "Point",
        "coordinates": [2.4236, 47.1907]
      },
      "population": 722,
      "surface": 955.06,
      "radius": 1.74
    },
    {
      "nom": "Saint-Germain-des-Bois",
      "code": "18212",
      "codesPostaux": ["18340"],
      "centre": {
        "type": "Point",
        "coordinates": [2.4496, 46.8858]
      },
      "mairie": {
        "type": "Point",
        "coordinates": [2.4436, 46.9127]
      },
      "population": 614,
      "surface": 2909.55,
      "radius": 3.04
    },
    {
      "nom": "Saint-Germain-du-Puy",
      "code": "18213",
      "codesPostaux": ["18390"],
      "centre": {
        "type": "Point",
        "coordinates": [2.4817, 47.1102]
      },
      "mairie": {
        "type": "Point",
        "coordinates": [2.4828, 47.0993]
      },
      "population": 4852,
      "surface": 2203.57,
      "radius": 2.65
    },
    {
      "nom": "Saint-Hilaire-de-Court",
      "code": "18214",
      "codesPostaux": ["18100"],
      "centre": {
        "type": "Point",
        "coordinates": [1.9995, 47.2048]
      },
      "mairie": {
        "type": "Point",
        "coordinates": [2.0196, 47.2063]
      },
      "population": 595,
      "surface": 1211.85,
      "radius": 1.96
    },
    {
      "nom": "Saint-Hilaire-de-Gondilly",
      "code": "18215",
      "codesPostaux": ["18320", "18350"],
      "centre": {
        "type": "Point",
        "coordinates": [2.9065, 47.029]
      },
      "mairie": {
        "type": "Point",
        "coordinates": [2.8856, 47.0493]
      },
      "population": 136,
      "surface": 1876.69,
      "radius": 2.44
    },
    {
      "nom": "Saint-Hilaire-en-Lignières",
      "code": "18216",
      "codesPostaux": ["18160"],
      "centre": {
        "type": "Point",
        "coordinates": [2.1273, 46.7451]
      },
      "mairie": {
        "type": "Point",
        "coordinates": [2.1742, 46.7273]
      },
      "population": 496,
      "surface": 5455.46,
      "radius": 4.17
    },
    {
      "nom": "Saint-Jeanvrin",
      "code": "18217",
      "codesPostaux": ["18370"],
      "centre": {
        "type": "Point",
        "coordinates": [2.2396, 46.6004]
      },
      "mairie": {
        "type": "Point",
        "coordinates": [2.2336, 46.5963]
      },
      "population": 166,
      "surface": 1791.47,
      "radius": 2.39
    },
    {
      "nom": "Saint-Just",
      "code": "18218",
      "codesPostaux": ["18340"],
      "centre": {
        "type": "Point",
        "coordinates": [2.501, 46.9884]
      },
      "mairie": {
        "type": "Point",
        "coordinates": [2.5096, 46.992]
      },
      "population": 646,
      "surface": 1488.29,
      "radius": 2.18
    },
    {
      "nom": "Saint-Laurent",
      "code": "18219",
      "codesPostaux": ["18330"],
      "centre": {
        "type": "Point",
        "coordinates": [2.1855, 47.2434]
      },
      "mairie": {
        "type": "Point",
        "coordinates": [2.2034, 47.2267]
      },
      "population": 511,
      "surface": 3879.68,
      "radius": 3.51
    },
    {
      "nom": "Saint-Léger-le-Petit",
      "code": "18220",
      "codesPostaux": ["18140"],
      "centre": {
        "type": "Point",
        "coordinates": [2.9986, 47.1151]
      },
      "mairie": {
        "type": "Point",
        "coordinates": [3.0029, 47.1225]
      },
      "population": 354,
      "surface": 1005.02,
      "radius": 1.79
    },
    {
      "nom": "Saint-Loup-des-Chaumes",
      "code": "18221",
      "codesPostaux": ["18190"],
      "centre": {
        "type": "Point",
        "coordinates": [2.3783, 46.8246]
      },
      "mairie": {
        "type": "Point",
        "coordinates": [2.3882, 46.8235]
      },
      "population": 285,
      "surface": 1883.45,
      "radius": 2.45
    },
    {
      "nom": "Saint-Martin-d'Auxigny",
      "code": "18223",
      "codesPostaux": ["18110"],
      "centre": {
        "type": "Point",
        "coordinates": [2.3843, 47.2164]
      },
      "mairie": {
        "type": "Point",
        "coordinates": [2.4171, 47.2044]
      },
      "population": 2525,
      "surface": 2430.79,
      "radius": 2.78
    },
    {
      "nom": "Saint-Martin-des-Champs",
      "code": "18224",
      "codesPostaux": ["18140"],
      "centre": {
        "type": "Point",
        "coordinates": [2.9339, 47.1717]
      },
      "mairie": {
        "type": "Point",
        "coordinates": [2.9227, 47.157]
      },
      "population": 303,
      "surface": 1891.73,
      "radius": 2.45
    },
    {
      "nom": "Saint-Maur",
      "code": "18225",
      "codesPostaux": ["18270"],
      "centre": {
        "type": "Point",
        "coordinates": [2.2864, 46.5678]
      },
      "mairie": {
        "type": "Point",
        "coordinates": [2.2996, 46.5802]
      },
      "population": 258,
      "surface": 2610.14,
      "radius": 2.88
    },
    {
      "nom": "Saint-Michel-de-Volangis",
      "code": "18226",
      "codesPostaux": ["18390"],
      "centre": {
        "type": "Point",
        "coordinates": [2.4812, 47.1406]
      },
      "mairie": {
        "type": "Point",
        "coordinates": [2.4892, 47.1481]
      },
      "population": 466,
      "surface": 1747.19,
      "radius": 2.36
    },
    {
      "nom": "Saint-Outrille",
      "code": "18228",
      "codesPostaux": ["18310"],
      "centre": {
        "type": "Point",
        "coordinates": [1.8095, 47.1414]
      },
      "mairie": {
        "type": "Point",
        "coordinates": [1.8417, 47.144]
      },
      "population": 215,
      "surface": 1261.09,
      "radius": 2
    },
    {
      "nom": "Saint-Palais",
      "code": "18229",
      "codesPostaux": ["18110"],
      "centre": {
        "type": "Point",
        "coordinates": [2.4064, 47.2476]
      },
      "mairie": {
        "type": "Point",
        "coordinates": [2.4203, 47.233]
      },
      "population": 617,
      "surface": 2645.83,
      "radius": 2.9
    },
    {
      "nom": "Saint-Pierre-les-Bois",
      "code": "18230",
      "codesPostaux": ["18170"],
      "centre": {
        "type": "Point",
        "coordinates": [2.2822, 46.672]
      },
      "mairie": {
        "type": "Point",
        "coordinates": [2.2787, 46.6651]
      },
      "population": 272,
      "surface": 2071.03,
      "radius": 2.57
    },
    {
      "nom": "Saint-Pierre-les-Étieux",
      "code": "18231",
      "codesPostaux": ["18210"],
      "centre": {
        "type": "Point",
        "coordinates": [2.5944, 46.738]
      },
      "mairie": {
        "type": "Point",
        "coordinates": [2.5936, 46.7382]
      },
      "population": 744,
      "surface": 2789.27,
      "radius": 2.98
    },
    {
      "nom": "Saint-Priest-la-Marche",
      "code": "18232",
      "codesPostaux": ["18370"],
      "centre": {
        "type": "Point",
        "coordinates": [2.184, 46.4515]
      },
      "mairie": {
        "type": "Point",
        "coordinates": [2.1767, 46.4486]
      },
      "population": 249,
      "surface": 2028.42,
      "radius": 2.54
    },
    {
      "nom": "Saint-Satur",
      "code": "18233",
      "codesPostaux": ["18300"],
      "centre": {
        "type": "Point",
        "coordinates": [2.8559, 47.3491]
      },
      "mairie": {
        "type": "Point",
        "coordinates": [2.8527, 47.34]
      },
      "population": 1410,
      "surface": 786.13,
      "radius": 1.58
    },
    {
      "nom": "Saint-Saturnin",
      "code": "18234",
      "codesPostaux": ["18370"],
      "centre": {
        "type": "Point",
        "coordinates": [2.2418, 46.5074]
      },
      "mairie": {
        "type": "Point",
        "coordinates": [2.2371, 46.5074]
      },
      "population": 440,
      "surface": 3968.15,
      "radius": 3.55
    },
    {
      "nom": "Saint-Symphorien",
      "code": "18236",
      "codesPostaux": ["18190"],
      "centre": {
        "type": "Point",
        "coordinates": [2.3044, 46.8078]
      },
      "mairie": {
        "type": "Point",
        "coordinates": [2.307, 46.8122]
      },
      "population": 133,
      "surface": 967.3,
      "radius": 1.75
    },
    {
      "nom": "Saint-Vitte",
      "code": "18238",
      "codesPostaux": ["18360"],
      "centre": {
        "type": "Point",
        "coordinates": [2.5292, 46.5395]
      },
      "mairie": {
        "type": "Point",
        "coordinates": [2.5316, 46.5456]
      },
      "population": 121,
      "surface": 1669.41,
      "radius": 2.31
    },
    {
      "nom": "Sainte-Gemme-en-Sancerrois",
      "code": "18208",
      "codesPostaux": ["18240"],
      "centre": {
        "type": "Point",
        "coordinates": [2.819, 47.4031]
      },
      "mairie": {
        "type": "Point",
        "coordinates": [2.8166, 47.3942]
      },
      "population": 403,
      "surface": 1500.7,
      "radius": 2.19
    },
    {
      "nom": "Sainte-Montaine",
      "code": "18227",
      "codesPostaux": ["18700"],
      "centre": {
        "type": "Point",
        "coordinates": [2.3249, 47.5026]
      },
      "mairie": {
        "type": "Point",
        "coordinates": [2.3217, 47.4895]
      },
      "population": 167,
      "surface": 5359.15,
      "radius": 4.13
    },
    {
      "nom": "Sainte-Solange",
      "code": "18235",
      "codesPostaux": ["18220"],
      "centre": {
        "type": "Point",
        "coordinates": [2.5516, 47.1427]
      },
      "mairie": {
        "type": "Point",
        "coordinates": [2.5471, 47.1342]
      },
      "population": 1114,
      "surface": 3180.95,
      "radius": 3.18
    },
    {
      "nom": "Sainte-Thorette",
      "code": "18237",
      "codesPostaux": ["18500"],
      "centre": {
        "type": "Point",
        "coordinates": [2.2121, 47.0809]
      },
      "mairie": {
        "type": "Point",
        "coordinates": [2.1983, 47.0823]
      },
      "population": 473,
      "surface": 2640.75,
      "radius": 2.9
    },
    {
      "nom": "Sancergues",
      "code": "18240",
      "codesPostaux": ["18140"],
      "centre": {
        "type": "Point",
        "coordinates": [2.9047, 47.1624]
      },
      "mairie": {
        "type": "Point",
        "coordinates": [2.9169, 47.156]
      },
      "population": 626,
      "surface": 1564.67,
      "radius": 2.23
    },
    {
      "nom": "Sancerre",
      "code": "18241",
      "codesPostaux": ["18300"],
      "centre": {
        "type": "Point",
        "coordinates": [2.822, 47.3248]
      },
      "mairie": {
        "type": "Point",
        "coordinates": [2.8396, 47.3296]
      },
      "population": 1328,
      "surface": 1632.27,
      "radius": 2.28
    },
    {
      "nom": "Sancoins",
      "code": "18242",
      "codesPostaux": ["18600"],
      "centre": {
        "type": "Point",
        "coordinates": [2.9095, 46.8184]
      },
      "mairie": {
        "type": "Point",
        "coordinates": [2.9197, 46.8309]
      },
      "population": 2941,
      "surface": 5362.45,
      "radius": 4.13
    },
    {
      "nom": "Santranges",
      "code": "18243",
      "codesPostaux": ["18240"],
      "centre": {
        "type": "Point",
        "coordinates": [2.7635, 47.5061]
      },
      "mairie": {
        "type": "Point",
        "coordinates": [2.7726, 47.4977]
      },
      "population": 438,
      "surface": 2451.2,
      "radius": 2.79
    },
    {
      "nom": "Saugy",
      "code": "18244",
      "codesPostaux": ["18290"],
      "centre": {
        "type": "Point",
        "coordinates": [2.111, 46.9668]
      },
      "mairie": {
        "type": "Point",
        "coordinates": [2.117, 46.9707]
      },
      "population": 78,
      "surface": 971.69,
      "radius": 1.76
    },
    {
      "nom": "Saulzais-le-Potier",
      "code": "18245",
      "codesPostaux": ["18360"],
      "centre": {
        "type": "Point",
        "coordinates": [2.4872, 46.5988]
      },
      "mairie": {
        "type": "Point",
        "coordinates": [2.4956, 46.5981]
      },
      "population": 476,
      "surface": 3299.68,
      "radius": 3.24
    },
    {
      "nom": "Savigny-en-Sancerre",
      "code": "18246",
      "codesPostaux": ["18240"],
      "centre": {
        "type": "Point",
        "coordinates": [2.7963, 47.4423]
      },
      "mairie": {
        "type": "Point",
        "coordinates": [2.809, 47.4417]
      },
      "population": 1111,
      "surface": 3367.39,
      "radius": 3.27
    },
    {
      "nom": "Savigny-en-Septaine",
      "code": "18247",
      "codesPostaux": ["18390"],
      "centre": {
        "type": "Point",
        "coordinates": [2.5652, 47.0466]
      },
      "mairie": {
        "type": "Point",
        "coordinates": [2.5606, 47.0439]
      },
      "population": 710,
      "surface": 2284.8,
      "radius": 2.7
    },
    {
      "nom": "Senneçay",
      "code": "18248",
      "codesPostaux": ["18340"],
      "centre": {
        "type": "Point",
        "coordinates": [2.4436, 46.9467]
      },
      "mairie": {
        "type": "Point",
        "coordinates": [2.4359, 46.9523]
      },
      "population": 451,
      "surface": 1459.48,
      "radius": 2.16
    },
    {
      "nom": "Sens-Beaujeu",
      "code": "18249",
      "codesPostaux": ["18300"],
      "centre": {
        "type": "Point",
        "coordinates": [2.6833, 47.337]
      },
      "mairie": {
        "type": "Point",
        "coordinates": [2.7106, 47.3265]
      },
      "population": 403,
      "surface": 2171.77,
      "radius": 2.63
    },
    {
      "nom": "Serruelles",
      "code": "18250",
      "codesPostaux": ["18190"],
      "centre": {
        "type": "Point",
        "coordinates": [2.3828, 46.8809]
      },
      "mairie": {
        "type": "Point",
        "coordinates": [2.3699, 46.8827]
      },
      "population": 67,
      "surface": 757.72,
      "radius": 1.55
    },
    {
      "nom": "Sévry",
      "code": "18251",
      "codesPostaux": ["18140"],
      "centre": {
        "type": "Point",
        "coordinates": [2.822, 47.1384]
      },
      "mairie": {
        "type": "Point",
        "coordinates": [2.8035, 47.1317]
      },
      "population": 62,
      "surface": 913.46,
      "radius": 1.71
    },
    {
      "nom": "Sidiailles",
      "code": "18252",
      "codesPostaux": ["18270"],
      "centre": {
        "type": "Point",
        "coordinates": [2.3223, 46.5093]
      },
      "mairie": {
        "type": "Point",
        "coordinates": [2.3183, 46.5079]
      },
      "population": 295,
      "surface": 3204.87,
      "radius": 3.19
    },
    {
      "nom": "Soulangis",
      "code": "18253",
      "codesPostaux": ["18220"],
      "centre": {
        "type": "Point",
        "coordinates": [2.5162, 47.1788]
      },
      "mairie": {
        "type": "Point",
        "coordinates": [2.5175, 47.1874]
      },
      "population": 457,
      "surface": 1404.46,
      "radius": 2.11
    },
    {
      "nom": "Soye-en-Septaine",
      "code": "18254",
      "codesPostaux": ["18340"],
      "centre": {
        "type": "Point",
        "coordinates": [2.4906, 47.0328]
      },
      "mairie": {
        "type": "Point",
        "coordinates": [2.4889, 47.0275]
      },
      "population": 582,
      "surface": 1893.54,
      "radius": 2.46
    },
    {
      "nom": "Subligny",
      "code": "18256",
      "codesPostaux": ["18260"],
      "centre": {
        "type": "Point",
        "coordinates": [2.7531, 47.395]
      },
      "mairie": {
        "type": "Point",
        "coordinates": [2.7552, 47.4038]
      },
      "population": 337,
      "surface": 1758.52,
      "radius": 2.37
    },
    {
      "nom": "Sury-en-Vaux",
      "code": "18258",
      "codesPostaux": ["18300"],
      "centre": {
        "type": "Point",
        "coordinates": [2.797, 47.3713]
      },
      "mairie": {
        "type": "Point",
        "coordinates": [2.8026, 47.3689]
      },
      "population": 685,
      "surface": 1589.89,
      "radius": 2.25
    },
    {
      "nom": "Sury-ès-Bois",
      "code": "18259",
      "codesPostaux": ["18260"],
      "centre": {
        "type": "Point",
        "coordinates": [2.7114, 47.4611]
      },
      "mairie": {
        "type": "Point",
        "coordinates": [2.7035, 47.4647]
      },
      "population": 300,
      "surface": 3279.74,
      "radius": 3.23
    },
    {
      "nom": "Sury-près-Léré",
      "code": "18257",
      "codesPostaux": ["18240"],
      "centre": {
        "type": "Point",
        "coordinates": [2.8427, 47.485]
      },
      "mairie": {
        "type": "Point",
        "coordinates": [2.8625, 47.4822]
      },
      "population": 656,
      "surface": 1801.03,
      "radius": 2.39
    },
    {
      "nom": "Tendron",
      "code": "18260",
      "codesPostaux": ["18350"],
      "centre": {
        "type": "Point",
        "coordinates": [2.8189, 46.9804]
      },
      "mairie": {
        "type": "Point",
        "coordinates": [2.8447, 46.9736]
      },
      "population": 88,
      "surface": 1057.65,
      "radius": 1.83
    },
    {
      "nom": "Thaumiers",
      "code": "18261",
      "codesPostaux": ["18210"],
      "centre": {
        "type": "Point",
        "coordinates": [2.6625, 46.8185]
      },
      "mairie": {
        "type": "Point",
        "coordinates": [2.654, 46.8221]
      },
      "population": 392,
      "surface": 2769.15,
      "radius": 2.97
    },
    {
      "nom": "Thauvenay",
      "code": "18262",
      "codesPostaux": ["18300"],
      "centre": {
        "type": "Point",
        "coordinates": [2.8785, 47.2982]
      },
      "mairie": {
        "type": "Point",
        "coordinates": [2.8668, 47.305]
      },
      "population": 319,
      "surface": 997.25,
      "radius": 1.78
    },
    {
      "nom": "Thénioux",
      "code": "18263",
      "codesPostaux": ["18100"],
      "centre": {
        "type": "Point",
        "coordinates": [1.934, 47.2652]
      },
      "mairie": {
        "type": "Point",
        "coordinates": [1.9267, 47.2565]
      },
      "population": 666,
      "surface": 1869.53,
      "radius": 2.44
    },
    {
      "nom": "Thou",
      "code": "18264",
      "codesPostaux": ["18260"],
      "centre": {
        "type": "Point",
        "coordinates": [2.6713, 47.4222]
      },
      "mairie": {
        "type": "Point",
        "coordinates": [2.6607, 47.4266]
      },
      "population": 78,
      "surface": 939.55,
      "radius": 1.73
    },
    {
      "nom": "Torteron",
      "code": "18265",
      "codesPostaux": ["18320"],
      "centre": {
        "type": "Point",
        "coordinates": [2.9883, 47.009]
      },
      "mairie": {
        "type": "Point",
        "coordinates": [2.9629, 47.0238]
      },
      "population": 789,
      "surface": 1379.52,
      "radius": 2.1
    },
    {
      "nom": "Touchay",
      "code": "18266",
      "codesPostaux": ["18160"],
      "centre": {
        "type": "Point",
        "coordinates": [2.2082, 46.7153]
      },
      "mairie": {
        "type": "Point",
        "coordinates": [2.2108, 46.7126]
      },
      "population": 224,
      "surface": 2372.19,
      "radius": 2.75
    },
    {
      "nom": "Trouy",
      "code": "18267",
      "codesPostaux": ["18570"],
      "centre": {
        "type": "Point",
        "coordinates": [2.3618, 47.0273]
      },
      "mairie": {
        "type": "Point",
        "coordinates": [2.3557, 47.0088]
      },
      "population": 4034,
      "surface": 2348.6,
      "radius": 2.73
    },
    {
      "nom": "Uzay-le-Venon",
      "code": "18268",
      "codesPostaux": ["18190"],
      "centre": {
        "type": "Point",
        "coordinates": [2.4705, 46.8229]
      },
      "mairie": {
        "type": "Point",
        "coordinates": [2.4605, 46.8124]
      },
      "population": 410,
      "surface": 3535.28,
      "radius": 3.35
    },
    {
      "nom": "Vailly-sur-Sauldre",
      "code": "18269",
      "codesPostaux": ["18260"],
      "centre": {
        "type": "Point",
        "coordinates": [2.6461, 47.457]
      },
      "mairie": {
        "type": "Point",
        "coordinates": [2.6515, 47.4584]
      },
      "population": 649,
      "surface": 1853.65,
      "radius": 2.43
    },
    {
      "nom": "Vallenay",
      "code": "18270",
      "codesPostaux": ["18190"],
      "centre": {
        "type": "Point",
        "coordinates": [2.3819, 46.7664]
      },
      "mairie": {
        "type": "Point",
        "coordinates": [2.372, 46.8007]
      },
      "population": 694,
      "surface": 2601.12,
      "radius": 2.88
    },
    {
      "nom": "Vasselay",
      "code": "18271",
      "codesPostaux": ["18110"],
      "centre": {
        "type": "Point",
        "coordinates": [2.3886, 47.1577]
      },
      "mairie": {
        "type": "Point",
        "coordinates": [2.3879, 47.158]
      },
      "population": 1569,
      "surface": 2014.31,
      "radius": 2.53
    },
    {
      "nom": "Veaugues",
      "code": "18272",
      "codesPostaux": ["18300"],
      "centre": {
        "type": "Point",
        "coordinates": [2.7535, 47.2662]
      },
      "mairie": {
        "type": "Point",
        "coordinates": [2.7578, 47.2564]
      },
      "population": 605,
      "surface": 2795.55,
      "radius": 2.98
    },
    {
      "nom": "Venesmes",
      "code": "18273",
      "codesPostaux": ["18190"],
      "centre": {
        "type": "Point",
        "coordinates": [2.2887, 46.8496]
      },
      "mairie": {
        "type": "Point",
        "coordinates": [2.3127, 46.8394]
      },
      "population": 788,
      "surface": 3188.13,
      "radius": 3.19
    },
    {
      "nom": "Verdigny",
      "code": "18274",
      "codesPostaux": ["18300"],
      "centre": {
        "type": "Point",
        "coordinates": [2.8089, 47.3493]
      },
      "mairie": {
        "type": "Point",
        "coordinates": [2.8085, 47.3488]
      },
      "population": 318,
      "surface": 498.93,
      "radius": 1.26
    },
    {
      "nom": "Vereaux",
      "code": "18275",
      "codesPostaux": ["18600"],
      "centre": {
        "type": "Point",
        "coordinates": [2.8661, 46.8709]
      },
      "mairie": {
        "type": "Point",
        "coordinates": [2.8784, 46.8793]
      },
      "population": 137,
      "surface": 2319.77,
      "radius": 2.72
    },
    {
      "nom": "Vernais",
      "code": "18276",
      "codesPostaux": ["18210"],
      "centre": {
        "type": "Point",
        "coordinates": [2.712, 46.7681]
      },
      "mairie": {
        "type": "Point",
        "coordinates": [2.7132, 46.7656]
      },
      "population": 184,
      "surface": 2623.25,
      "radius": 2.89
    },
    {
      "nom": "Verneuil",
      "code": "18277",
      "codesPostaux": ["18210"],
      "centre": {
        "type": "Point",
        "coordinates": [2.5992, 46.8227]
      },
      "mairie": {
        "type": "Point",
        "coordinates": [2.6101, 46.8149]
      },
      "population": 35,
      "surface": 1131.93,
      "radius": 1.9
    },
    {
      "nom": "Vesdun",
      "code": "18278",
      "codesPostaux": ["18360"],
      "centre": {
        "type": "Point",
        "coordinates": [2.4345, 46.5594]
      },
      "mairie": {
        "type": "Point",
        "coordinates": [2.4302, 46.5395]
      },
      "population": 544,
      "surface": 4994.38,
      "radius": 3.99
    },
    {
      "nom": "Vierzon",
      "code": "18279",
      "codesPostaux": ["18100"],
      "centre": {
        "type": "Point",
        "coordinates": [2.0776, 47.2351]
      },
      "mairie": {
        "type": "Point",
        "coordinates": [2.0697, 47.2213]
      },
      "population": 25254,
      "surface": 7473.66,
      "radius": 4.88
    },
    {
      "nom": "Vignoux-sous-les-Aix",
      "code": "18280",
      "codesPostaux": ["18110"],
      "centre": {
        "type": "Point",
        "coordinates": [2.4683, 47.1836]
      },
      "mairie": {
        "type": "Point",
        "coordinates": [2.4642, 47.1863]
      },
      "population": 707,
      "surface": 1511.12,
      "radius": 2.19
    },
    {
      "nom": "Vignoux-sur-Barangeon",
      "code": "18281",
      "codesPostaux": ["18500"],
      "centre": {
        "type": "Point",
        "coordinates": [2.1898, 47.2105]
      },
      "mairie": {
        "type": "Point",
        "coordinates": [2.1726, 47.2016]
      },
      "population": 2061,
      "surface": 2487.72,
      "radius": 2.81
    },
    {
      "nom": "Villabon",
      "code": "18282",
      "codesPostaux": ["18800"],
      "centre": {
        "type": "Point",
        "coordinates": [2.68, 47.108]
      },
      "mairie": {
        "type": "Point",
        "coordinates": [2.676, 47.0957]
      },
      "population": 563,
      "surface": 1843.25,
      "radius": 2.42
    },
    {
      "nom": "Villecelin",
      "code": "18283",
      "codesPostaux": ["18160"],
      "centre": {
        "type": "Point",
        "coordinates": [2.1992, 46.8251]
      },
      "mairie": {
        "type": "Point",
        "coordinates": [2.1846, 46.8292]
      },
      "population": 78,
      "surface": 948.38,
      "radius": 1.74
    },
    {
      "nom": "Villegenon",
      "code": "18284",
      "codesPostaux": ["18260"],
      "centre": {
        "type": "Point",
        "coordinates": [2.5971, 47.4175]
      },
      "mairie": {
        "type": "Point",
        "coordinates": [2.6054, 47.4255]
      },
      "population": 215,
      "surface": 3326.57,
      "radius": 3.25
    },
    {
      "nom": "Villeneuve-sur-Cher",
      "code": "18285",
      "codesPostaux": ["18400"],
      "centre": {
        "type": "Point",
        "coordinates": [2.2227, 47.0285]
      },
      "mairie": {
        "type": "Point",
        "coordinates": [2.2224, 47.0291]
      },
      "population": 403,
      "surface": 2654.36,
      "radius": 2.91
    },