{
  "departmentCode": "25",
  "departmentName": "Doubs",
  "stats": {
    "communeCount": 563,
    "totalPopulation": 546964,
    "totalSurface": 525371
  },
  "communes": [
    {
      "nom": "Abbans-Dessous",
      "code": "25001",
      "codesPostaux": ["25320"],
      "centre": {
        "type": "Point",
        "coordinates": [5.871, 47.1345]
      },
      "mairie": {
        "type": "Point",
        "coordinates": [5.874, 47.1341]
      },
      "population": 247,
      "surface": 320.51,
      "radius": 1.01
    },
    {
      "nom": "Abbans-Dessus",
      "code": "25002",
      "codesPostaux": ["25440"],
      "centre": {
        "type": "Point",
        "coordinates": [5.8877, 47.1267]
      },
      "mairie": {
        "type": "Point",
        "coordinates": [5.8816, 47.1204]
      },
      "population": 283,
      "surface": 443.06,
      "radius": 1.19
    },
    {
      "nom": "Abbenans",
      "code": "25003",
      "codesPostaux": ["25340"],
      "centre": {
        "type": "Point",
        "coordinates": [6.4494, 47.4957]
      },
      "mairie": {
        "type": "Point",
        "coordinates": [6.4504, 47.5003]
      },
      "population": 321,
      "surface": 1129.28,
      "radius": 1.9
    },
    {
      "nom": "Abbévillers",
      "code": "25004",
      "codesPostaux": ["25310"],
      "centre": {
        "type": "Point",
        "coordinates": [6.9195, 47.4263]
      },
      "mairie": {
        "type": "Point",
        "coordinates": [6.919, 47.431]
      },
      "population": 1099,
      "surface": 1121.71,
      "radius": 1.89
    },
    {
      "nom": "Accolans",
      "code": "25005",
      "codesPostaux": ["25250"],
      "centre": {
        "type": "Point",
        "coordinates": [6.5353, 47.4908]
      },
      "mairie": {
        "type": "Point",
        "coordinates": [6.5322, 47.4945]
      },
      "population": 88,
      "surface": 519.55,
      "radius": 1.29
    },
    {
      "nom": "Adam-lès-Passavant",
      "code": "25006",
      "codesPostaux": ["25360"],
      "centre": {
        "type": "Point",
        "coordinates": [6.3692, 47.3049]
      },
      "mairie": {
        "type": "Point",
        "coordinates": [6.3601, 47.2961]
      },
      "population": 88,
      "surface": 951.94,
      "radius": 1.74
    },
    {
      "nom": "Adam-lès-Vercel",
      "code": "25007",
      "codesPostaux": ["25530"],
      "centre": {
        "type": "Point",
        "coordinates": [6.3904, 47.1646]
      },
      "mairie": {
        "type": "Point",
        "coordinates": [6.3915, 47.1682]
      },
      "population": 103,
      "surface": 311.65,
      "radius": 1
    },
    {
      "nom": "Aibre",
      "code": "25008",
      "codesPostaux": ["25750"],
      "centre": {
        "type": "Point",
        "coordinates": [6.6995, 47.5532]
      },
      "mairie": {
        "type": "Point",
        "coordinates": [6.6965, 47.5493]
      },
      "population": 449,
      "surface": 445.5,
      "radius": 1.19
    },
    {
      "nom": "Aïssey",
      "code": "25009",
      "codesPostaux": ["25360"],
      "centre": {
        "type": "Point",
        "coordinates": [6.3277, 47.2733]
      },
      "mairie": {
        "type": "Point",
        "coordinates": [6.3314, 47.2693]
      },
      "population": 165,
      "surface": 1075.19,
      "radius": 1.85
    },
    {
      "nom": "Allenjoie",
      "code": "25011",
      "codesPostaux": ["25490"],
      "centre": {
        "type": "Point",
        "coordinates": [6.8951, 47.5351]
      },
      "mairie": {
        "type": "Point",
        "coordinates": [6.8968, 47.5339]
      },
      "population": 735,
      "surface": 655.45,
      "radius": 1.44
    },
    {
      "nom": "Allondans",
      "code": "25013",
      "codesPostaux": ["25550"],
      "centre": {
        "type": "Point",
        "coordinates": [6.7508, 47.5238]
      },
      "mairie": {
        "type": "Point",
        "coordinates": [6.7475, 47.5195]
      },
      "population": 237,
      "surface": 511.48,
      "radius": 1.28
    },
    {
      "nom": "Amagney",
      "code": "25014",
      "codesPostaux": ["25220"],
      "centre": {
        "type": "Point",
        "coordinates": [6.1471, 47.3041]
      },
      "mairie": {
        "type": "Point",
        "coordinates": [6.1504, 47.3043]
      },
      "population": 937,
      "surface": 1309.7,
      "radius": 2.04
    },
    {
      "nom": "Amancey",
      "code": "25015",
      "codesPostaux": ["25330"],
      "centre": {
        "type": "Point",
        "coordinates": [6.0719, 47.034]
      },
      "mairie": {
        "type": "Point",
        "coordinates": [6.071, 47.0384]
      },
      "population": 731,
      "surface": 1380.83,
      "radius": 2.1
    },
    {
      "nom": "Amathay-Vésigneux",
      "code": "25016",
      "codesPostaux": ["25330"],
      "centre": {
        "type": "Point",
        "coordinates": [6.1971, 47.0237]
      },
      "mairie": {
        "type": "Point",
        "coordinates": [6.202, 47.0246]
      },
      "population": 173,
      "surface": 1215.31,
      "radius": 1.97
    },
    {
      "nom": "Amondans",
      "code": "25017",
      "codesPostaux": ["25330"],
      "centre": {
        "type": "Point",
        "coordinates": [6.0346, 47.0722]
      },
      "mairie": {
        "type": "Point",
        "coordinates": [6.0401, 47.0683]
      },
      "population": 86,
      "surface": 569.65,
      "radius": 1.35
    },
    {
      "nom": "Anteuil",
      "code": "25018",
      "codesPostaux": ["25340"],
      "centre": {
        "type": "Point",
        "coordinates": [6.5781, 47.3769]
      },
      "mairie": {
        "type": "Point",
        "coordinates": [6.5595, 47.3876]
      },
      "population": 600,
      "surface": 2420.19,
      "radius": 2.78
    },
    {
      "nom": "Appenans",
      "code": "25019",
      "codesPostaux": ["25250"],
      "centre": {
        "type": "Point",
        "coordinates": [6.568, 47.4549]
      },
      "mairie": {
        "type": "Point",
        "coordinates": [6.5654, 47.4436]
      },
      "population": 385,
      "surface": 412.34,
      "radius": 1.15
    },
    {
      "nom": "Arbouans",
      "code": "25020",
      "codesPostaux": ["25400"],
      "centre": {
        "type": "Point",
        "coordinates": [6.8095, 47.4883]
      },
      "mairie": {
        "type": "Point",
        "coordinates": [6.8086, 47.4879]
      },
      "population": 891,
      "surface": 132.67,
      "radius": 0.65
    },
    {
      "nom": "Arc-et-Senans",
      "code": "25021",
      "codesPostaux": ["25610"],
      "centre": {
        "type": "Point",
        "coordinates": [5.7686, 47.0344]
      },
      "mairie": {
        "type": "Point",
        "coordinates": [5.781, 47.033]
      },
      "population": 1621,
      "surface": 1496.35,
      "radius": 2.18
    },
    {
      "nom": "Arc-sous-Cicon",
      "code": "25025",
      "codesPostaux": ["25520"],
      "centre": {
        "type": "Point",
        "coordinates": [6.4038, 47.0524]
      },
      "mairie": {
        "type": "Point",
        "coordinates": [6.38, 47.0514]
      },
      "population": 751,
      "surface": 2858.81,
      "radius": 3.02
    },
    {
      "nom": "Arc-sous-Montenot",
      "code": "25026",
      "codesPostaux": ["25270"],
      "centre": {
        "type": "Point",
        "coordinates": [6.0086, 46.9148]
      },
      "mairie": {
        "type": "Point",
        "coordinates": [5.9987, 46.9121]
      },
      "population": 228,
      "surface": 1082.96,
      "radius": 1.86
    },
    {
      "nom": "Arcey",
      "code": "25022",
      "codesPostaux": ["25750"],
      "centre": {
        "type": "Point",
        "coordinates": [6.651, 47.5207]
      },
      "mairie": {
        "type": "Point",
        "coordinates": [6.6609, 47.5212]
      },
      "population": 1491,
      "surface": 1253.39,
      "radius": 2
    },
    {
      "nom": "Arçon",
      "code": "25024",
      "codesPostaux": ["25300"],
      "centre": {
        "type": "Point",
        "coordinates": [6.3843, 46.9702]
      },
      "mairie": {
        "type": "Point",
        "coordinates": [6.3777, 46.9476]
      },
      "population": 955,
      "surface": 2150.19,
      "radius": 2.62
    },
    {
      "nom": "Aubonne",
      "code": "25029",
      "codesPostaux": ["25520"],
      "centre": {
        "type": "Point",
        "coordinates": [6.3446, 47.0417]
      },
      "mairie": {
        "type": "Point",
        "coordinates": [6.3269, 47.0356]
      },
      "population": 260,
      "surface": 1526.54,
      "radius": 2.2
    },
    {
      "nom": "Audeux",
      "code": "25030",
      "codesPostaux": ["25170"],
      "centre": {
        "type": "Point",
        "coordinates": [5.8689, 47.2578]
      },
      "mairie": {
        "type": "Point",
        "coordinates": [5.8727, 47.2624]
      },
      "population": 422,
      "surface": 175.56,
      "radius": 0.75
    },
    {
      "nom": "Audincourt",
      "code": "25031",
      "codesPostaux": ["25400"],
      "centre": {
        "type": "Point",
        "coordinates": [6.8498, 47.4779]
      },
      "mairie": {
        "type": "Point",
        "coordinates": [6.8413, 47.4818]
      },
      "population": 14009,
      "surface": 877.58,
      "radius": 1.67
    },
    {
      "nom": "Autechaux",
      "code": "25032",
      "codesPostaux": ["25110"],
      "centre": {
        "type": "Point",
        "coordinates": [6.3868, 47.3818]
      },
      "mairie": {
        "type": "Point",
        "coordinates": [6.3843, 47.3786]
      },
      "population": 431,
      "surface": 658.94,
      "radius": 1.45
    },
    {
      "nom": "Autechaux-Roide",
      "code": "25033",
      "codesPostaux": ["25150"],
      "centre": {
        "type": "Point",
        "coordinates": [6.811, 47.3903]
      },
      "mairie": {
        "type": "Point",
        "coordinates": [6.8154, 47.3918]
      },
      "population": 497,
      "surface": 659.39,
      "radius": 1.45
    },
    {
      "nom": "Avanne-Aveney",
      "code": "25036",
      "codesPostaux": ["25720"],
      "centre": {
        "type": "Point",
        "coordinates": [5.9581, 47.2005]
      },
      "mairie": {
        "type": "Point",
        "coordinates": [5.9643, 47.2022]
      },
      "population": 2237,
      "surface": 854.81,
      "radius": 1.65
    },
    {
      "nom": "Avilley",
      "code": "25038",
      "codesPostaux": ["25680"],
      "centre": {
        "type": "Point",
        "coordinates": [6.2674, 47.4297]
      },
      "mairie": {
        "type": "Point",
        "coordinates": [6.266, 47.4268]
      },
      "population": 153,
      "surface": 563.32,
      "radius": 1.34
    },
    {
      "nom": "Avoudrey",
      "code": "25039",
      "codesPostaux": ["25690"],
      "centre": {
        "type": "Point",
        "coordinates": [6.4334, 47.1381]
      },
      "mairie": {
        "type": "Point",
        "coordinates": [6.4349, 47.1383]
      },
      "population": 954,
      "surface": 1297.99,
      "radius": 2.03
    },
    {
      "nom": "Badevel",
      "code": "25040",
      "codesPostaux": ["25490"],
      "centre": {
        "type": "Point",
        "coordinates": [6.9362, 47.5015]
      },
      "mairie": {
        "type": "Point",
        "coordinates": [6.939, 47.5009]
      },
      "population": 808,
      "surface": 374.08,
      "radius": 1.09
    },
    {
      "nom": "Bannans",
      "code": "25041",
      "codesPostaux": ["25560"],
      "centre": {
        "type": "Point",
        "coordinates": [6.2335, 46.9027]
      },
      "mairie": {
        "type": "Point",
        "coordinates": [6.2379, 46.8854]
      },
      "population": 378,
      "surface": 1164.95,
      "radius": 1.93
    },
    {
      "nom": "Bart",
      "code": "25043",
      "codesPostaux": ["25420"],
      "centre": {
        "type": "Point",
        "coordinates": [6.7656, 47.4908]
      },
      "mairie": {
        "type": "Point",
        "coordinates": [6.7715, 47.4921]
      },
      "population": 2015,
      "surface": 379.65,
      "radius": 1.1
    },
    {
      "nom": "Bartherans",
      "code": "25044",
      "codesPostaux": ["25440"],
      "centre": {
        "type": "Point",
        "coordinates": [5.9263, 47.0365]
      },
      "mairie": {
        "type": "Point",
        "coordinates": [5.9288, 47.0416]
      },
      "population": 60,
      "surface": 582.95,
      "radius": 1.36
    },
    {
      "nom": "Battenans-les-Mines",
      "code": "25045",
      "codesPostaux": ["25640"],
      "centre": {
        "type": "Point",
        "coordinates": [6.2702, 47.4034]
      },
      "mairie": {
        "type": "Point",
        "coordinates": [6.2689, 47.4091]
      },
      "population": 42,
      "surface": 285.43,
      "radius": 0.95
    },
    {
      "nom": "Battenans-Varin",
      "code": "25046",
      "codesPostaux": ["25380"],
      "centre": {
        "type": "Point",
        "coordinates": [6.7171, 47.2416]
      },
      "mairie": {
        "type": "Point",
        "coordinates": [6.7117, 47.2482]
      },
      "population": 79,
      "surface": 629.64,
      "radius": 1.42
    },
    {
      "nom": "Baume-les-Dames",
      "code": "25047",
      "codesPostaux": ["25110"],
      "centre": {
        "type": "Point",
        "coordinates": [6.3426, 47.3492]
      },
      "mairie": {
        "type": "Point",
        "coordinates": [6.3619, 47.3526]
      },
      "population": 5064,
      "surface": 2496.19,
      "radius": 2.82
    },
    {
      "nom": "Bavans",
      "code": "25048",
      "codesPostaux": ["25550"],
      "centre": {
        "type": "Point",
        "coordinates": [6.7294, 47.4805]
      },
      "mairie": {
        "type": "Point",
        "coordinates": [6.7299, 47.4819]
      },
      "population": 3566,
      "surface": 886.83,
      "radius": 1.68
    },
    {
      "nom": "Belfays",
      "code": "25049",
      "codesPostaux": ["25470"],
      "centre": {
        "type": "Point",
        "coordinates": [6.9041, 47.2584]
      },
      "mairie": {
        "type": "Point",
        "coordinates": [6.8958, 47.2597]
      },
      "population": 131,
      "surface": 323.82,
      "radius": 1.02
    },
    {
      "nom": "Belleherbe",
      "code": "25051",
      "codesPostaux": ["25380"],
      "centre": {
        "type": "Point",
        "coordinates": [6.6533, 47.2659]
      },
      "mairie": {
        "type": "Point",
        "coordinates": [6.6584, 47.2621]
      },
      "population": 626,
      "surface": 1615.09,
      "radius": 2.27
    },
    {
      "nom": "Belmont",
      "code": "25052",
      "codesPostaux": ["25530"],
      "centre": {
        "type": "Point",
        "coordinates": [6.3596, 47.2204]
      },
      "mairie": {
        "type": "Point",
        "coordinates": [6.366, 47.2201]
      },
      "population": 75,
      "surface": 466.93,
      "radius": 1.22
    },
    {
      "nom": "Belvoir",
      "code": "25053",
      "codesPostaux": ["25430"],
      "centre": {
        "type": "Point",
        "coordinates": [6.6152, 47.3182]
      },
      "mairie": {
        "type": "Point",
        "coordinates": [6.6056, 47.3183]
      },
      "population": 90,
      "surface": 928.41,
      "radius": 1.72
    },
    {
      "nom": "Berche",
      "code": "25054",
      "codesPostaux": ["25420"],
      "centre": {
        "type": "Point",
        "coordinates": [6.7479, 47.466]
      },
      "mairie": {
        "type": "Point",
        "coordinates": [6.7425, 47.4734]
      },
      "population": 543,
      "surface": 313.43,
      "radius": 1
    },
    {
      "nom": "Berthelange",
      "code": "25055",
      "codesPostaux": ["25410"],
      "centre": {
        "type": "Point",
        "coordinates": [5.7798, 47.2022]
      },
      "mairie": {
        "type": "Point",
        "coordinates": [5.7783, 47.1982]
      },
      "population": 358,
      "surface": 408.43,
      "radius": 1.14
    },
    {
      "nom": "Besançon",
      "code": "25056",
      "codesPostaux": ["25000"],
      "centre": {
        "type": "Point",
        "coordinates": [6.0123, 47.2602]
      },
      "mairie": {
        "type": "Point",
        "coordinates": [6.0241, 47.2377]
      },
      "population": 120057,
      "surface": 6516.07,
      "radius": 4.55
    },
    {
      "nom": "Bethoncourt",
      "code": "25057",
      "codesPostaux": ["25200"],
      "centre": {
        "type": "Point",
        "coordinates": [6.7988, 47.5418]
      },
      "mairie": {
        "type": "Point",
        "coordinates": [6.7959, 47.5326]
      },
      "population": 5288,
      "surface": 659.95,
      "radius": 1.45
    },
    {
      "nom": "Beure",
      "code": "25058",
      "codesPostaux": ["25720"],
      "centre": {
        "type": "Point",
        "coordinates": [6.0048, 47.2043]
      },
      "mairie": {
        "type": "Point",
        "coordinates": [6.0041, 47.2076]
      },
      "population": 1342,
      "surface": 400.94,
      "radius": 1.13
    },
    {
      "nom": "Beutal",
      "code": "25059",
      "codesPostaux": ["25250"],
      "centre": {
        "type": "Point",
        "coordinates": [6.6371, 47.4763]
      },
      "mairie": {
        "type": "Point",
        "coordinates": [6.6402, 47.4704]
      },
      "population": 269,
      "surface": 591.24,
      "radius": 1.37
    },
    {
      "nom": "Bief",
      "code": "25061",
      "codesPostaux": ["25190"],
      "centre": {
        "type": "Point",
        "coordinates": [6.7752, 47.3235]
      },
      "mairie": {
        "type": "Point",
        "coordinates": [6.7669, 47.3273]
      },
      "population": 111,
      "surface": 378.82,
      "radius": 1.1
    },
    {
      "nom": "Blamont",
      "code": "25063",
      "codesPostaux": ["25310"],
      "centre": {
        "type": "Point",
        "coordinates": [6.8566, 47.3907]
      },
      "mairie": {
        "type": "Point",
        "coordinates": [6.8475, 47.3863]
      },
      "population": 1236,
      "surface": 993.99,
      "radius": 1.78
    },
    {
      "nom": "Blarians",
      "code": "25065",
      "codesPostaux": ["25640"],
      "centre": {
        "type": "Point",
        "coordinates": [6.1799, 47.4119]
      },
      "mairie": {
        "type": "Point",
        "coordinates": [6.18, 47.4117]
      },
      "population": 55,
      "surface": 89.15,
      "radius": 0.53
    },
    {
      "nom": "Blussangeaux",
      "code": "25066",
      "codesPostaux": ["25250"],
      "centre": {
        "type": "Point",
        "coordinates": [6.6176, 47.4374]
      },
      "mairie": {
        "type": "Point",
        "coordinates": [6.6254, 47.4373]
      },
      "population": 78,
      "surface": 216.93,
      "radius": 0.83
    },
    {
      "nom": "Blussans",
      "code": "25067",
      "codesPostaux": ["25250"],
      "centre": {
        "type": "Point",
        "coordinates": [6.6104, 47.4123]
      },
      "mairie": {
        "type": "Point",
        "coordinates": [6.6062, 47.4287]
      },
      "population": 188,
      "surface": 818.4,
      "radius": 1.61
    },
    {
      "nom": "Bolandoz",
      "code": "25070",
      "codesPostaux": ["25330"],
      "centre": {
        "type": "Point",
        "coordinates": [6.1141, 47.006]
      },
      "mairie": {
        "type": "Point",
        "coordinates": [6.1131, 47.0189]
      },
      "population": 379,
      "surface": 1215.56,
      "radius": 1.97
    },
    {
      "nom": "Bondeval",
      "code": "25071",
      "codesPostaux": ["25230"],
      "centre": {
        "type": "Point",
        "coordinates": [6.8442, 47.4345]
      },
      "mairie": {
        "type": "Point",
        "coordinates": [6.8485, 47.4439]
      },
      "population": 481,
      "surface": 468.63,
      "radius": 1.22
    },
    {
      "nom": "Bonnal",
      "code": "25072",
      "codesPostaux": ["25680"],
      "centre": {
        "type": "Point",
        "coordinates": [6.3632, 47.5066]
      },
      "mairie": {
        "type": "Point",
        "coordinates": [6.3559, 47.5059]
      },
      "population": 19,
      "surface": 174.04,
      "radius": 0.74
    },
    {
      "nom": "Bonnay",
      "code": "25073",
      "codesPostaux": ["25870"],
      "centre": {
        "type": "Point",
        "coordinates": [6.0437, 47.3292]
      },
      "mairie": {
        "type": "Point",
        "coordinates": [6.0516, 47.3342]
      },
      "population": 828,
      "surface": 770.08,
      "radius": 1.57
    },
    {
      "nom": "Bonnétage",
      "code": "25074",
      "codesPostaux": ["25210"],
      "centre": {
        "type": "Point",
        "coordinates": [6.7535, 47.1734]
      },
      "mairie": {
        "type": "Point",
        "coordinates": [6.7234, 47.1848]
      },
      "population": 1001,
      "surface": 1789.79,
      "radius": 2.39
    },
    {
      "nom": "Bonnevaux",
      "code": "25075",
      "codesPostaux": ["25560"],
      "centre": {
        "type": "Point",
        "coordinates": [6.1975, 46.8056]
      },
      "mairie": {
        "type": "Point",
        "coordinates": [6.1844, 46.808]
      },
      "population": 420,
      "surface": 1655.86,
      "radius": 2.3
    },
    {
      "nom": "Bouclans",
      "code": "25078",
      "codesPostaux": ["25360"],
      "centre": {
        "type": "Point",
        "coordinates": [6.229, 47.2443]
      },
      "mairie": {
        "type": "Point",
        "coordinates": [6.2371, 47.2501]
      },
      "population": 1057,
      "surface": 2441.85,
      "radius": 2.79
    },
    {
      "nom": "Boujailles",
      "code": "25079",
      "codesPostaux": ["25560"],
      "centre": {
        "type": "Point",
        "coordinates": [6.0786, 46.887]
      },
      "mairie": {
        "type": "Point",
        "coordinates": [6.0801, 46.8881]
      },
      "population": 459,
      "surface": 2817.71,
      "radius": 2.99
    },
    {
      "nom": "Bourguignon",
      "code": "25082",
      "codesPostaux": ["25150"],
      "centre": {
        "type": "Point",
        "coordinates": [6.7739, 47.4106]
      },
      "mairie": {
        "type": "Point",
        "coordinates": [6.7752, 47.4111]
      },
      "population": 880,
      "surface": 557.5,
      "radius": 1.33
    },
    {
      "nom": "Bournois",
      "code": "25083",
      "codesPostaux": ["25250"],
      "centre": {
        "type": "Point",
        "coordinates": [6.4975, 47.4914]
      },
      "mairie": {
        "type": "Point",
        "coordinates": [6.4961, 47.4987]
      },
      "population": 189,
      "surface": 1045.21,
      "radius": 1.82
    },
    {
      "nom": "Boussières",
      "code": "25084",
      "codesPostaux": ["25320"],
      "centre": {
        "type": "Point",
        "coordinates": [5.9013, 47.1498]
      },
      "mairie": {
        "type": "Point",
        "coordinates": [5.9019, 47.158]
      },
      "population": 1200,
      "surface": 560.25,
      "radius": 1.34
    },
    {
      "nom": "Bouverans",
      "code": "25085",
      "codesPostaux": ["25560"],
      "centre": {
        "type": "Point",
        "coordinates": [6.2152, 46.8413]
      },
      "mairie": {
        "type": "Point",
        "coordinates": [6.2095, 46.8553]
      },
      "population": 441,
      "surface": 1855.8,
      "radius": 2.43
    },
    {
      "nom": "Braillans",
      "code": "25086",
      "codesPostaux": ["25640"],
      "centre": {
        "type": "Point",
        "coordinates": [6.0873, 47.3106]
      },
      "mairie": {
        "type": "Point",
        "coordinates": [6.0902, 47.3087]
      },
      "population": 205,
      "surface": 196.18,
      "radius": 0.79
    },
    {
      "nom": "Branne",
      "code": "25087",
      "codesPostaux": ["25340"],
      "centre": {
        "type": "Point",
        "coordinates": [6.4779, 47.3806]
      },
      "mairie": {
        "type": "Point",
        "coordinates": [6.4711, 47.3768]
      },
      "population": 181,
      "surface": 647.93,
      "radius": 1.44
    },
    {
      "nom": "Breconchaux",
      "code": "25088",
      "codesPostaux": ["25640"],
      "centre": {
        "type": "Point",
        "coordinates": [6.2726, 47.342]
      },
      "mairie": {
        "type": "Point",
        "coordinates": [6.2667, 47.3403]
      },
      "population": 87,
      "surface": 332.32,
      "radius": 1.03
    },
    {
      "nom": "Bremondans",
      "code": "25089",
      "codesPostaux": ["25530"],
      "centre": {
        "type": "Point",
        "coordinates": [6.3983, 47.2316]
      },
      "mairie": {
        "type": "Point",
        "coordinates": [6.3973, 47.2332]
      },
      "population": 102,
      "surface": 723.64,
      "radius": 1.52
    },
    {
      "nom": "Brères",
      "code": "25090",
      "codesPostaux": ["25440"],
      "centre": {
        "type": "Point",
        "coordinates": [5.8646, 47.0583]
      },
      "mairie": {
        "type": "Point",
        "coordinates": [5.8607, 47.059]
      },
      "population": 75,
      "surface": 215.89,
      "radius": 0.83
    },
    {
      "nom": "Bretigney",
      "code": "25093",
      "codesPostaux": ["25250"],
      "centre": {
        "type": "Point",
        "coordinates": [6.6354, 47.4867]
      },
      "mairie": {
        "type": "Point",
        "coordinates": [6.6378, 47.4853]
      },
      "population": 76,
      "surface": 180.32,
      "radius": 0.76
    },
    {
      "nom": "Bretigney-Notre-Dame",
      "code": "25094",
      "codesPostaux": ["25110"],
      "centre": {
        "type": "Point",
        "coordinates": [6.3037, 47.3085]
      },
      "mairie": {
        "type": "Point",
        "coordinates": [6.3036, 47.3129]
      },
      "population": 119,
      "surface": 578.28,
      "radius": 1.36
    },
    {
      "nom": "Bretonvillers",
      "code": "25095",
      "codesPostaux": ["25380"],
      "centre": {
        "type": "Point",
        "coordinates": [6.6186, 47.2164]
      },
      "mairie": {
        "type": "Point",
        "coordinates": [6.6372, 47.2191]
      },
      "population": 285,
      "surface": 1379.55,
      "radius": 2.1
    },
    {
      "nom": "Brey-et-Maison-du-Bois",
      "code": "25096",
      "codesPostaux": ["25240"],
      "centre": {
        "type": "Point",
        "coordinates": [6.239, 46.7469]
      },
      "mairie": {
        "type": "Point",
        "coordinates": [6.2516, 46.7442]
      },
      "population": 179,
      "surface": 612.76,
      "radius": 1.4
    },
    {
      "nom": "Brognard",
      "code": "25097",
      "codesPostaux": ["25600"],
      "centre": {
        "type": "Point",
        "coordinates": [6.8653, 47.5279]
      },
      "mairie": {
        "type": "Point",
        "coordinates": [6.8676, 47.5297]
      },
      "population": 477,
      "surface": 290.11,
      "radius": 0.96
    },
    {
      "nom": "Buffard",
      "code": "25098",
      "codesPostaux": ["25440"],
      "centre": {
        "type": "Point",
        "coordinates": [5.8249, 47.0325]
      },
      "mairie": {
        "type": "Point",
        "coordinates": [5.8223, 47.037]
      },
      "population": 190,
      "surface": 811.09,
      "radius": 1.61
    },
    {
      "nom": "Bugny",
      "code": "25099",
      "codesPostaux": ["25520"],
      "centre": {
        "type": "Point",
        "coordinates": [6.3617, 46.9972]
      },
      "mairie": {
        "type": "Point",
        "coordinates": [6.3536, 46.9952]
      },
      "population": 248,
      "surface": 477.92,
      "radius": 1.23
    },
    {
      "nom": "Bulle",
      "code": "25100",
      "codesPostaux": ["25560"],
      "centre": {
        "type": "Point",
        "coordinates": [6.1958, 46.904]
      },
      "mairie": {
        "type": "Point",
        "coordinates": [6.2232, 46.8941]
      },
      "population": 500,
      "surface": 1419.77,
      "radius": 2.13
    },
    {
      "nom": "Burgille",
      "code": "25101",
      "codesPostaux": ["25170"],
      "centre": {
        "type": "Point",
        "coordinates": [5.781, 47.2609]
      },
      "mairie": {
        "type": "Point",
        "coordinates": [5.779, 47.2677]
      },
      "population": 568,
      "surface": 930.66,
      "radius": 1.72
    },
    {
      "nom": "Burnevillers",
      "code": "25102",
      "codesPostaux": ["25470"],
      "centre": {
        "type": "Point",
        "coordinates": [7.0198, 47.334]
      },
      "mairie": {
        "type": "Point",
        "coordinates": [7.0098, 47.3285]
      },
      "population": 48,
      "surface": 675.8,
      "radius": 1.47
    },
    {
      "nom": "Busy",
      "code": "25103",
      "codesPostaux": ["25320"],
      "centre": {
        "type": "Point",
        "coordinates": [5.9536, 47.1688]
      },
      "mairie": {
        "type": "Point",
        "coordinates": [5.9466, 47.1664]
      },
      "population": 675,
      "surface": 530.12,
      "radius": 1.3
    },
    {
      "nom": "By",
      "code": "25104",
      "codesPostaux": ["25440"],
      "centre": {
        "type": "Point",
        "coordinates": [5.8993, 47.0125]
      },
      "mairie": {
        "type": "Point",
        "coordinates": [5.8907, 47.0133]
      },
      "population": 83,
      "surface": 730.74,
      "radius": 1.53
    },
    {
      "nom": "Byans-sur-Doubs",
      "code": "25105",
      "codesPostaux": ["25320"],
      "centre": {
        "type": "Point",
        "coordinates": [5.8483, 47.1102]
      },
      "mairie": {
        "type": "Point",
        "coordinates": [5.8582, 47.1156]
      },
      "population": 619,
      "surface": 994.43,
      "radius": 1.78
    },
    {
      "nom": "Cademène",
      "code": "25106",
      "codesPostaux": ["25290"],
      "centre": {
        "type": "Point",
        "coordinates": [6.0279, 47.0939]
      },
      "mairie": {
        "type": "Point",
        "coordinates": [6.0278, 47.1005]
      },
      "population": 66,
      "surface": 345.84,
      "radius": 1.05
    },
    {
      "nom": "Cendrey",
      "code": "25107",
      "codesPostaux": ["25640"],
      "centre": {
        "type": "Point",
        "coordinates": [6.2446, 47.3935]
      },
      "mairie": {
        "type": "Point",
        "coordinates": [6.2452, 47.4043]
      },
      "population": 200,
      "surface": 557.86,
      "radius": 1.33
    },
    {
      "nom": "Cernay-l'Église",
      "code": "25108",
      "codesPostaux": ["25120"],
      "centre": {
        "type": "Point",
        "coordinates": [6.8309, 47.2485]
      },
      "mairie": {
        "type": "Point",
        "coordinates": [6.8326, 47.259]
      },
      "population": 318,
      "surface": 598.5,
      "radius": 1.38
    },
    {
      "nom": "Cessey",
      "code": "25109",
      "codesPostaux": ["25440"],
      "centre": {
        "type": "Point",
        "coordinates": [5.9222, 47.1152]
      },
      "mairie": {
        "type": "Point",
        "coordinates": [5.9139, 47.1086]
      },
      "population": 321,
      "surface": 754.3,
      "radius": 1.55
    },
    {
      "nom": "Chaffois",
      "code": "25110",
      "codesPostaux": ["25300"],
      "centre": {
        "type": "Point",
        "coordinates": [6.2469, 46.9135]
      },
      "mairie": {
        "type": "Point",
        "coordinates": [6.2691, 46.9153]
      },
      "population": 1032,
      "surface": 1637.53,
      "radius": 2.28
    },
    {
      "nom": "Chalèze",
      "code": "25111",
      "codesPostaux": ["25220"],
      "centre": {
        "type": "Point",
        "coordinates": [6.0968, 47.2623]
      },
      "mairie": {
        "type": "Point",
        "coordinates": [6.0892, 47.2684]
      },
      "population": 375,
      "surface": 567.12,
      "radius": 1.34
    },
    {
      "nom": "Chalezeule",
      "code": "25112",
      "codesPostaux": ["25220"],
      "centre": {
        "type": "Point",
        "coordinates": [6.0677, 47.2552]
      },
      "mairie": {
        "type": "Point",
        "coordinates": [6.0758, 47.2601]
      },
      "population": 1326,
      "surface": 397.23,
      "radius": 1.12
    },
    {
      "nom": "Chamesey",
      "code": "25113",
      "codesPostaux": ["25380"],
      "centre": {
        "type": "Point",
        "coordinates": [6.6317, 47.2376]
      },
      "mairie": {
        "type": "Point",
        "coordinates": [6.648, 47.236]
      },
      "population": 139,
      "surface": 648.71,
      "radius": 1.44
    },
    {
      "nom": "Chamesol",
      "code": "25114",
      "codesPostaux": ["25190"],
      "centre": {
        "type": "Point",
        "coordinates": [6.8499, 47.3434]
      },
      "mairie": {
        "type": "Point",
        "coordinates": [6.8349, 47.3473]
      },
      "population": 386,
      "surface": 1024.96,
      "radius": 1.81
    },
    {
      "nom": "Champagney",
      "code": "25115",
      "codesPostaux": ["25170"],
      "centre": {
        "type": "Point",
        "coordinates": [5.8917, 47.2552]
      },
      "mairie": {
        "type": "Point",
        "coordinates": [5.9065, 47.2562]
      },
      "population": 271,
      "surface": 300.98,
      "radius": 0.98
    },
    {
      "nom": "Champlive",
      "code": "25116",
      "codesPostaux": ["25360"],
      "centre": {
        "type": "Point",
        "coordinates": [6.2406, 47.2885]
      },
      "mairie": {
        "type": "Point",
        "coordinates": [6.2463, 47.2887]
      },
      "population": 250,
      "surface": 825.69,
      "radius": 1.62
    },
    {
      "nom": "Champoux",
      "code": "25117",
      "codesPostaux": ["25640"],
      "centre": {
        "type": "Point",
        "coordinates": [6.1342, 47.342]
      },
      "mairie": {
        "type": "Point",
        "coordinates": [6.136, 47.3353]
      },
      "population": 90,
      "surface": 303.2,
      "radius": 0.98
    },
    {
      "nom": "Champvans-les-Moulins",
      "code": "25119",
      "codesPostaux": ["25170"],
      "centre": {
        "type": "Point",
        "coordinates": [5.9074, 47.256]
      },
      "mairie": {
        "type": "Point",
        "coordinates": [5.9135, 47.2546]
      },
      "population": 317,
      "surface": 254.17,
      "radius": 0.9
    },
    {
      "nom": "Chantrans",
      "code": "25120",
      "codesPostaux": ["25330"],
      "centre": {
        "type": "Point",
        "coordinates": [6.1658, 47.0475]
      },
      "mairie": {
        "type": "Point",
        "coordinates": [6.1497, 47.0435]
      },
      "population": 385,
      "surface": 1430.56,
      "radius": 2.13
    },
    {
      "nom": "Chapelle-d'Huin",
      "code": "25122",
      "codesPostaux": ["25270"],
      "centre": {
        "type": "Point",
        "coordinates": [6.1704, 46.9329]
      },
      "mairie": {
        "type": "Point",
        "coordinates": [6.1663, 46.9318]
      },
      "population": 534,
      "surface": 2387.9,
      "radius": 2.76
    },
    {
      "nom": "Chapelle-des-Bois",
      "code": "25121",
      "codesPostaux": ["25240"],
      "centre": {
        "type": "Point",
        "coordinates": [6.1118, 46.5952]
      },
      "mairie": {
        "type": "Point",
        "coordinates": [6.1128, 46.5971]
      },
      "population": 259,
      "surface": 3988.8,
      "radius": 3.56
    },
    {
      "nom": "Charmauvillers",
      "code": "25124",
      "codesPostaux": ["25470"],
      "centre": {
        "type": "Point",
        "coordinates": [6.9185, 47.2297]
      },
      "mairie": {
        "type": "Point",
        "coordinates": [6.9183, 47.2385]
      },
      "population": 283,
      "surface": 1086.28,
      "radius": 1.86
    },
    {
      "nom": "Charmoille",
      "code": "25125",
      "codesPostaux": ["25380"],
      "centre": {
        "type": "Point",
        "coordinates": [6.663, 47.2342]
      },
      "mairie": {
        "type": "Point",
        "coordinates": [6.6726, 47.2463]
      },
      "population": 319,
      "surface": 996.79,
      "radius": 1.78
    },
    {
      "nom": "Charnay",
      "code": "25126",
      "codesPostaux": ["25440"],
      "centre": {
        "type": "Point",
        "coordinates": [5.9523, 47.1301]
      },
      "mairie": {
        "type": "Point",
        "coordinates": [5.9554, 47.1267]
      },
      "population": 471,
      "surface": 569,
      "radius": 1.35
    },
    {
      "nom": "Charquemont",
      "code": "25127",
      "codesPostaux": ["25140"],
      "centre": {
        "type": "Point",
        "coordinates": [6.8485, 47.2017]
      },
      "mairie": {
        "type": "Point",
        "coordinates": [6.8231, 47.2134]
      },
      "population": 2867,
      "surface": 2171.23,
      "radius": 2.63
    },
    {
      "nom": "Chassagne-Saint-Denis",
      "code": "25129",
      "codesPostaux": ["25290"],
      "centre": {
        "type": "Point",
        "coordinates": [6.1064, 47.0828]
      },
      "mairie": {
        "type": "Point",
        "coordinates": [6.1145, 47.0833]
      },
      "population": 129,
      "surface": 915.77,
      "radius": 1.71
    },
    {
      "nom": "Châteauvieux-les-Fossés",
      "code": "25130",
      "codesPostaux": ["25840"],
      "centre": {
        "type": "Point",
        "coordinates": [6.2002, 47.0553]
      },
      "mairie": {
        "type": "Point",
        "coordinates": [6.2026, 47.0643]
      },
      "population": 9,
      "surface": 449.54,
      "radius": 1.2
    },
    {
      "nom": "Châtelblanc",
      "code": "25131",
      "codesPostaux": ["25240"],
      "centre": {
        "type": "Point",
        "coordinates": [6.1087, 46.6661]
      },
      "mairie": {
        "type": "Point",
        "coordinates": [6.1151, 46.6723]
      },
      "population": 110,
      "surface": 2088.22,
      "radius": 2.58
    },
    {
      "nom": "Châtillon-Guyotte",
      "code": "25132",
      "codesPostaux": ["25640"],
      "centre": {
        "type": "Point",
        "coordinates": [6.168, 47.3292]
      },
      "mairie": {
        "type": "Point",
        "coordinates": [6.1695, 47.3309]
      },
      "population": 141,
      "surface": 445.18,
      "radius": 1.19
    },
    {
      "nom": "Châtillon-le-Duc",
      "code": "25133",
      "codesPostaux": ["25870"],
      "centre": {
        "type": "Point",
        "coordinates": [6.0066, 47.303]
      },
      "mairie": {
        "type": "Point",
        "coordinates": [6.006, 47.3083]
      },
      "population": 2025,
      "surface": 620.61,
      "radius": 1.41
    },
    {
      "nom": "Chaucenne",
      "code": "25136",
      "codesPostaux": ["25170"],
      "centre": {
        "type": "Point",
        "coordinates": [5.8974, 47.2835]
      },
      "mairie": {
        "type": "Point",
        "coordinates": [5.8982, 47.2853]
      },
      "population": 513,
      "surface": 489.22,
      "radius": 1.25
    },
    {
      "nom": "Chaux-lès-Passavant",
      "code": "25141",
      "codesPostaux": ["25530"],
      "centre": {
        "type": "Point",
        "coordinates": [6.3485, 47.2342]
      },
      "mairie": {
        "type": "Point",
        "coordinates": [6.3579, 47.2358]
      },
      "population": 121,
      "surface": 854.42,
      "radius": 1.65
    },
    {
      "nom": "Chaux-Neuve",
      "code": "25142",
      "codesPostaux": ["25240"],
      "centre": {
        "type": "Point",
        "coordinates": [6.1583, 46.661]
      },
      "mairie": {
        "type": "Point",
        "coordinates": [6.1349, 46.6783]
      },
      "population": 333,
      "surface": 2829.45,
      "radius": 3
    },
    {
      "nom": "Chay",
      "code": "25143",
      "codesPostaux": ["25440"],
      "centre": {
        "type": "Point",
        "coordinates": [5.8634, 47.033]
      },
      "mairie": {
        "type": "Point",
        "coordinates": [5.8598, 47.0351]
      },
      "population": 197,
      "surface": 655.16,
      "radius": 1.44
    },
    {
      "nom": "Chazot",
      "code": "25145",
      "codesPostaux": ["25430"],
      "centre": {
        "type": "Point",
        "coordinates": [6.5354, 47.3333]
      },
      "mairie": {
        "type": "Point",
        "coordinates": [6.5448, 47.3249]
      },
      "population": 117,
      "surface": 526,
      "radius": 1.29
    },
    {
      "nom": "Chemaudin et Vaux",
      "code": "25147",
      "codesPostaux": ["25320", "25770"],
      "centre": {
        "type": "Point",
        "coordinates": [5.8897, 47.2263]
      },
      "mairie": {
        "type": "Point",
        "coordinates": [5.8902, 47.2244]
      },
      "population": 2114,
      "surface": 1255.1,
      "radius": 2
    },
    {
      "nom": "Chenecey-Buillon",
      "code": "25149",
      "codesPostaux": ["25440"],
      "centre": {
        "type": "Point",
        "coordinates": [5.9724, 47.1318]
      },
      "mairie": {
        "type": "Point",
        "coordinates": [5.9591, 47.1399]
      },
      "population": 496,
      "surface": 1672.51,
      "radius": 2.31
    },
    {
      "nom": "Chevigney-lès-Vercel",
      "code": "25151",
      "codesPostaux": ["25530"],
      "centre": {
        "type": "Point",
        "coordinates": [6.3685, 47.1653]
      },
      "mairie": {
        "type": "Point",
        "coordinates": [6.3711, 47.1638]
      },
      "population": 140,
      "surface": 538.35,
      "radius": 1.31
    },
    {
      "nom": "Chevigney-sur-l'Ognon",
      "code": "25150",
      "codesPostaux": ["25170"],
      "centre": {
        "type": "Point",
        "coordinates": [5.8419, 47.292]
      },
      "mairie": {
        "type": "Point",
        "coordinates": [5.837, 47.2988]
      },
      "population": 294,
      "surface": 461.65,
      "radius": 1.21
    },
    {
      "nom": "Chevroz",
      "code": "25153",
      "codesPostaux": ["25870"],
      "centre": {
        "type": "Point",
        "coordinates": [5.9998, 47.3314]
      },
      "mairie": {
        "type": "Point",
        "coordinates": [5.9972, 47.3337]
      },
      "population": 140,
      "surface": 198.99,
      "radius": 0.8
    },
    {
      "nom": "Chouzelot",
      "code": "25154",
      "codesPostaux": ["25440"],
      "centre": {
        "type": "Point",
        "coordinates": [5.91, 47.1231]
      },
      "mairie": {
        "type": "Point",
        "coordinates": [5.8932, 47.1064]
      },
      "population": 253,
      "surface": 634.3,
      "radius": 1.42
    },
    {
      "nom": "Cléron",
      "code": "25155",
      "codesPostaux": ["25330"],
      "centre": {
        "type": "Point",
        "coordinates": [6.0664, 47.0789]
      },
      "mairie": {
        "type": "Point",
        "coordinates": [6.0585, 47.0874]
      },
      "population": 292,
      "surface": 1449.85,
      "radius": 2.15
    },
    {
      "nom": "Colombier-Fontaine",
      "code": "25159",
      "codesPostaux": ["25260"],
      "centre": {
        "type": "Point",
        "coordinates": [6.6888, 47.4496]
      },
      "mairie": {
        "type": "Point",
        "coordinates": [6.6892, 47.4541]
      },
      "population": 1215,
      "surface": 774.84,
      "radius": 1.57
    },
    {
      "nom": "Consolation-Maisonnettes",
      "code": "25161",
      "codesPostaux": ["25390"],
      "centre": {
        "type": "Point",
        "coordinates": [6.6037, 47.1564]
      },
      "mairie": {
        "type": "Point",
        "coordinates": [6.6014, 47.154]
      },
      "population": 24,
      "surface": 429.57,
      "radius": 1.17
    },
    {
      "nom": "Corcelle-Mieslot",
      "code": "25163",
      "codesPostaux": ["25640"],
      "centre": {
        "type": "Point",
        "coordinates": [6.182, 47.3604]
      },
      "mairie": {
        "type": "Point",
        "coordinates": [6.1872, 47.3605]
      },
      "population": 94,
      "surface": 645.66,
      "radius": 1.43
    },
    {
      "nom": "Corcelles-Ferrières",
      "code": "25162",
      "codesPostaux": ["25410"],
      "centre": {
        "type": "Point",
        "coordinates": [5.8037, 47.2251]
      },
      "mairie": {
        "type": "Point",
        "coordinates": [5.8095, 47.2264]
      },
      "population": 214,
      "surface": 226.22,
      "radius": 0.85
    },
    {
      "nom": "Corcondray",
      "code": "25164",
      "codesPostaux": ["25410"],
      "centre": {
        "type": "Point",
        "coordinates": [5.8284, 47.2249]
      },
      "mairie": {
        "type": "Point",
        "coordinates": [5.8248, 47.2298]
      },
      "population": 146,
      "surface": 538.34,
      "radius": 1.31
    },
    {
      "nom": "Côtebrune",
      "code": "25166",
      "codesPostaux": ["25360"],
      "centre": {
        "type": "Point",
        "coordinates": [6.309, 47.2516]
      },
      "mairie": {
        "type": "Point",
        "coordinates": [6.3124, 47.2541]
      },
      "population": 82,
      "surface": 326.07,
      "radius": 1.02
    },
    {
      "nom": "Cour-Saint-Maurice",
      "code": "25173",
      "codesPostaux": ["25380"],
      "centre": {
        "type": "Point",
        "coordinates": [6.7106, 47.2643]
      },
      "mairie": {
        "type": "Point",
        "coordinates": [6.7013, 47.2566]
      },
      "population": 148,
      "surface": 451.62,
      "radius": 1.2
    },
    {
      "nom": "Courcelles",
      "code": "25171",
      "codesPostaux": ["25440"],
      "centre": {
        "type": "Point",
        "coordinates": [5.9623, 47.1007]
      },
      "mairie": {
        "type": "Point",
        "coordinates": [5.9569, 47.0936]
      },
      "population": 105,
      "surface": 363.3,
      "radius": 1.08
    },
    {
      "nom": "Courcelles-lès-Montbéliard",
      "code": "25170",
      "codesPostaux": ["25420"],
      "centre": {
        "type": "Point",
        "coordinates": [6.7851, 47.496]
      },
      "mairie": {
        "type": "Point",
        "coordinates": [6.7758, 47.5012]
      },
      "population": 1387,
      "surface": 241.01,
      "radius": 0.88
    },
    {
      "nom": "Courchapon",
      "code": "25172",
      "codesPostaux": ["25170"],
      "centre": {
        "type": "Point",
        "coordinates": [5.7499, 47.2595]
      },
      "mairie": {
        "type": "Point",
        "coordinates": [5.748, 47.2638]
      },
      "population": 242,
      "surface": 540.49,
      "radius": 1.31
    },
    {
      "nom": "Courtefontaine",
      "code": "25174",
      "codesPostaux": ["25470"],
      "centre": {
        "type": "Point",
        "coordinates": [6.914, 47.3191]
      },
      "mairie": {
        "type": "Point",
        "coordinates": [6.9077, 47.3195]
      },
      "population": 247,
      "surface": 774.73,
      "radius": 1.57
    },
    {
      "nom": "Courtetain-et-Salans",
      "code": "25175",
      "codesPostaux": ["25530"],
      "centre": {
        "type": "Point",
        "coordinates": [6.4285, 47.2579]
      },
      "mairie": {
        "type": "Point",
        "coordinates": [6.4191, 47.2577]
      },
      "population": 91,
      "surface": 688.98,
      "radius": 1.48
    },
    {
      "nom": "Courvières",
      "code": "25176",
      "codesPostaux": ["25560"],
      "centre": {
        "type": "Point",
        "coordinates": [6.0985, 46.866]
      },
      "mairie": {
        "type": "Point",
        "coordinates": [6.1092, 46.869]
      },
      "population": 319,
      "surface": 1095.03,
      "radius": 1.87
    },
    {
      "nom": "Crosey-le-Grand",
      "code": "25177",
      "codesPostaux": ["25340"],
      "centre": {
        "type": "Point",
        "coordinates": [6.5315, 47.344]
      },
      "mairie": {
        "type": "Point",
        "coordinates": [6.5268, 47.3532]
      },
      "population": 148,
      "surface": 1029.24,
      "radius": 1.81
    },
    {
      "nom": "Crosey-le-Petit",
      "code": "25178",
      "codesPostaux": ["25340"],
      "centre": {
        "type": "Point",
        "coordinates": [6.4851, 47.3426]
      },
      "mairie": {
        "type": "Point",
        "coordinates": [6.4862, 47.353]
      },
      "population": 121,
      "surface": 962.63,
      "radius": 1.75
    },
    {
      "nom": "Crouzet-Migette",
      "code": "25180",
      "codesPostaux": ["25270"],
      "centre": {
        "type": "Point",
        "coordinates": [6.0121, 46.9563]
      },
      "mairie": {
        "type": "Point",
        "coordinates": [6.0102, 46.956]
      },
      "population": 117,
      "surface": 560.85,
      "radius": 1.34
    },
    {
      "nom": "Cubrial",
      "code": "25181",
      "codesPostaux": ["25680"],
      "centre": {
        "type": "Point",
        "coordinates": [6.4008, 47.5037]
      },
      "mairie": {
        "type": "Point",
        "coordinates": [6.4073, 47.4953]
      },
      "population": 148,
      "surface": 583.15,
      "radius": 1.36
    },
    {
      "nom": "Cubry",
      "code": "25182",
      "codesPostaux": ["25680"],
      "centre": {
        "type": "Point",
        "coordinates": [6.4271, 47.5008]
      },
      "mairie": {
        "type": "Point",
        "coordinates": [6.4224, 47.4929]
      },
      "population": 102,
      "surface": 543.36,
      "radius": 1.32
    },
    {
      "nom": "Cusance",
      "code": "25183",
      "codesPostaux": ["25110"],
      "centre": {
        "type": "Point",
        "coordinates": [6.434, 47.321]
      },
      "mairie": {
        "type": "Point",
        "coordinates": [6.4376, 47.3247]
      },
      "population": 76,
      "surface": 404.71,
      "radius": 1.14
    },
    {
      "nom": "Cuse-et-Adrisans",
      "code": "25184",
      "codesPostaux": ["25680"],
      "centre": {
        "type": "Point",
        "coordinates": [6.387, 47.4828]
      },
      "mairie": {
        "type": "Point",
        "coordinates": [6.3907, 47.4793]
      },
      "population": 280,
      "surface": 550.03,
      "radius": 1.32
    },
    {
      "nom": "Cussey-sur-l'Ognon",
      "code": "25186",
      "codesPostaux": ["25870"],
      "centre": {
        "type": "Point",
        "coordinates": [5.9425, 47.3277]
      },
      "mairie": {
        "type": "Point",
        "coordinates": [5.9402, 47.3365]
      },
      "population": 1049,
      "surface": 747.2,
      "radius": 1.54
    },
    {
      "nom": "Cussey-sur-Lison",
      "code": "25185",
      "codesPostaux": ["25440"],
      "centre": {
        "type": "Point",
        "coordinates": [5.9626, 47.0711]
      },
      "mairie": {
        "type": "Point",
        "coordinates": [5.9552, 47.0594]
      },
      "population": 68,
      "surface": 856.78,
      "radius": 1.65
    },
    {
      "nom": "Dambelin",
      "code": "25187",
      "codesPostaux": ["25150"],
      "centre": {
        "type": "Point",
        "coordinates": [6.6654, 47.3706]
      },
      "mairie": {
        "type": "Point",
        "coordinates": [6.6773, 47.3758]
      },
      "population": 506,
      "surface": 1249.16,
      "radius": 1.99
    },
    {
      "nom": "Dambenois",
      "code": "25188",
      "codesPostaux": ["25600"],
      "centre": {
        "type": "Point",
        "coordinates": [6.8735, 47.5447]
      },
      "mairie": {
        "type": "Point",
        "coordinates": [6.8667, 47.5432]
      },
      "population": 727,
      "surface": 328.37,
      "radius": 1.02
    },
    {
      "nom": "Dammartin-les-Templiers",
      "code": "25189",
      "codesPostaux": ["25110"],
      "centre": {
        "type": "Point",
        "coordinates": [6.2847, 47.2948]
      },
      "mairie": {
        "type": "Point",
        "coordinates": [6.2653, 47.2911]
      },
      "population": 207,
      "surface": 1000.19,
      "radius": 1.78
    },
    {
      "nom": "Dampierre-les-Bois",
      "code": "25190",
      "codesPostaux": ["25490"],
      "centre": {
        "type": "Point",
        "coordinates": [6.9181, 47.5073]
      },
      "mairie": {
        "type": "Point",
        "coordinates": [6.9126, 47.5063]
      },
      "population": 1565,
      "surface": 476.75,
      "radius": 1.23
    },
    {
      "nom": "Dampierre-sur-le-Doubs",
      "code": "25191",
      "codesPostaux": ["25420"],
      "centre": {
        "type": "Point",
        "coordinates": [6.7329, 47.4644]
      },
      "mairie": {
        "type": "Point",
        "coordinates": [6.7327, 47.4751]
      },
      "population": 452,
      "surface": 315.5,
      "radius": 1
    },
    {
      "nom": "Dampjoux",
      "code": "25192",
      "codesPostaux": ["25190"],
      "centre": {
        "type": "Point",
        "coordinates": [6.7454, 47.3386]
      },
      "mairie": {
        "type": "Point",
        "coordinates": [6.7586, 47.343]
      },
      "population": 164,
      "surface": 235.55,
      "radius": 0.87
    },
    {
      "nom": "Damprichard",
      "code": "25193",
      "codesPostaux": ["25450"],
      "centre": {
        "type": "Point",
        "coordinates": [6.8796, 47.238]
      },
      "mairie": {
        "type": "Point",
        "coordinates": [6.8822, 47.2442]
      },
      "population": 1825,
      "surface": 2180.44,
      "radius": 2.63
    },
    {
      "nom": "Dannemarie",
      "code": "25194",
      "codesPostaux": ["25310"],
      "centre": {
        "type": "Point",
        "coordinates": [6.8992, 47.3896]
      },
      "mairie": {
        "type": "Point",
        "coordinates": [6.8959, 47.3909]
      },
      "population": 120,
      "surface": 230.8,
      "radius": 0.86
    },
    {
      "nom": "Dannemarie-sur-Crète",
      "code": "25195",
      "codesPostaux": ["25410"],
      "centre": {
        "type": "Point",
        "coordinates": [5.8674, 47.2075]
      },
      "mairie": {
        "type": "Point",
        "coordinates": [5.8738, 47.2038]
      },
      "population": 1503,
      "surface": 409.26,
      "radius": 1.14
    },
    {
      "nom": "Dasle",
      "code": "25196",
      "codesPostaux": ["25230"],
      "centre": {
        "type": "Point",
        "coordinates": [6.897, 47.4822]
      },
      "mairie": {
        "type": "Point",
        "coordinates": [6.8952, 47.478]
      },
      "population": 1370,
      "surface": 561.4,
      "radius": 1.34
    },
    {
      "nom": "Deluz",
      "code": "25197",
      "codesPostaux": ["25960"],
      "centre": {
        "type": "Point",
        "coordinates": [6.1905, 47.2987]
      },
      "mairie": {
        "type": "Point",
        "coordinates": [6.2014, 47.2945]
      },
      "population": 627,
      "surface": 796.53,
      "radius": 1.59
    },
    {
      "nom": "Désandans",
      "code": "25198",
      "codesPostaux": ["25750"],
      "centre": {
        "type": "Point",
        "coordinates": [6.6715, 47.54]
      },
      "mairie": {
        "type": "Point",
        "coordinates": [6.6769, 47.5357]
      },
      "population": 717,
      "surface": 550.33,
      "radius": 1.32
    },
    {
      "nom": "Déservillers",
      "code": "25199",
      "codesPostaux": ["25330"],
      "centre": {
        "type": "Point",
        "coordinates": [6.0758, 46.9991]
      },
      "mairie": {
        "type": "Point",
        "coordinates": [6.071, 47.0026]
      },
      "population": 336,
      "surface": 1397.78,
      "radius": 2.11
    },
    {
      "nom": "Devecey",
      "code": "25200",
      "codesPostaux": ["25870"],
      "centre": {
        "type": "Point",
        "coordinates": [6.0172, 47.3231]
      },
      "mairie": {
        "type": "Point",
        "coordinates": [6.0159, 47.3247]
      },
      "population": 1314,
      "surface": 374.78,
      "radius": 1.09
    },
    {
      "nom": "Dommartin",
      "code": "25201",
      "codesPostaux": ["25300"],
      "centre": {
        "type": "Point",
        "coordinates": [6.3112, 46.9302]
      },
      "mairie": {
        "type": "Point",
        "coordinates": [6.3079, 46.9234]
      },
      "population": 819,
      "surface": 645.97,
      "radius": 1.43
    },
    {
      "nom": "Dompierre-les-Tilleuls",
      "code": "25202",
      "codesPostaux": ["25560"],
      "centre": {
        "type": "Point",
        "coordinates": [6.1641, 46.8865]
      },
      "mairie": {
        "type": "Point",
        "coordinates": [6.1858, 46.8726]
      },
      "population": 291,
      "surface": 1306.41,
      "radius": 2.04
    },
    {
      "nom": "Domprel",
      "code": "25203",
      "codesPostaux": ["25510"],
      "centre": {
        "type": "Point",
        "coordinates": [6.4751, 47.1958]
      },
      "mairie": {
        "type": "Point",
        "coordinates": [6.4706, 47.2014]
      },
      "population": 173,
      "surface": 950.34,
      "radius": 1.74
    },
    {
      "nom": "Doubs",
      "code": "25204",
      "codesPostaux": ["25300"],
      "centre": {
        "type": "Point",
        "coordinates": [6.3651, 46.9321]
      },
      "mairie": {
        "type": "Point",
        "coordinates": [6.3496, 46.9274]
      },
      "population": 3309,
      "surface": 894.56,
      "radius": 1.69
    },
    {
      "nom": "Dung",
      "code": "25207",
      "codesPostaux": ["25550"],
      "centre": {
        "type": "Point",
        "coordinates": [6.7442, 47.5051]
      },
      "mairie": {
        "type": "Point",
        "coordinates": [6.7519, 47.5033]
      },
      "population": 621,
      "surface": 328.77,
      "radius": 1.02
    },
    {
      "nom": "Durnes",
      "code": "25208",
      "codesPostaux": ["25580"],
      "centre": {
        "type": "Point",
        "coordinates": [6.2238, 47.1068]
      },
      "mairie": {
        "type": "Point",
        "coordinates": [6.231, 47.1081]
      },
      "population": 198,
      "surface": 855.63,
      "radius": 1.65
    },
    {
      "nom": "Échay",
      "code": "25209",
      "codesPostaux": ["25440"],
      "centre": {
        "type": "Point",
        "coordinates": [5.9491, 47.0465]
      },
      "mairie": {
        "type": "Point",
        "coordinates": [5.9471, 47.0455]
      },
      "population": 115,
      "surface": 551.13,
      "radius": 1.32
    },
    {
      "nom": "Échenans",
      "code": "25210",
      "codesPostaux": ["25550"],
      "centre": {
        "type": "Point",
        "coordinates": [6.6931, 47.5272]
      },
      "mairie": {
        "type": "Point",
        "coordinates": [6.6971, 47.5263]
      },
      "population": 163,
      "surface": 173.37,
      "radius": 0.74
    },
    {
      "nom": "Échevannes",
      "code": "25211",
      "codesPostaux": ["25580"],
      "centre": {
        "type": "Point",
        "coordinates": [6.2325, 47.0704]
      },
      "mairie": {
        "type": "Point",
        "coordinates": [6.2302, 47.076]
      },
      "population": 87,
      "surface": 533.32,
      "radius": 1.3
    },
    {
      "nom": "École-Valentin",
      "code": "25212",
      "codesPostaux": ["25480"],
      "centre": {
        "type": "Point",
        "coordinates": [5.9877, 47.2743]
      },
      "mairie": {
        "type": "Point",
        "coordinates": [5.9825, 47.2719]
      },
      "population": 2620,
      "surface": 322.48,
      "radius": 1.01
    },
    {
      "nom": "Écot",
      "code": "25214",
      "codesPostaux": ["25150"],
      "centre": {
        "type": "Point",
        "coordinates": [6.7338, 47.4222]
      },
      "mairie": {
        "type": "Point",
        "coordinates": [6.7313, 47.4263]
      },
      "population": 497,
      "surface": 1094.76,
      "radius": 1.87
    },
    {
      "nom": "Écurcey",
      "code": "25216",
      "codesPostaux": ["25150"],
      "centre": {
        "type": "Point",
        "coordinates": [6.8071, 47.4028]
      },
      "mairie": {
        "type": "Point",
        "coordinates": [6.8121, 47.4054]
      },
      "population": 266,
      "surface": 752.16,
      "radius": 1.55
    },
    {
      "nom": "Émagny",
      "code": "25217",
      "codesPostaux": ["25170"],
      "centre": {
        "type": "Point",
        "coordinates": [5.8645, 47.3039]
      },
      "mairie": {
        "type": "Point",
        "coordinates": [5.8673, 47.3142]
      },
      "population": 620,
      "surface": 524.07,
      "radius": 1.29
    },
    {
      "nom": "Épenouse",
      "code": "25218",
      "codesPostaux": ["25530"],
      "centre": {
        "type": "Point",
        "coordinates": [6.3955, 47.2137]
      },
      "mairie": {
        "type": "Point",
        "coordinates": [6.4012, 47.2156]
      },
      "population": 167,
      "surface": 570.59,
      "radius": 1.35
    },
    {
      "nom": "Épenoy",
      "code": "25219",
      "codesPostaux": ["25800"],
      "centre": {
        "type": "Point",
        "coordinates": [6.3816, 47.137]
      },
      "mairie": {
        "type": "Point",
        "coordinates": [6.3697, 47.13]
      },
      "population": 643,
      "surface": 1331.49,
      "radius": 2.06
    },
    {
      "nom": "Épeugney",
      "code": "25220",
      "codesPostaux": ["25290"],
      "centre": {
        "type": "Point",
        "coordinates": [6.0205, 47.1291]
      },
      "mairie": {
        "type": "Point",
        "coordinates": [6.0244, 47.1174]
      },
      "population": 599,
      "surface": 1402.8,
      "radius": 2.11
    },
    {
      "nom": "Esnans",
      "code": "25221",
      "codesPostaux": ["25110"],
      "centre": {
        "type": "Point",
        "coordinates": [6.3245, 47.3326]
      },
      "mairie": {
        "type": "Point",
        "coordinates": [6.3246, 47.3388]
      },
      "population": 65,
      "surface": 353.79,
      "radius": 1.06
    },
    {
      "nom": "Étalans",
      "code": "25222",
      "codesPostaux": ["25580", "25620"],
      "centre": {
        "type": "Point",
        "coordinates": [6.2466, 47.1668]
      },
      "mairie": {
        "type": "Point",
        "coordinates": [6.2695, 47.1495]
      },
      "population": 1648,
      "surface": 4122.99,
      "radius": 3.62
    },
    {
      "nom": "Éternoz-Vallée-du-Lison",
      "code": "25223",
      "codesPostaux": ["25330"],
      "centre": {
        "type": "Point",
        "coordinates": [5.9986, 47.0138]
      },
      "mairie": {
        "type": "Point",
        "coordinates": [6.029, 47.0076]
      },
      "population": 325,
      "surface": 3500.5,
      "radius": 3.34
    },
    {
      "nom": "Étouvans",
      "code": "25224",
      "codesPostaux": ["25260"],
      "centre": {
        "type": "Point",
        "coordinates": [6.7211, 47.4555]
      },
      "mairie": {
        "type": "Point",
        "coordinates": [6.7184, 47.4634]
      },
      "population": 824,
      "surface": 656.96,
      "radius": 1.45
    },
    {
      "nom": "Étrabonne",
      "code": "25225",
      "codesPostaux": ["25170"],
      "centre": {
        "type": "Point",
        "coordinates": [5.7354, 47.2343]
      },
      "mairie": {
        "type": "Point",
        "coordinates": [5.7424, 47.2332]
      },
      "population": 184,
      "surface": 552.92,
      "radius": 1.33
    },
    {
      "nom": "Étrappe",
      "code": "25226",
      "codesPostaux": ["25250"],
      "centre": {
        "type": "Point",
        "coordinates": [6.5806, 47.4705]
      },
      "mairie": {
        "type": "Point",
        "coordinates": [6.579, 47.475]
      },
      "population": 204,
      "surface": 287.45,
      "radius": 0.96
    },
    {
      "nom": "Étray",
      "code": "25227",
      "codesPostaux": ["25800"],
      "centre": {
        "type": "Point",
        "coordinates": [6.3319, 47.1292]
      },
      "mairie": {
        "type": "Point",
        "coordinates": [6.3425, 47.1246]
      },
      "population": 290,
      "surface": 605.79,
      "radius": 1.39
    },
    {
      "nom": "Étupes",
      "code": "25228",
      "codesPostaux": ["25460"],
      "centre": {
        "type": "Point",
        "coordinates": [6.8734, 47.5056]
      },
      "mairie": {
        "type": "Point",
        "coordinates": [6.8631, 47.5068]
      },
      "population": 3711,
      "surface": 997.8,
      "radius": 1.78
    },
    {
      "nom": "Évillers",
      "code": "25229",
      "codesPostaux": ["25520"],
      "centre": {
        "type": "Point",
        "coordinates": [6.223, 46.9884]
      },
      "mairie": {
        "type": "Point",
        "coordinates": [6.2262, 47.0002]
      },
      "population": 390,
      "surface": 1300.68,
      "radius": 2.03
    },
    {
      "nom": "Exincourt",
      "code": "25230",
      "codesPostaux": ["25400"],
      "centre": {
        "type": "Point",
        "coordinates": [6.8371, 47.5017]
      },
      "mairie": {
        "type": "Point",
        "coordinates": [6.8332, 47.498]
      },
      "population": 3273,
      "surface": 349.75,
      "radius": 1.06
    },
    {
      "nom": "Eysson",
      "code": "25231",
      "codesPostaux": ["25530"],
      "centre": {
        "type": "Point",
        "coordinates": [6.4308, 47.2029]
      },
      "mairie": {
        "type": "Point",
        "coordinates": [6.4296, 47.1994]
      },
      "population": 123,
      "surface": 598.59,
      "radius": 1.38
    },
    {
      "nom": "Faimbe",
      "code": "25232",
      "codesPostaux": ["25250"],
      "centre": {
        "type": "Point",
        "coordinates": [6.6157, 47.4873]
      },
      "mairie": {
        "type": "Point",
        "coordinates": [6.6136, 47.4881]
      },
      "population": 100,
      "surface": 197.6,
      "radius": 0.79
    },
    {
      "nom": "Fallerans",
      "code": "25233",
      "codesPostaux": ["25580"],
      "centre": {
        "type": "Point",
        "coordinates": [6.291, 47.1463]
      },
      "mairie": {
        "type": "Point",
        "coordinates": [6.2933, 47.1332]
      },
      "population": 294,
      "surface": 1054.48,
      "radius": 1.83
    },
    {
      "nom": "Ferrières-le-Lac",
      "code": "25234",
      "codesPostaux": ["25470"],
      "centre": {
        "type": "Point",
        "coordinates": [6.8895, 47.2683]
      },
      "mairie": {
        "type": "Point",
        "coordinates": [6.8912, 47.2672]
      },
      "population": 168,
      "surface": 249.15,
      "radius": 0.89
    },
    {
      "nom": "Ferrières-les-Bois",
      "code": "25235",
      "codesPostaux": ["25410"],
      "centre": {
        "type": "Point",
        "coordinates": [5.8019, 47.2088]
      },
      "mairie": {
        "type": "Point",
        "coordinates": [5.8026, 47.2051]
      },
      "population": 326,
      "surface": 421.55,
      "radius": 1.16
    },
    {
      "nom": "Fertans",
      "code": "25236",
      "codesPostaux": ["25330"],
      "centre": {
        "type": "Point",
        "coordinates": [6.0678, 47.0559]
      },
      "mairie": {
        "type": "Point",
        "coordinates": [6.0645, 47.0504]
      },
      "population": 314,
      "surface": 824.54,
      "radius": 1.62
    },
    {
      "nom": "Fesches-le-Châtel",
      "code": "25237",
      "codesPostaux": ["25490"],
      "centre": {
        "type": "Point",
        "coordinates": [6.9034, 47.519]
      },
      "mairie": {
        "type": "Point",
        "coordinates": [6.9126, 47.5222]
      },
      "population": 2147,
      "surface": 345.65,
      "radius": 1.05
    },
    {
      "nom": "Fessevillers",
      "code": "25238",
      "codesPostaux": ["25470"],
      "centre": {
        "type": "Point",
        "coordinates": [6.9204, 47.2812]
      },
      "mairie": {
        "type": "Point",
        "coordinates": [6.9152, 47.2805]
      },
      "population": 159,
      "surface": 611.68,
      "radius": 1.4
    },
    {
      "nom": "Feule",
      "code": "25239",
      "codesPostaux": ["25190"],
      "centre": {
        "type": "Point",
        "coordinates": [6.7377, 47.3504]
      },
      "mairie": {
        "type": "Point",
        "coordinates": [6.7338, 47.3451]
      },
      "population": 189,
      "surface": 382.28,
      "radius": 1.1
    },
    {
      "nom": "Flagey",
      "code": "25241",
      "codesPostaux": ["25330"],
      "centre": {
        "type": "Point",
        "coordinates": [6.1108, 47.0472]
      },
      "mairie": {
        "type": "Point",
        "coordinates": [6.1229, 47.0374]
      },
      "population": 132,
      "surface": 766.07,
      "radius": 1.56
    },
    {
      "nom": "Flagey-Rigney",
      "code": "25242",
      "codesPostaux": ["25640"],
      "centre": {
        "type": "Point",
        "coordinates": [6.2196, 47.4147]
      },
      "mairie": {
        "type": "Point",
        "coordinates": [6.2238, 47.4185]
      },
      "population": 133,
      "surface": 296.62,
      "radius": 0.97
    },
    {
      "nom": "Flangebouche",
      "code": "25243",
      "codesPostaux": ["25390"],
      "centre": {
        "type": "Point",
        "coordinates": [6.4747, 47.1197]
      },
      "mairie": {
        "type": "Point",
        "coordinates": [6.4747, 47.1381]
      },
      "population": 833,
      "surface": 2300.29,
      "radius": 2.71
    },
    {
      "nom": "Fleurey",
      "code": "25244",
      "codesPostaux": ["25190"],
      "centre": {
        "type": "Point",
        "coordinates": [6.7803, 47.2997]
      },
      "mairie": {
        "type": "Point",
        "coordinates": [6.7793, 47.3035]
      },
      "population": 85,
      "surface": 813.08,
      "radius": 1.61
    },
    {
      "nom": "Fontain",
      "code": "25245",
      "codesPostaux": ["25660", "25720"],
      "centre": {
        "type": "Point",
        "coordinates": [6.0308, 47.1895]
      },
      "mairie": {
        "type": "Point",
        "coordinates": [6.0241, 47.2009]
      },
      "population": 1200,
      "surface": 2137.82,
      "radius": 2.61
    },
    {
      "nom": "Fontaine-lès-Clerval",
      "code": "25246",
      "codesPostaux": ["25340"],
      "centre": {
        "type": "Point",
        "coordinates": [6.4672, 47.4231]
      },
      "mairie": {
        "type": "Point",
        "coordinates": [6.4713, 47.4252]
      },
      "population": 259,
      "surface": 1146.71,
      "radius": 1.91
    },
    {
      "nom": "Fontenelle-Montby",
      "code": "25247",
      "codesPostaux": ["25340"],
      "centre": {
        "type": "Point",
        "coordinates": [6.4118, 47.4475]
      },
      "mairie": {
        "type": "Point",
        "coordinates": [6.415, 47.4477]
      },
      "population": 81,
      "surface": 670.71,
      "radius": 1.46
    },
    {
      "nom": "Fontenotte",
      "code": "25249",
      "codesPostaux": ["25110"],
      "centre": {
        "type": "Point",
        "coordinates": [6.313, 47.374]
      },
      "mairie": {
        "type": "Point",
        "coordinates": [6.3214, 47.3761]
      },
      "population": 63,
      "surface": 573.08,
      "radius": 1.35
    },
    {
      "nom": "Fourbanne",
      "code": "25251",
      "codesPostaux": ["25110"],
      "centre": {
        "type": "Point",
        "coordinates": [6.3076, 47.3368]
      },
      "mairie": {
        "type": "Point",
        "coordinates": [6.3051, 47.3322]
      },
      "population": 161,
      "surface": 198.35,
      "radius": 0.79
    },
    {
      "nom": "Fourcatier-et-Maison-Neuve",
      "code": "25252",
      "codesPostaux": ["25370"],
      "centre": {
        "type": "Point",
        "coordinates": [6.313, 46.7644]
      },
      "mairie": {
        "type": "Point",
        "coordinates": [6.3179, 46.7626]
      },
      "population": 124,
      "surface": 275.66,
      "radius": 0.94
    },
    {
      "nom": "Fourg",
      "code": "25253",
      "codesPostaux": ["25440"],
      "centre": {
        "type": "Point",
        "coordinates": [5.8033, 47.0951]
      },
      "mairie": {
        "type": "Point",
        "coordinates": [5.8102, 47.0978]
      },
      "population": 373,
      "surface": 1208.09,
      "radius": 1.96
    },
    {
      "nom": "Fournet-Blancheroche",
      "code": "25255",
      "codesPostaux": ["25140"],
      "centre": {
        "type": "Point",
        "coordinates": [6.8249, 47.1649]
      },
      "mairie": {
        "type": "Point",
        "coordinates": [6.8253, 47.1684]
      },
      "population": 351,
      "surface": 1314.63,
      "radius": 2.05
    },
    {
      "nom": "Fournets-Luisans",
      "code": "25288",
      "codesPostaux": ["25390"],
      "centre": {
        "type": "Point",
        "coordinates": [6.5663, 47.1077]
      },
      "mairie": {
        "type": "Point",
        "coordinates": [6.5627, 47.112]
      },
      "population": 738,
      "surface": 2778.32,
      "radius": 2.97
    },
    {
      "nom": "Frambouhans",
      "code": "25256",
      "codesPostaux": ["25140"],
      "centre": {
        "type": "Point",
        "coordinates": [6.7786, 47.2003]
      },
      "mairie": {
        "type": "Point",
        "coordinates": [6.7679, 47.217]
      },
      "population": 878,
      "surface": 1011.88,
      "radius": 1.79
    },
    {
      "nom": "Franey",
      "code": "25257",
      "codesPostaux": ["25170"],
      "centre": {
        "type": "Point",
        "coordinates": [5.8174, 47.2584]
      },
      "mairie": {
        "type": "Point",
        "coordinates": [5.8171, 47.2619]
      },
      "population": 267,
      "surface": 338.57,
      "radius": 1.04
    },
    {
      "nom": "Franois",
      "code": "25258",
      "codesPostaux": ["25770"],
      "centre": {
        "type": "Point",
        "coordinates": [5.9261, 47.2246]
      },
      "mairie": {
        "type": "Point",
        "coordinates": [5.924, 47.2344]
      },
      "population": 2250,
      "surface": 730.21,
      "radius": 1.52
    },
    {
      "nom": "Frasne",
      "code": "25259",
      "codesPostaux": ["25560"],
      "centre": {
        "type": "Point",
        "coordinates": [6.145, 46.854]
      },
      "mairie": {
        "type": "Point",
        "coordinates": [6.1616, 46.8571]
      },
      "population": 1958,
      "surface": 3301.29,
      "radius": 3.24
    },
    {
      "nom": "Froidevaux",
      "code": "25261",
      "codesPostaux": ["25190"],
      "centre": {
        "type": "Point",
        "coordinates": [6.6905, 47.302]
      },
      "mairie": {
        "type": "Point",
        "coordinates": [6.6924, 47.3008]
      },
      "population": 80,
      "surface": 401.36,
      "radius": 1.13
    },
    {
      "nom": "Fuans",
      "code": "25262",
      "codesPostaux": ["25390"],
      "centre": {
        "type": "Point",
        "coordinates": [6.5897, 47.126]
      },
      "mairie": {
        "type": "Point",
        "coordinates": [6.5711, 47.1296]
      },
      "population": 472,
      "surface": 1108.03,
      "radius": 1.88
    },
    {
      "nom": "Gellin",
      "code": "25263",
      "codesPostaux": ["25240"],
      "centre": {
        "type": "Point",
        "coordinates": [6.2359, 46.7179]
      },
      "mairie": {
        "type": "Point",
        "coordinates": [6.239, 46.734]
      },
      "population": 264,
      "surface": 482.52,
      "radius": 1.24
    },
    {
      "nom": "Gémonval",
      "code": "25264",
      "codesPostaux": ["25250"],
      "centre": {
        "type": "Point",
        "coordinates": [6.5928, 47.5355]
      },
      "mairie": {
        "type": "Point",
        "coordinates": [6.5887, 47.5334]
      },
      "population": 82,
      "surface": 343.54,
      "radius": 1.05
    },
    {
      "nom": "Geneuille",
      "code": "25265",
      "codesPostaux": ["25870"],
      "centre": {
        "type": "Point",
        "coordinates": [5.9696, 47.3217]
      },
      "mairie": {
        "type": "Point",
        "coordinates": [5.9721, 47.3232]
      },
      "population": 1264,
      "surface": 642.66,
      "radius": 1.43
    },
    {
      "nom": "Geney",
      "code": "25266",
      "codesPostaux": ["25250"],
      "centre": {
        "type": "Point",
        "coordinates": [6.5671, 47.4815]
      },
      "mairie": {
        "type": "Point",
        "coordinates": [6.5648, 47.4853]
      },
      "population": 125,
      "surface": 438.89,
      "radius": 1.18
    },
    {
      "nom": "Gennes",
      "code": "25267",
      "codesPostaux": ["25660"],
      "centre": {
        "type": "Point",
        "coordinates": [6.1305, 47.2481]
      },
      "mairie": {
        "type": "Point",
        "coordinates": [6.1231, 47.2447]
      },
      "population": 676,
      "surface": 724.38,
      "radius": 1.52
    },
    {
      "nom": "Germéfontaine",
      "code": "25268",
      "codesPostaux": ["25510"],
      "centre": {
        "type": "Point",
        "coordinates": [6.4859, 47.2256]
      },
      "mairie": {
        "type": "Point",
        "coordinates": [6.4685, 47.2254]
      },
      "population": 117,
      "surface": 1117.35,
      "radius": 1.89
    },
    {
      "nom": "Germondans",
      "code": "25269",
      "codesPostaux": ["25640"],
      "centre": {
        "type": "Point",
        "coordinates": [6.1992, 47.4165]
      },
      "mairie": {
        "type": "Point",
        "coordinates": [6.1924, 47.4096]
      },
      "population": 59,
      "surface": 371.75,
      "radius": 1.09
    },
    {
      "nom": "Gevresin",
      "code": "25270",
      "codesPostaux": ["25270"],
      "centre": {
        "type": "Point",
        "coordinates": [6.0495, 46.9641]
      },
      "mairie": {
        "type": "Point",
        "coordinates": [6.0424, 46.9676]
      },
      "population": 153,
      "surface": 706.24,
      "radius": 1.5
    },
    {
      "nom": "Gilley",
      "code": "25271",
      "codesPostaux": ["25650"],
      "centre": {
        "type": "Point",
        "coordinates": [6.4832, 47.0554]
      },
      "mairie": {
        "type": "Point",
        "coordinates": [6.4793, 47.0475]
      },
      "population": 1805,
      "surface": 1746.13,
      "radius": 2.36
    },
    {
      "nom": "Glamondans",
      "code": "25273",
      "codesPostaux": ["25360"],
      "centre": {
        "type": "Point",
        "coordinates": [6.2865, 47.2658]
      },
      "mairie": {
        "type": "Point",
        "coordinates": [6.2789, 47.2659]
      },
      "population": 196,
      "surface": 973.01,
      "radius": 1.76
    },
    {
      "nom": "Glay",
      "code": "25274",
      "codesPostaux": ["25310"],
      "centre": {
        "type": "Point",
        "coordinates": [6.8944, 47.4019]
      },
      "mairie": {
        "type": "Point",
        "coordinates": [6.8903, 47.4055]
      },
      "population": 340,
      "surface": 662.31,
      "radius": 1.45
    },
    {
      "nom": "Glère",
      "code": "25275",
      "codesPostaux": ["25190"],
      "centre": {
        "type": "Point",
        "coordinates": [6.984, 47.3444]
      },
      "mairie": {
        "type": "Point",
        "coordinates": [6.9942, 47.3439]
      },
      "population": 180,
      "surface": 1618.27,
      "radius": 2.27
    },
    {
      "nom": "Gondenans-les-Moulins",
      "code": "25277",
      "codesPostaux": ["25680"],
      "centre": {
        "type": "Point",
        "coordinates": [6.3832, 47.4667]
      },
      "mairie": {
        "type": "Point",
        "coordinates": [6.3822, 47.4688]
      },
      "population": 83,
      "surface": 393.65,
      "radius": 1.12
    },
    {
      "nom": "Gondenans-Montby",
      "code": "25276",
      "codesPostaux": ["25340"],
      "centre": {
        "type": "Point",
        "coordinates": [6.4619, 47.443]
      },
      "mairie": {
        "type": "Point",
        "coordinates": [6.4488, 47.4338]
      },
      "population": 163,
      "surface": 1183.8,
      "radius": 1.94
    },
    {
      "nom": "Gonsans",
      "code": "25278",
      "codesPostaux": ["25360"],
      "centre": {
        "type": "Point",
        "coordinates": [6.299, 47.2255]
      },
      "mairie": {
        "type": "Point",
        "coordinates": [6.2999, 47.2328]
      },
      "population": 559,
      "surface": 1734.96,
      "radius": 2.35
    },
    {
      "nom": "Gouhelans",
      "code": "25279",
      "codesPostaux": ["25680"],
      "centre": {
        "type": "Point",
        "coordinates": [6.3622, 47.4532]
      },
      "mairie": {
        "type": "Point",
        "coordinates": [6.3554, 47.4557]
      },
      "population": 118,
      "surface": 619.57,
      "radius": 1.4
    },
    {
      "nom": "Goumois",
      "code": "25280",
      "codesPostaux": ["25470"],
      "centre": {
        "type": "Point",
        "coordinates": [6.94, 47.2662]
      },
      "mairie": {
        "type": "Point",
        "coordinates": [6.9498, 47.2613]
      },
      "population": 167,
      "surface": 592.28,
      "radius": 1.37
    },
    {
      "nom": "Goux-lès-Dambelin",
      "code": "25281",
      "codesPostaux": ["25150"],
      "centre": {
        "type": "Point",
        "coordinates": [6.6814, 47.3981]
      },
      "mairie": {
        "type": "Point",
        "coordinates": [6.6693, 47.3976]
      },
      "population": 272,
      "surface": 887.34,
      "radius": 1.68
    },
    {
      "nom": "Goux-sous-Landet",
      "code": "25283",
      "codesPostaux": ["25440"],
      "centre": {
        "type": "Point",
        "coordinates": [5.934, 47.0788]
      },
      "mairie": {
        "type": "Point",
        "coordinates": [5.9342, 47.0809]
      },
      "population": 60,
      "surface": 543.7,
      "radius": 1.32
    },
    {
      "nom": "Grand-Charmont",
      "code": "25284",
      "codesPostaux": ["25200"],
      "centre": {
        "type": "Point",
        "coordinates": [6.823, 47.5332]
      },
      "mairie": {
        "type": "Point",
        "coordinates": [6.8229, 47.5277]
      },
      "population": 5865,
      "surface": 450.4,
      "radius": 1.2
    },
    {
      "nom": "Grand'Combe-Châteleu",
      "code": "25285",
      "codesPostaux": ["25570"],
      "centre": {
        "type": "Point",
        "coordinates": [6.555, 47.016]
      },
      "mairie": {
        "type": "Point",
        "coordinates": [6.57, 47.0264]
      },
      "population": 1507,
      "surface": 2160.47,
      "radius": 2.62
    },
    {
      "nom": "Grand'Combe-des-Bois",
      "code": "25286",
      "codesPostaux": ["25210"],
      "centre": {
        "type": "Point",
        "coordinates": [6.7794, 47.1329]
      },
      "mairie": {
        "type": "Point",
        "coordinates": [6.7896, 47.1376]
      },
      "population": 122,
      "surface": 1188.94,
      "radius": 1.95
    },
    {
      "nom": "Grandfontaine",
      "code": "25287",
      "codesPostaux": ["25320"],
      "centre": {
        "type": "Point",
        "coordinates": [5.9053, 47.1982]
      },
      "mairie": {
        "type": "Point",
        "coordinates": [5.9045, 47.1979]
      },
      "population": 1810,
      "surface": 572.59,
      "radius": 1.35
    },
    {
      "nom": "Grandfontaine-sur-Creuse",
      "code": "25289",
      "codesPostaux": ["25510"],
      "centre": {
        "type": "Point",
        "coordinates": [6.4575, 47.1867]
      },
      "mairie": {
        "type": "Point",
        "coordinates": [6.4542, 47.1929]
      },
      "population": 73,
      "surface": 596.64,
      "radius": 1.38
    },
    {
      "nom": "Granges-Narboz",
      "code": "25293",
      "codesPostaux": ["25300"],
      "centre": {
        "type": "Point",
        "coordinates": [6.3227, 46.8781]
      },
      "mairie": {
        "type": "Point",
        "coordinates": [6.3103, 46.879]
      },
      "population": 1355,
      "surface": 1628.03,
      "radius": 2.28
    },
    {
      "nom": "Grosbois",
      "code": "25298",
      "codesPostaux": ["25110"],
      "centre": {
        "type": "Point",
        "coordinates": [6.3054, 47.3491]
      },
      "mairie": {
        "type": "Point",
        "coordinates": [6.3075, 47.3438]
      },
      "population": 257,
      "surface": 294.51,
      "radius": 0.97
    },
    {
      "nom": "Guillon-les-Bains",
      "code": "25299",
      "codesPostaux": ["25110"],
      "centre": {
        "type": "Point",
        "coordinates": [6.3946, 47.3147]
      },
      "mairie": {
        "type": "Point",
        "coordinates": [6.3938, 47.3186]
      },
      "population": 109,
      "surface": 476.7,
      "radius": 1.23
    },
    {
      "nom": "Guyans-Durnes",
      "code": "25300",
      "codesPostaux": ["25580"],
      "centre": {
        "type": "Point",
        "coordinates": [6.2427, 47.1292]
      },
      "mairie": {
        "type": "Point",
        "coordinates": [6.2432, 47.1221]
      },
      "population": 317,
      "surface": 914.27,
      "radius": 1.71
    },
    {
      "nom": "Guyans-Vennes",
      "code": "25301",
      "codesPostaux": ["25390"],
      "centre": {
        "type": "Point",
        "coordinates": [6.5914, 47.1669]
      },
      "mairie": {
        "type": "Point",
        "coordinates": [6.5721, 47.1565]
      },
      "population": 847,
      "surface": 1971.97,
      "radius": 2.51
    },
    {
      "nom": "Hérimoncourt",
      "code": "25304",
      "codesPostaux": ["25310"],
      "centre": {
        "type": "Point",
        "coordinates": [6.8868, 47.4358]
      },
      "mairie": {
        "type": "Point",
        "coordinates": [6.8821, 47.4421]
      },
      "population": 3530,
      "surface": 729.88,
      "radius": 1.52
    },
    {
      "nom": "Houtaud",
      "code": "25309",
      "codesPostaux": ["25300"],
      "centre": {
        "type": "Point",
        "coordinates": [6.3021, 46.915]
      },
      "mairie": {
        "type": "Point",
        "coordinates": [6.3094, 46.9164]
      },
      "population": 1197,
      "surface": 784.32,
      "radius": 1.58
    },
    {
      "nom": "Huanne-Montmartin",
      "code": "25310",
      "codesPostaux": ["25680"],
      "centre": {
        "type": "Point",
        "coordinates": [6.3418, 47.4302]
      },
      "mairie": {
        "type": "Point",
        "coordinates": [6.3446, 47.4311]
      },
      "population": 105,
      "surface": 355.64,
      "radius": 1.06
    },
    {
      "nom": "Hyémondans",
      "code": "25311",
      "codesPostaux": ["25250"],
      "centre": {
        "type": "Point",
        "coordinates": [6.6422, 47.3816]
      },
      "mairie": {
        "type": "Point",
        "coordinates": [6.6509, 47.3882]
      },
      "population": 203,
      "surface": 691.22,
      "radius": 1.48
    },
    {
      "nom": "Hyèvre-Magny",
      "code": "25312",
      "codesPostaux": ["25110"],
      "centre": {
        "type": "Point",
        "coordinates": [6.43, 47.3616]
      },
      "mairie": {
        "type": "Point",
        "coordinates": [6.4367, 47.3663]
      },
      "population": 63,
      "surface": 339.16,
      "radius": 1.04
    },
    {
      "nom": "Hyèvre-Paroisse",
      "code": "25313",
      "codesPostaux": ["25110"],
      "centre": {
        "type": "Point",
        "coordinates": [6.4297, 47.3749]
      },
      "mairie": {
        "type": "Point",
        "coordinates": [6.4311, 47.3708]
      },
      "population": 192,
      "surface": 877.81,
      "radius": 1.67
    },
    {
      "nom": "Indevillers",
      "code": "25314",
      "codesPostaux": ["25470"],
      "centre": {
        "type": "Point",
        "coordinates": [6.9706, 47.3146]
      },
      "mairie": {
        "type": "Point",
        "coordinates": [6.9555, 47.3128]
      },
      "population": 248,
      "surface": 2306.03,
      "radius": 2.71
    },
    {
      "nom": "Issans",
      "code": "25316",
      "codesPostaux": ["25550"],
      "centre": {
        "type": "Point",
        "coordinates": [6.7338, 47.5255]
      },
      "mairie": {
        "type": "Point",
        "coordinates": [6.7279, 47.5278]
      },
      "population": 241,
      "surface": 271.53,
      "radius": 0.93
    },
    {
      "nom": "Jallerange",
      "code": "25317",
      "codesPostaux": ["25170"],
      "centre": {
        "type": "Point",
        "coordinates": [5.719, 47.2541]
      },
      "mairie": {
        "type": "Point",
        "coordinates": [5.7163, 47.2533]
      },
      "population": 277,
      "surface": 553.04,
      "radius": 1.33
    },
    {
      "nom": "Jougne",
      "code": "25318",
      "codesPostaux": ["25370"],
      "centre": {
        "type": "Point",
        "coordinates": [6.4064, 46.7598]
      },
      "mairie": {
        "type": "Point",
        "coordinates": [6.3895, 46.7605]
      },
      "population": 1915,
      "surface": 2906.23,
      "radius": 3.04
    },
    {
      "nom": "L'Écouvotte",
      "code": "25215",
      "codesPostaux": ["25640"],
      "centre": {
        "type": "Point",
        "coordinates": [6.2519, 47.3443]
      },
      "mairie": {
        "type": "Point",
        "coordinates": [6.2517, 47.3404]
      },
      "population": 97,
      "surface": 209.22,
      "radius": 0.82
    },
    {
      "nom": "L'Hôpital-du-Grosbois",
      "code": "25305",
      "codesPostaux": ["25620"],
      "centre": {
        "type": "Point",
        "coordinates": [6.2111, 47.1794]
      },
      "mairie": {
        "type": "Point",
        "coordinates": [6.2164, 47.1716]
      },
      "population": 605,
      "surface": 776.74,
      "radius": 1.57
    },
    {
      "nom": "L'Hôpital-Saint-Lieffroy",
      "code": "25306",
      "codesPostaux": ["25340"],
      "centre": {
        "type": "Point",
        "coordinates": [6.4555, 47.4006]
      },
      "mairie": {
        "type": "Point",
        "coordinates": [6.4573, 47.3988]
      },
      "population": 122,
      "surface": 347.03,
      "radius": 1.05
    },
    {
      "nom": "L'Isle-sur-le-Doubs",
      "code": "25315",
      "codesPostaux": ["25250"],
      "centre": {
        "type": "Point",
        "coordinates": [6.5912, 47.4242]
      },
      "mairie": {
        "type": "Point",
        "coordinates": [6.5792, 47.4511]
      },
      "population": 2812,
      "surface": 1076.1,
      "radius": 1.85
    },
    {
      "nom": "La Bosse",
      "code": "25077",
      "codesPostaux": ["25210"],
      "centre": {
        "type": "Point",
        "coordinates": [6.6485, 47.1428]
      },
      "mairie": {
        "type": "Point",
        "coordinates": [6.6503, 47.1376]
      },
      "population": 86,
      "surface": 516.14,
      "radius": 1.28
    },
    {
      "nom": "La Bretenière",
      "code": "25092",
      "codesPostaux": ["25640"],
      "centre": {
        "type": "Point",
        "coordinates": [6.2756, 47.3792]
      },
      "mairie": {
        "type": "Point",
        "coordinates": [6.2731, 47.3816]
      },
      "population": 70,
      "surface": 418.74,
      "radius": 1.15
    },
    {
      "nom": "La Chaux",
      "code": "25139",
      "codesPostaux": ["25650"],
      "centre": {
        "type": "Point",
        "coordinates": [6.4093, 47.0202]
      },
      "mairie": {
        "type": "Point",
        "coordinates": [6.4332, 47.0228]
      },
      "population": 611,
      "surface": 1699.4,
      "radius": 2.33
    },
    {
      "nom": "La Chenalotte",
      "code": "25148",
      "codesPostaux": ["25500"],
      "centre": {
        "type": "Point",
        "coordinates": [6.6901, 47.1088]
      },
      "mairie": {
        "type": "Point",
        "coordinates": [6.6845, 47.1087]
      },
      "population": 532,
      "surface": 493.49,
      "radius": 1.25
    },
    {
      "nom": "La Chevillotte",
      "code": "25152",
      "codesPostaux": ["25620"],
      "centre": {
        "type": "Point",
        "coordinates": [6.1592, 47.2188]
      },
      "mairie": {
        "type": "Point",
        "coordinates": [6.1655, 47.2192]
      },
      "population": 143,
      "surface": 767.09,
      "radius": 1.56
    },
    {
      "nom": "La Cluse-et-Mijoux",
      "code": "25157",
      "codesPostaux": ["25300"],
      "centre": {
        "type": "Point",
        "coordinates": [6.3979, 46.8575]
      },
      "mairie": {
        "type": "Point",
        "coordinates": [6.3805, 46.8723]
      },
      "population": 1317,
      "surface": 2274.7,
      "radius": 2.69
    },
    {
      "nom": "La Grange",
      "code": "25290",
      "codesPostaux": ["25380"],
      "centre": {
        "type": "Point",
        "coordinates": [6.6711, 47.285]
      },
      "mairie": {
        "type": "Point",
        "coordinates": [6.6657, 47.2823]
      },
      "population": 97,
      "surface": 632.05,
      "radius": 1.42
    },
    {
      "nom": "La Planée",
      "code": "25459",
      "codesPostaux": ["25160"],
      "centre": {
        "type": "Point",
        "coordinates": [6.2746, 46.8402]
      },
      "mairie": {
        "type": "Point",
        "coordinates": [6.2813, 46.8401]
      },
      "population": 325,
      "surface": 1301.71,
      "radius": 2.04
    },
    {
      "nom": "La Prétière",
      "code": "25470",
      "codesPostaux": ["25250"],
      "centre": {
        "type": "Point",
        "coordinates": [6.6108, 47.4494]
      },
      "mairie": {
        "type": "Point",
        "coordinates": [6.6099, 47.446]
      },
      "population": 160,
      "surface": 273.79,
      "radius": 0.93
    },
    {
      "nom": "La Rivière-Drugeon",
      "code": "25493",
      "codesPostaux": ["25560"],
      "centre": {
        "type": "Point",
        "coordinates": [6.2089, 46.8761]
      },
      "mairie": {
        "type": "Point",
        "coordinates": [6.2149, 46.867]
      },
      "population": 927,
      "surface": 1911.26,
      "radius": 2.47
    },
    {
      "nom": "La Sommette",
      "code": "25550",
      "codesPostaux": ["25510"],
      "centre": {
        "type": "Point",
        "coordinates": [6.5121, 47.1949]
      },
      "mairie": {
        "type": "Point",
        "coordinates": [6.5103, 47.1925]
      },
      "population": 238,
      "surface": 741.32,
      "radius": 1.54
    },
    {
      "nom": "La Tour-de-Sçay",
      "code": "25566",
      "codesPostaux": ["25640"],
      "centre": {
        "type": "Point",
        "coordinates": [6.2239, 47.383]
      },
      "mairie": {
        "type": "Point",
        "coordinates": [6.2262, 47.3878]
      },
      "population": 323,
      "surface": 889.28,
      "radius": 1.68
    },
    {
      "nom": "La Vèze",
      "code": "25611",
      "codesPostaux": ["25660"],
      "centre": {
        "type": "Point",
        "coordinates": [6.073, 47.1982]
      },
      "mairie": {
        "type": "Point",
        "coordinates": [6.0661, 47.2135]
      },
      "population": 495,
      "surface": 531.08,
      "radius": 1.3
    },
    {
      "nom": "Labergement-Sainte-Marie",
      "code": "25320",
      "codesPostaux": ["25160"],
      "centre": {
        "type": "Point",
        "coordinates": [6.282, 46.7817]
      },
      "mairie": {
        "type": "Point",
        "coordinates": [6.2824, 46.7744]
      },
      "population": 1257,
      "surface": 2206.77,
      "radius": 2.65
    },
    {
      "nom": "Laire",
      "code": "25322",
      "codesPostaux": ["25550"],
      "centre": {
        "type": "Point",
        "coordinates": [6.7385, 47.5509]
      },
      "mairie": {
        "type": "Point",
        "coordinates": [6.7325, 47.5506]
      },
      "population": 410,
      "surface": 318.71,
      "radius": 1.01
    },
    {
      "nom": "Laissey",
      "code": "25323",
      "codesPostaux": ["25820"],
      "centre": {
        "type": "Point",
        "coordinates": [6.2336, 47.3006]
      },
      "mairie": {
        "type": "Point",
        "coordinates": [6.2314, 47.2974]
      },
      "population": 442,
      "surface": 283.24,
      "radius": 0.95
    },
    {
      "nom": "Lanans",
      "code": "25324",
      "codesPostaux": ["25360"],
      "centre": {
        "type": "Point",
        "coordinates": [6.4465, 47.2932]
      },
      "mairie": {
        "type": "Point",
        "coordinates": [6.4487, 47.2969]
      },
      "population": 162,
      "surface": 1021.29,
      "radius": 1.8
    },
    {
      "nom": "Landresse",
      "code": "25325",
      "codesPostaux": ["25530"],
      "centre": {
        "type": "Point",
        "coordinates": [6.4855, 47.2597]
      },
      "mairie": {
        "type": "Point",
        "coordinates": [6.4688, 47.257]
      },
      "population": 238,
      "surface": 1443.33,
      "radius": 2.14
    },
    {
      "nom": "Lantenne-Vertière",
      "code": "25326",
      "codesPostaux": ["25170"],
      "centre": {
        "type": "Point",
        "coordinates": [5.7757, 47.2308]
      },
      "mairie": {
        "type": "Point",
        "coordinates": [5.7793, 47.2328]
      },
      "population": 545,
      "surface": 986.73,
      "radius": 1.77
    },
    {
      "nom": "Lanthenans",
      "code": "25327",
      "codesPostaux": ["25250"],
      "centre": {
        "type": "Point",
        "coordinates": [6.6257, 47.3915]
      },
      "mairie": {
        "type": "Point",
        "coordinates": [6.6271, 47.394]
      },
      "population": 70,
      "surface": 332.28,
      "radius": 1.03
    },
    {
      "nom": "Larnod",
      "code": "25328",
      "codesPostaux": ["25720"],
      "centre": {
        "type": "Point",
        "coordinates": [5.9718, 47.1762]
      },
      "mairie": {
        "type": "Point",
        "coordinates": [5.9734, 47.1877]
      },
      "population": 784,
      "surface": 408.84,
      "radius": 1.14
    },
    {
      "nom": "Laval-le-Prieuré",
      "code": "25329",
      "codesPostaux": ["25210"],
      "centre": {
        "type": "Point",
        "coordinates": [6.6207, 47.1794]
      },
      "mairie": {
        "type": "Point",
        "coordinates": [6.6212, 47.1814]
      },
      "population": 33,
      "surface": 540.25,
      "radius": 1.31
    },
    {
      "nom": "Lavans-Quingey",
      "code": "25330",
      "codesPostaux": ["25440"],
      "centre": {
        "type": "Point",
        "coordinates": [5.896, 47.0888]
      },
      "mairie": {
        "type": "Point",
        "coordinates": [5.8777, 47.0889]
      },
      "population": 182,
      "surface": 590.75,
      "radius": 1.37
    },
    {
      "nom": "Lavans-Vuillafans",
      "code": "25331",
      "codesPostaux": ["25580"],
      "centre": {
        "type": "Point",
        "coordinates": [6.2536, 47.0774]
      },
      "mairie": {
        "type": "Point",
        "coordinates": [6.2434, 47.0869]
      },
      "population": 238,
      "surface": 1004.88,
      "radius": 1.79
    },
    {
      "nom": "Lavernay",
      "code": "25332",
      "codesPostaux": ["25170"],
      "centre": {
        "type": "Point",
        "coordinates": [5.8194, 47.2447]
      },
      "mairie": {
        "type": "Point",
        "coordinates": [5.817, 47.2465]
      },
      "population": 577,
      "surface": 778.23,
      "radius": 1.57
    },
    {
      "nom": "Laviron",
      "code": "25333",
      "codesPostaux": ["25510"],
      "centre": {
        "type": "Point",
        "coordinates": [6.5614, 47.2553]
      },
      "mairie": {
        "type": "Point",
        "coordinates": [6.5532, 47.2562]
      },
      "population": 352,
      "surface": 2019.14,
      "radius": 2.54
    },
    {
      "nom": "Le Barboux",
      "code": "25042",
      "codesPostaux": ["25210"],
      "centre": {
        "type": "Point",
        "coordinates": [6.7207, 47.1219]
      },
      "mairie": {
        "type": "Point",
        "coordinates": [6.7176, 47.1208]
      },
      "population": 238,
      "surface": 1135.46,
      "radius": 1.9
    },
    {
      "nom": "Le Bélieu",
      "code": "25050",
      "codesPostaux": ["25500"],
      "centre": {
        "type": "Point",
        "coordinates": [6.6306, 47.124]
      },
      "mairie": {
        "type": "Point",
        "coordinates": [6.6354, 47.1193]
      },
      "population": 512,
      "surface": 1082.82,
      "radius": 1.86
    },